{"class":"VERSION","release":"3.25","rev":"3.25","proto_major":3,"proto_minor":15}
{"class":"DEVICES","devices":[{"class":"DEVICE","path":"/dev/ttyACM0","driver":"u-blox","subtype":"SW 5.00    May 11 2006 14:40:17,HW 00040001","subtype1":"M4T1.2  May 11 2006 14:40:17","activated":"2024-06-05T06:37:10.188Z","flags":1,"native":1,"bps":57600,"parity":"N","stopbits":1,"cycle":1.00,"mincycle":0.02}]}
{"class":"WATCH","enable":true,"json":true,"nmea":false,"raw":0,"scaled":false,"timing":false,"split24":false,"pps":false}
{"class":"TPV","device":"/dev/ttyACM0","mode":3,"time":"2024-06-05T06:37:10.248Z","leapseconds":18,"ept":0.005,"lat":52.315792694,"lon":10.563237652,"altHAE":138.3188,"altMSL":94.4215,"alt":94.4215,"epx":8.920,"epy":10.061,"epv":33.120,"track":0.0000,"magtrack":3.2199,"magvar":3.2,"speed":0.000,"climb":0.000,"eps":0.29,"epc":267.10,"ecefx":3841079.87,"ecefy":716288.02,"ecefz":5024469.73,"ecefvx":0.00,"ecefvy":0.00,"ecefvz":0.00,"ecefpAcc":5.32,"ecefvAcc":0.29,"velN":0.000,"velE":0.000,"velD":0.000,"geoidSep":43.897,"eph":16.530,"sep":31.920}
{"class":"SKY","device":"/dev/ttyACM0","time":"2024-06-05T06:37:10.000Z","gdop":1.88,"hdop":0.87,"pdop":1.68,"tdop":0.84,"xdop":0.59,"ydop":0.67,"vdop":1.44,"uSat":10}
{"class":"SKY","device":"/dev/ttyACM0","time":"2024-06-05T06:37:10.000Z","gdop":1.88,"hdop":0.87,"pdop":1.68,"tdop":0.84,"xdop":0.59,"ydop":0.67,"vdop":1.44,"uSat":10}
{"class":"TPV","device":"/dev/ttyACM0","mode":3,"time":"2024-06-05T06:37:10.248Z","leapseconds":18,"ept":0.005,"lat":52.315792694,"lon":10.563237652,"altHAE":138.3188,"altMSL":94.4215,"alt":94.4215,"epx":8.920,"epy":10.061,"epv":33.120,"track":0.0000,"magtrack":3.2199,"magvar":3.2,"speed":0.000,"climb":0.000,"eps":81.14,"epc":267.10,"ecefx":3841079.87,"ecefy":716288.02,"ecefz":5024469.73,"ecefvx":0.00,"ecefvy":0.00,"ecefvz":0.00,"ecefpAcc":5.32,"ecefvAcc":0.29,"velN":0.000,"velE":0.000,"velD":0.000,"geoidSep":43.897,"eph":16.530,"sep":31.920}
{"class":"SKY","device":"/dev/ttyACM0","time":"2024-06-05T06:37:10.248Z","gdop":1.88,"hdop":0.87,"pdop":1.68,"tdop":0.84,"xdop":0.59,"ydop":0.67,"vdop":1.44,"nSat":14,"uSat":11,"satellites":[{"PRN":26,"gnssid":0,"svid":26,"az":294.0,"el":42.0,"ss":42.0,"used":true,"health":1},{"PRN":5,"gnssid":0,"svid":5,"az":89.0,"el":17.0,"ss":45.0,"used":true,"health":1},{"PRN":29,"gnssid":0,"svid":29,"az":68.0,"el":75.0,"ss":49.0,"used":true,"health":1},{"PRN":9,"gnssid":0,"svid":9,"az":358.0,"el":1.0,"ss":34.0,"used":false,"health":1},{"PRN":18,"gnssid":0,"svid":18,"az":177.0,"el":35.0,"ss":48.0,"used":true,"health":1},{"PRN":37,"gnssid":1,"svid":124,"az":0.0,"el":-9.0,"ss":0.0,"used":false,"health":1},{"PRN":16,"gnssid":0,"svid":16,"az":0.0,"el":-9.0,"ss":22.0,"used":false,"health":1},{"PRN":25,"gnssid":0,"svid":25,"az":122.0,"el":36.0,"ss":43.0,"used":true,"health":1},{"PRN":28,"gnssid":0,"svid":28,"az":221.0,"el":46.0,"ss":34.0,"used":true,"health":1},{"PRN":20,"gnssid":0,"svid":20,"az":60.0,"el":21.0,"ss":41.0,"used":true,"health":1},{"PRN":11,"gnssid":0,"svid":11,"az":37.0,"el":12.0,"ss":32.0,"used":true,"health":1},{"PRN":31,"gnssid":0,"svid":31,"az":271.0,"el":50.0,"ss":40.0,"used":true,"health":1},{"PRN":12,"gnssid":0,"svid":12,"az":115.0,"el":8.0,"ss":38.0,"used":true,"health":1},{"PRN":4,"gnssid":0,"svid":4,"az":324.0,"el":11.0,"ss":40.0,"used":true,"health":1}]}
{"class":"TPV","device":"/dev/ttyACM0","mode":3,"time":"2024-06-05T06:37:10.500Z","leapseconds":18,"ept":0.005,"lat":52.315792582,"lon":10.563237481,"altHAE":138.3158,"altMSL":94.4185,"alt":94.4185,"epx":8.920,"epy":10.061,"epv":33.120,"track":180.0000,"magtrack":183.2199,"magvar":3.2,"speed":0.012,"climb":-0.016,"eps":0.28,"epc":262.86,"ecefx":3841079.88,"ecefy":716288.01,"ecefz":5024469.72,"ecefvx":0.00,"ecefvy":0.00,"ecefvz":-0.02,"ecefpAcc":5.32,"ecefvAcc":0.28,"velN":-0.012,"velE":0.000,"velD":0.016,"geoidSep":43.897,"eph":16.530,"sep":31.920}
{"class":"SKY","device":"/dev/ttyACM0","time":"2024-06-05T06:37:10.248Z","gdop":1.88,"hdop":0.87,"pdop":1.68,"tdop":0.84,"xdop":0.59,"ydop":0.67,"vdop":1.44,"uSat":10}
{"class":"SKY","device":"/dev/ttyACM0","time":"2024-06-05T06:37:10.248Z","gdop":1.88,"hdop":0.87,"pdop":1.68,"tdop":0.84,"xdop":0.59,"ydop":0.67,"vdop":1.44,"uSat":10}
{"class":"TPV","device":"/dev/ttyACM0","mode":3,"time":"2024-06-05T06:37:10.500Z","leapseconds":18,"ept":0.005,"lat":52.315792582,"lon":10.563237481,"altHAE":138.3158,"altMSL":94.4185,"alt":94.4185,"epx":8.920,"epy":10.061,"epv":33.120,"track":180.0000,"magtrack":183.2199,"magvar":3.2,"speed":0.012,"climb":-0.016,"eps":79.85,"epc":262.86,"ecefx":3841079.88,"ecefy":716288.01,"ecefz":5024469.72,"ecefvx":0.00,"ecefvy":0.00,"ecefvz":-0.02,"ecefpAcc":5.32,"ecefvAcc":0.28,"velN":-0.012,"velE":0.000,"velD":0.016,"geoidSep":43.897,"eph":16.530,"sep":31.920}
{"class":"SKY","device":"/dev/ttyACM0","time":"2024-06-05T06:37:10.500Z","gdop":1.88,"hdop":0.87,"pdop":1.68,"tdop":0.84,"xdop":0.59,"ydop":0.67,"vdop":1.44,"nSat":14,"uSat":11,"satellites":[{"PRN":26,"gnssid":0,"svid":26,"az":294.0,"el":42.0,"ss":42.0,"used":true,"health":1},{"PRN":5,"gnssid":0,"svid":5,"az":89.0,"el":17.0,"ss":45.0,"used":true,"health":1},{"PRN":29,"gnssid":0,"svid":29,"az":68.0,"el":75.0,"ss":49.0,"used":true,"health":1},{"PRN":9,"gnssid":0,"svid":9,"az":358.0,"el":1.0,"ss":34.0,"used":false,"health":1},{"PRN":18,"gnssid":0,"svid":18,"az":177.0,"el":35.0,"ss":48.0,"used":true,"health":1},{"PRN":37,"gnssid":1,"svid":124,"az":0.0,"el":-9.0,"ss":0.0,"used":false,"health":1},{"PRN":16,"gnssid":0,"svid":16,"az":0.0,"el":-9.0,"ss":23.0,"used":false,"health":1},{"PRN":25,"gnssid":0,"svid":25,"az":122.0,"el":36.0,"ss":44.0,"used":true,"health":1},{"PRN":28,"gnssid":0,"svid":28,"az":221.0,"el":46.0,"ss":34.0,"used":true,"health":1},{"PRN":20,"gnssid":0,"svid":20,"az":60.0,"el":21.0,"ss":42.0,"used":true,"health":1},{"PRN":11,"gnssid":0,"svid":11,"az":37.0,"el":12.0,"ss":32.0,"used":true,"health":1},{"PRN":31,"gnssid":0,"svid":31,"az":271.0,"el":50.0,"ss":40.0,"used":true,"health":1},{"PRN":12,"gnssid":0,"svid":12,"az":115.0,"el":8.0,"ss":38.0,"used":true,"health":1},{"PRN":4,"gnssid":0,"svid":4,"az":324.0,"el":11.0,"ss":40.0,"used":true,"health":1}]}
{"class":"TPV","device":"/dev/ttyACM0","mode":3,"time":"2024-06-05T06:37:10.748Z","leapseconds":18,"ept":0.005,"lat":52.315792472,"lon":10.563237481,"altHAE":138.3000,"altMSL":94.4027,"alt":94.4027,"epx":8.920,"epy":10.061,"epv":33.120,"track":98.3951,"magtrack":101.6150,"magvar":3.2,"speed":0.010,"climb":0.001,"eps":0.28,"epc":267.10,"ecefx":3841079.88,"ecefy":716288.01,"ecefz":5024469.70,"ecefvx":0.00,"ecefvy":0.01,"ecefvz":0.00,"ecefpAcc":5.32,"ecefvAcc":0.28,"velN":-0.001,"velE":0.010,"velD":-0.001,"geoidSep":43.897,"eph":16.530,"sep":32.110}
{"class":"SKY","device":"/dev/ttyACM0","time":"2024-06-05T06:37:10.500Z","gdop":1.88,"hdop":0.87,"pdop":1.69,"tdop":0.84,"xdop":0.59,"ydop":0.67,"vdop":1.44,"uSat":10}
{"class":"SKY","device":"/dev/ttyACM0","time":"2024-06-05T06:37:10.500Z","gdop":1.88,"hdop":0.87,"pdop":1.69,"tdop":0.84,"xdop":0.59,"ydop":0.67,"vdop":1.44,"uSat":10}
{"class":"TPV","device":"/dev/ttyACM0","mode":3,"time":"2024-06-05T06:37:10.748Z","leapseconds":18,"ept":0.005,"lat":52.315792472,"lon":10.563237481,"altHAE":138.3000,"altMSL":94.4027,"alt":94.4027,"epx":8.920,"epy":10.061,"epv":33.120,"track":98.3951,"magtrack":101.6150,"magvar":3.2,"speed":0.010,"climb":0.001,"eps":81.14,"epc":267.10,"ecefx":3841079.88,"ecefy":716288.01,"ecefz":5024469.70,"ecefvx":0.00,"ecefvy":0.01,"ecefvz":0.00,"ecefpAcc":5.32,"ecefvAcc":0.28,"velN":-0.001,"velE":0.010,"velD":-0.001,"geoidSep":43.897,"eph":16.530,"sep":32.110}
{"class":"SKY","device":"/dev/ttyACM0","time":"2024-06-05T06:37:10.748Z","gdop":1.88,"hdop":0.87,"pdop":1.69,"tdop":0.84,"xdop":0.59,"ydop":0.67,"vdop":1.44,"nSat":14,"uSat":11,"satellites":[{"PRN":26,"gnssid":0,"svid":26,"az":294.0,"el":42.0,"ss":42.0,"used":true,"health":1},{"PRN":5,"gnssid":0,"svid":5,"az":89.0,"el":17.0,"ss":45.0,"used":true,"health":1},{"PRN":29,"gnssid":0,"svid":29,"az":68.0,"el":75.0,"ss":49.0,"used":true,"health":1},{"PRN":9,"gnssid":0,"svid":9,"az":358.0,"el":1.0,"ss":34.0,"used":false,"health":1},{"PRN":18,"gnssid":0,"svid":18,"az":177.0,"el":35.0,"ss":48.0,"used":true,"health":1},{"PRN":39,"gnssid":1,"svid":126,"az":0.0,"el":-9.0,"ss":0.0,"used":false,"health":1},{"PRN":16,"gnssid":0,"svid":16,"az":0.0,"el":-9.0,"ss":24.0,"used":false,"health":1},{"PRN":25,"gnssid":0,"svid":25,"az":122.0,"el":36.0,"ss":44.0,"used":true,"health":1},{"PRN":28,"gnssid":0,"svid":28,"az":221.0,"el":46.0,"ss":34.0,"used":true,"health":1},{"PRN":20,"gnssid":0,"svid":20,"az":60.0,"el":21.0,"ss":42.0,"used":true,"health":1},{"PRN":11,"gnssid":0,"svid":11,"az":37.0,"el":12.0,"ss":32.0,"used":true,"health":1},{"PRN":31,"gnssid":0,"svid":31,"az":271.0,"el":50.0,"ss":41.0,"used":true,"health":1},{"PRN":12,"gnssid":0,"svid":12,"az":115.0,"el":8.0,"ss":39.0,"used":true,"health":1},{"PRN":4,"gnssid":0,"svid":4,"az":324.0,"el":11.0,"ss":40.0,"used":true,"health":1}]}
{"class":"TPV","device":"/dev/ttyACM0","mode":3,"time":"2024-06-05T06:37:11.000Z","leapseconds":18,"ept":0.005,"lat":52.315792417,"lon":10.563237481,"altHAE":138.2921,"altMSL":94.3947,"alt":94.3947,"epx":8.920,"epy":10.061,"epv":33.120,"track":0.0000,"magtrack":3.2199,"magvar":3.2,"speed":0.000,"climb":0.000,"eps":0.28,"epc":262.86,"ecefx":3841079.88,"ecefy":716288.01,"ecefz":5024469.69,"ecefvx":0.00,"ecefvy":0.00,"ecefvz":0.00,"ecefpAcc":5.33,"ecefvAcc":0.28,"velN":0.000,"velE":0.000,"velD":0.000,"geoidSep":43.897,"eph":16.530,"sep":31.920}
{"class":"SKY","device":"/dev/ttyACM0","time":"2024-06-05T06:37:10.748Z","gdop":1.88,"hdop":0.87,"pdop":1.68,"tdop":0.84,"xdop":0.59,"ydop":0.67,"vdop":1.44,"uSat":10}
{"class":"SKY","device":"/dev/ttyACM0","time":"2024-06-05T06:37:10.748Z","gdop":1.88,"hdop":0.87,"pdop":1.68,"tdop":0.84,"xdop":0.59,"ydop":0.67,"vdop":1.44,"uSat":10}
{"class":"TPV","device":"/dev/ttyACM0","mode":3,"time":"2024-06-05T06:37:11.000Z","leapseconds":18,"ept":0.005,"lat":52.315792417,"lon":10.563237481,"altHAE":138.2921,"altMSL":94.3947,"alt":94.3947,"epx":8.920,"epy":10.061,"epv":33.120,"track":0.0000,"magtrack":3.2199,"magvar":3.2,"speed":0.000,"climb":0.000,"eps":79.85,"epc":262.86,"ecefx":3841079.88,"ecefy":716288.01,"ecefz":5024469.69,"ecefvx":0.00,"ecefvy":0.00,"ecefvz":0.00,"ecefpAcc":5.33,"ecefvAcc":0.28,"velN":0.000,"velE":0.000,"velD":0.000,"geoidSep":43.897,"eph":16.530,"sep":31.920}
{"class":"SKY","device":"/dev/ttyACM0","time":"2024-06-05T06:37:11.000Z","gdop":1.88,"hdop":0.87,"pdop":1.68,"tdop":0.84,"xdop":0.59,"ydop":0.67,"vdop":1.44,"nSat":14,"uSat":11,"satellites":[{"PRN":26,"gnssid":0,"svid":26,"az":294.0,"el":42.0,"ss":42.0,"used":true,"health":1},{"PRN":5,"gnssid":0,"svid":5,"az":89.0,"el":17.0,"ss":45.0,"used":true,"health":1},{"PRN":29,"gnssid":0,"svid":29,"az":68.0,"el":75.0,"ss":49.0,"used":true,"health":1},{"PRN":9,"gnssid":0,"svid":9,"az":358.0,"el":1.0,"ss":34.0,"used":false,"health":1},{"PRN":18,"gnssid":0,"svid":18,"az":177.0,"el":35.0,"ss":48.0,"used":true,"health":1},{"PRN":39,"gnssid":1,"svid":126,"az":0.0,"el":-9.0,"ss":0.0,"used":false,"health":1},{"PRN":16,"gnssid":0,"svid":16,"az":0.0,"el":-9.0,"ss":24.0,"used":false,"health":1},{"PRN":25,"gnssid":0,"svid":25,"az":122.0,"el":36.0,"ss":44.0,"used":true,"health":1},{"PRN":28,"gnssid":0,"svid":28,"az":221.0,"el":46.0,"ss":33.0,"used":true,"health":1},{"PRN":20,"gnssid":0,"svid":20,"az":60.0,"el":21.0,"ss":42.0,"used":true,"health":1},{"PRN":11,"gnssid":0,"svid":11,"az":37.0,"el":12.0,"ss":31.0,"used":true,"health":1},{"PRN":31,"gnssid":0,"svid":31,"az":271.0,"el":50.0,"ss":41.0,"used":true,"health":1},{"PRN":12,"gnssid":0,"svid":12,"az":115.0,"el":8.0,"ss":39.0,"used":true,"health":1},{"PRN":4,"gnssid":0,"svid":4,"az":324.0,"el":11.0,"ss":40.0,"used":true,"health":1}]}
{"class":"TPV","device":"/dev/ttyACM0","mode":3,"time":"2024-06-05T06:37:11.248Z","leapseconds":18,"ept":0.005,"lat":52.315792377,"lon":10.563237508,"altHAE":138.2702,"altMSL":94.3729,"alt":94.3729,"epx":8.920,"epy":10.061,"epv":33.120,"track":7.5169,"magtrack":10.7368,"magvar":3.2,"speed":0.014,"climb":0.002,"eps":0.29,"epc":267.10,"ecefx":3841079.87,"ecefy":716288.01,"ecefz":5024469.67,"ecefvx":-0.01,"ecefvy":0.00,"ecefvz":0.01,"ecefpAcc":5.33,"ecefvAcc":0.29,"velN":0.014,"velE":0.002,"velD":-0.002,"geoidSep":43.897,"eph":16.530,"sep":32.110}
{"class":"SKY","device":"/dev/ttyACM0","time":"2024-06-05T06:37:11.000Z","gdop":1.88,"hdop":0.87,"pdop":1.69,"tdop":0.84,"xdop":0.59,"ydop":0.67,"vdop":1.44,"uSat":10}
{"class":"SKY","device":"/dev/ttyACM0","time":"2024-06-05T06:37:11.000Z","gdop":1.88,"hdop":0.87,"pdop":1.69,"tdop":0.84,"xdop":0.59,"ydop":0.67,"vdop":1.44,"uSat":10}
{"class":"TPV","device":"/dev/ttyACM0","mode":3,"time":"2024-06-05T06:37:11.248Z","leapseconds":18,"ept":0.005,"lat":52.315792377,"lon":10.563237508,"altHAE":138.2702,"altMSL":94.3729,"alt":94.3729,"epx":8.920,"epy":10.061,"epv":33.120,"track":7.5169,"magtrack":10.7368,"magvar":3.2,"speed":0.014,"climb":0.002,"eps":81.14,"epc":267.10,"ecefx":3841079.87,"ecefy":716288.01,"ecefz":5024469.67,"ecefvx":-0.01,"ecefvy":0.00,"ecefvz":0.01,"ecefpAcc":5.33,"ecefvAcc":0.29,"velN":0.014,"velE":0.002,"velD":-0.002,"geoidSep":43.897,"eph":16.530,"sep":32.110}
{"class":"SKY","device":"/dev/ttyACM0","time":"2024-06-05T06:37:11.248Z","gdop":1.88,"hdop":0.87,"pdop":1.69,"tdop":0.84,"xdop":0.59,"ydop":0.67,"vdop":1.44,"nSat":14,"uSat":11,"satellites":[{"PRN":26,"gnssid":0,"svid":26,"az":294.0,"el":42.0,"ss":42.0,"used":true,"health":1},{"PRN":5,"gnssid":0,"svid":5,"az":89.0,"el":17.0,"ss":45.0,"used":true,"health":1},{"PRN":29,"gnssid":0,"svid":29,"az":68.0,"el":75.0,"ss":49.0,"used":true,"health":1},{"PRN":9,"gnssid":0,"svid":9,"az":358.0,"el":1.0,"ss":34.0,"used":false,"health":1},{"PRN":18,"gnssid":0,"svid":18,"az":177.0,"el":35.0,"ss":48.0,"used":true,"health":1},{"PRN":39,"gnssid":1,"svid":126,"az":0.0,"el":-9.0,"ss":0.0,"used":false,"health":1},{"PRN":16,"gnssid":0,"svid":16,"az":0.0,"el":-9.0,"ss":22.0,"used":false,"health":1},{"PRN":25,"gnssid":0,"svid":25,"az":122.0,"el":36.0,"ss":44.0,"used":true,"health":1},{"PRN":28,"gnssid":0,"svid":28,"az":221.0,"el":46.0,"ss":31.0,"used":true,"health":1},{"PRN":20,"gnssid":0,"svid":20,"az":60.0,"el":21.0,"ss":42.0,"used":true,"health":1},{"PRN":11,"gnssid":0,"svid":11,"az":37.0,"el":12.0,"ss":31.0,"used":true,"health":1},{"PRN":31,"gnssid":0,"svid":31,"az":271.0,"el":50.0,"ss":40.0,"used":true,"health":1},{"PRN":12,"gnssid":0,"svid":12,"az":115.0,"el":8.0,"ss":39.0,"used":true,"health":1},{"PRN":4,"gnssid":0,"svid":4,"az":324.0,"el":11.0,"ss":40.0,"used":true,"health":1}]}
{"class":"TPV","device":"/dev/ttyACM0","mode":3,"time":"2024-06-05T06:37:11.500Z","leapseconds":18,"ept":0.005,"lat":52.315792337,"lon":10.563237535,"altHAE":138.2484,"altMSL":94.3511,"alt":94.3511,"epx":8.920,"epy":10.061,"epv":33.120,"track":231.8613,"magtrack":235.0812,"magvar":3.2,"speed":0.025,"climb":-0.026,"eps":0.28,"epc":262.86,"ecefx":3841079.86,"ecefy":716288.01,"ecefz":5024469.65,"ecefvx":0.00,"ecefvy":-0.02,"ecefvz":-0.03,"ecefpAcc":5.33,"ecefvAcc":0.28,"velN":-0.015,"velE":-0.020,"velD":0.026,"geoidSep":43.897,"eph":16.530,"sep":31.920}
{"class":"SKY","device":"/dev/ttyACM0","time":"2024-06-05T06:37:11.248Z","gdop":1.88,"hdop":0.87,"pdop":1.68,"tdop":0.84,"xdop":0.59,"ydop":0.67,"vdop":1.44,"uSat":10}
{"class":"SKY","device":"/dev/ttyACM0","time":"2024-06-05T06:37:11.248Z","gdop":1.88,"hdop":0.87,"pdop":1.68,"tdop":0.84,"xdop":0.59,"ydop":0.67,"vdop":1.44,"uSat":10}
{"class":"TPV","device":"/dev/ttyACM0","mode":3,"time":"2024-06-05T06:37:11.500Z","leapseconds":18,"ept":0.005,"lat":52.315792337,"lon":10.563237535,"altHAE":138.2484,"altMSL":94.3511,"alt":94.3511,"epx":8.920,"epy":10.061,"epv":33.120,"track":231.8613,"magtrack":235.0812,"magvar":3.2,"speed":0.025,"climb":-0.026,"eps":79.85,"epc":262.86,"ecefx":3841079.86,"ecefy":716288.01,"ecefz":5024469.65,"ecefvx":0.00,"ecefvy":-0.02,"ecefvz":-0.03,"ecefpAcc":5.33,"ecefvAcc":0.28,"velN":-0.015,"velE":-0.020,"velD":0.026,"geoidSep":43.897,"eph":16.530,"sep":31.920}
{"class":"SKY","device":"/dev/ttyACM0","time":"2024-06-05T06:37:11.500Z","gdop":1.88,"hdop":0.87,"pdop":1.68,"tdop":0.84,"xdop":0.59,"ydop":0.67,"vdop":1.44,"nSat":14,"uSat":11,"satellites":[{"PRN":26,"gnssid":0,"svid":26,"az":294.0,"el":42.0,"ss":42.0,"used":true,"health":1},{"PRN":5,"gnssid":0,"svid":5,"az":89.0,"el":17.0,"ss":44.0,"used":true,"health":1},{"PRN":29,"gnssid":0,"svid":29,"az":68.0,"el":75.0,"ss":49.0,"used":true,"health":1},{"PRN":9,"gnssid":0,"svid":9,"az":358.0,"el":1.0,"ss":35.0,"used":false,"health":1},{"PRN":18,"gnssid":0,"svid":18,"az":177.0,"el":35.0,"ss":48.0,"used":true,"health":1},{"PRN":39,"gnssid":1,"svid":126,"az":0.0,"el":-9.0,"ss":0.0,"used":false,"health":1},{"PRN":16,"gnssid":0,"svid":16,"az":0.0,"el":-9.0,"ss":21.0,"used":false,"health":1},{"PRN":25,"gnssid":0,"svid":25,"az":122.0,"el":36.0,"ss":44.0,"used":true,"health":1},{"PRN":28,"gnssid":0,"svid":28,"az":221.0,"el":46.0,"ss":31.0,"used":true,"health":1},{"PRN":20,"gnssid":0,"svid":20,"az":60.0,"el":21.0,"ss":41.0,"used":true,"health":1},{"PRN":11,"gnssid":0,"svid":11,"az":37.0,"el":12.0,"ss":31.0,"used":true,"health":1},{"PRN":31,"gnssid":0,"svid":31,"az":271.0,"el":50.0,"ss":40.0,"used":true,"health":1},{"PRN":12,"gnssid":0,"svid":12,"az":115.0,"el":8.0,"ss":39.0,"used":true,"health":1},{"PRN":4,"gnssid":0,"svid":4,"az":324.0,"el":11.0,"ss":41.0,"used":true,"health":1}]}
{"class":"TPV","device":"/dev/ttyACM0","mode":3,"time":"2024-06-05T06:37:11.748Z","leapseconds":18,"ept":0.005,"lat":52.315792172,"lon":10.563237535,"altHAE":138.2247,"altMSL":94.3273,"alt":94.3273,"epx":8.920,"epy":10.061,"epv":33.120,"track":221.2828,"magtrack":224.5027,"magvar":3.2,"speed":0.012,"climb":-0.031,"eps":0.29,"epc":267.10,"ecefx":3841079.86,"ecefy":716288.01,"ecefz":5024469.62,"ecefvx":-0.01,"ecefvy":-0.01,"ecefvz":-0.03,"ecefpAcc":5.33,"ecefvAcc":0.29,"velN":-0.009,"velE":-0.008,"velD":0.031,"geoidSep":43.897,"eph":16.530,"sep":32.110}
{"class":"SKY","device":"/dev/ttyACM0","time":"2024-06-05T06:37:11.500Z","gdop":1.88,"hdop":0.87,"pdop":1.69,"tdop":0.84,"xdop":0.59,"ydop":0.67,"vdop":1.44,"uSat":10}
{"class":"SKY","device":"/dev/ttyACM0","time":"2024-06-05T06:37:11.500Z","gdop":1.88,"hdop":0.87,"pdop":1.69,"tdop":0.84,"xdop":0.59,"ydop":0.67,"vdop":1.44,"uSat":10}
{"class":"TPV","device":"/dev/ttyACM0","mode":3,"time":"2024-06-05T06:37:11.748Z","leapseconds":18,"ept":0.005,"lat":52.315792172,"lon":10.563237535,"altHAE":138.2247,"altMSL":94.3273,"alt":94.3273,"epx":8.920,"epy":10.061,"epv":33.120,"track":221.2828,"magtrack":224.5027,"magvar":3.2,"speed":0.012,"climb":-0.031,"eps":81.14,"epc":267.10,"ecefx":3841079.86,"ecefy":716288.01,"ecefz":5024469.62,"ecefvx":-0.01,"ecefvy":-0.01,"ecefvz":-0.03,"ecefpAcc":5.33,"ecefvAcc":0.29,"velN":-0.009,"velE":-0.008,"velD":0.031,"geoidSep":43.897,"eph":16.530,"sep":32.110}
{"class":"SKY","device":"/dev/ttyACM0","time":"2024-06-05T06:37:11.748Z","gdop":1.88,"hdop":0.87,"pdop":1.69,"tdop":0.84,"xdop":0.59,"ydop":0.67,"vdop":1.44,"nSat":14,"uSat":11,"satellites":[{"PRN":26,"gnssid":0,"svid":26,"az":294.0,"el":42.0,"ss":42.0,"used":true,"health":1},{"PRN":5,"gnssid":0,"svid":5,"az":89.0,"el":17.0,"ss":45.0,"used":true,"health":1},{"PRN":29,"gnssid":0,"svid":29,"az":68.0,"el":75.0,"ss":49.0,"used":true,"health":1},{"PRN":9,"gnssid":0,"svid":9,"az":358.0,"el":1.0,"ss":35.0,"used":false,"health":1},{"PRN":18,"gnssid":0,"svid":18,"az":177.0,"el":35.0,"ss":48.0,"used":true,"health":1},{"PRN":39,"gnssid":1,"svid":126,"az":0.0,"el":-9.0,"ss":0.0,"used":false,"health":1},{"PRN":16,"gnssid":0,"svid":16,"az":0.0,"el":-9.0,"ss":20.0,"used":false,"health":1},{"PRN":25,"gnssid":0,"svid":25,"az":122.0,"el":36.0,"ss":45.0,"used":true,"health":1},{"PRN":28,"gnssid":0,"svid":28,"az":221.0,"el":46.0,"ss":31.0,"used":true,"health":1},{"PRN":20,"gnssid":0,"svid":20,"az":60.0,"el":21.0,"ss":41.0,"used":true,"health":1},{"PRN":11,"gnssid":0,"svid":11,"az":37.0,"el":12.0,"ss":31.0,"used":true,"health":1},{"PRN":31,"gnssid":0,"svid":31,"az":271.0,"el":50.0,"ss":39.0,"used":true,"health":1},{"PRN":12,"gnssid":0,"svid":12,"az":115.0,"el":8.0,"ss":39.0,"used":true,"health":1},{"PRN":4,"gnssid":0,"svid":4,"az":324.0,"el":11.0,"ss":41.0,"used":true,"health":1}]}
{"class":"TPV","device":"/dev/ttyACM0","mode":3,"time":"2024-06-05T06:37:12.000Z","leapseconds":18,"ept":0.005,"lat":52.315792146,"lon":10.563237417,"altHAE":138.2017,"altMSL":94.3044,"alt":94.3044,"epx":8.920,"epy":10.061,"epv":33.120,"track":88.9394,"magtrack":92.1593,"magvar":3.2,"speed":0.012,"climb":-0.013,"eps":0.28,"epc":262.86,"ecefx":3841079.85,"ecefy":716288.00,"ecefz":5024469.60,"ecefvx":-0.01,"ecefvy":0.01,"ecefvz":-0.01,"ecefpAcc":5.33,"ecefvAcc":0.28,"velN":0.000,"velE":0.012,"velD":0.013,"geoidSep":43.897,"eph":16.530,"sep":31.920}
{"class":"SKY","device":"/dev/ttyACM0","time":"2024-06-05T06:37:11.748Z","gdop":1.88,"hdop":0.87,"pdop":1.68,"tdop":0.84,"xdop":0.59,"ydop":0.67,"vdop":1.44,"uSat":10}
{"class":"SKY","device":"/dev/ttyACM0","time":"2024-06-05T06:37:11.748Z","gdop":1.88,"hdop":0.87,"pdop":1.68,"tdop":0.84,"xdop":0.59,"ydop":0.67,"vdop":1.44,"uSat":10}
{"class":"TPV","device":"/dev/ttyACM0","mode":3,"time":"2024-06-05T06:37:12.000Z","leapseconds":18,"ept":0.005,"lat":52.315792146,"lon":10.563237417,"altHAE":138.2017,"altMSL":94.3044,"alt":94.3044,"epx":8.920,"epy":10.061,"epv":33.120,"track":88.9394,"magtrack":92.1593,"magvar":3.2,"speed":0.012,"climb":-0.013,"eps":79.85,"epc":262.86,"ecefx":3841079.85,"ecefy":716288.00,"ecefz":5024469.60,"ecefvx":-0.01,"ecefvy":0.01,"ecefvz":-0.01,"ecefpAcc":5.33,"ecefvAcc":0.28,"velN":0.000,"velE":0.012,"velD":0.013,"geoidSep":43.897,"eph":16.530,"sep":31.920}
{"class":"SKY","device":"/dev/ttyACM0","time":"2024-06-05T06:37:12.000Z","gdop":1.88,"hdop":0.87,"pdop":1.68,"tdop":0.84,"xdop":0.59,"ydop":0.67,"vdop":1.44,"nSat":14,"uSat":11,"satellites":[{"PRN":26,"gnssid":0,"svid":26,"az":294.0,"el":42.0,"ss":42.0,"used":true,"health":1},{"PRN":5,"gnssid":0,"svid":5,"az":89.0,"el":17.0,"ss":44.0,"used":true,"health":1},{"PRN":29,"gnssid":0,"svid":29,"az":68.0,"el":75.0,"ss":49.0,"used":true,"health":1},{"PRN":9,"gnssid":0,"svid":9,"az":358.0,"el":1.0,"ss":35.0,"used":false,"health":1},{"PRN":18,"gnssid":0,"svid":18,"az":177.0,"el":35.0,"ss":48.0,"used":true,"health":1},{"PRN":39,"gnssid":1,"svid":126,"az":0.0,"el":-9.0,"ss":0.0,"used":false,"health":1},{"PRN":16,"gnssid":0,"svid":16,"az":0.0,"el":-9.0,"ss":20.0,"used":false,"health":1},{"PRN":25,"gnssid":0,"svid":25,"az":122.0,"el":36.0,"ss":45.0,"used":true,"health":1},{"PRN":28,"gnssid":0,"svid":28,"az":221.0,"el":46.0,"ss":31.0,"used":true,"health":1},{"PRN":20,"gnssid":0,"svid":20,"az":60.0,"el":21.0,"ss":41.0,"used":true,"health":1},{"PRN":11,"gnssid":0,"svid":11,"az":37.0,"el":12.0,"ss":31.0,"used":true,"health":1},{"PRN":31,"gnssid":0,"svid":31,"az":271.0,"el":50.0,"ss":39.0,"used":true,"health":1},{"PRN":12,"gnssid":0,"svid":12,"az":115.0,"el":8.0,"ss":39.0,"used":true,"health":1},{"PRN":4,"gnssid":0,"svid":4,"az":324.0,"el":11.0,"ss":41.0,"used":true,"health":1}]}
{"class":"TPV","device":"/dev/ttyACM0","mode":3,"time":"2024-06-05T06:37:12.248Z","leapseconds":18,"ept":0.005,"lat":52.315792036,"lon":10.563237417,"altHAE":138.1859,"altMSL":94.2885,"alt":94.2885,"epx":8.920,"epy":10.061,"epv":33.120,"track":62.9166,"magtrack":66.1365,"magvar":3.2,"speed":0.024,"climb":0.004,"eps":0.29,"epc":267.10,"ecefx":3841079.85,"ecefy":716288.00,"ecefz":5024469.58,"ecefvx":-0.01,"ecefvy":0.02,"ecefvz":0.01,"ecefpAcc":5.33,"ecefvAcc":0.29,"velN":0.011,"velE":0.021,"velD":-0.004,"geoidSep":43.897,"eph":16.530,"sep":31.920}
{"class":"SKY","device":"/dev/ttyACM0","time":"2024-06-05T06:37:12.000Z","gdop":1.88,"hdop":0.87,"pdop":1.68,"tdop":0.84,"xdop":0.59,"ydop":0.67,"vdop":1.44,"uSat":10}
{"class":"SKY","device":"/dev/ttyACM0","time":"2024-06-05T06:37:12.000Z","gdop":1.88,"hdop":0.87,"pdop":1.68,"tdop":0.84,"xdop":0.59,"ydop":0.67,"vdop":1.44,"uSat":10}
{"class":"TPV","device":"/dev/ttyACM0","mode":3,"time":"2024-06-05T06:37:12.248Z","leapseconds":18,"ept":0.005,"lat":52.315792036,"lon":10.563237417,"altHAE":138.1859,"altMSL":94.2885,"alt":94.2885,"epx":8.920,"epy":10.061,"epv":33.120,"track":62.9166,"magtrack":66.1365,"magvar":3.2,"speed":0.024,"climb":0.004,"eps":81.14,"epc":267.10,"ecefx":3841079.85,"ecefy":716288.00,"ecefz":5024469.58,"ecefvx":-0.01,"ecefvy":0.02,"ecefvz":0.01,"ecefpAcc":5.33,"ecefvAcc":0.29,"velN":0.011,"velE":0.021,"velD":-0.004,"geoidSep":43.897,"eph":16.530,"sep":31.920}
{"class":"SKY","device":"/dev/ttyACM0","time":"2024-06-05T06:37:12.248Z","gdop":1.88,"hdop":0.87,"pdop":1.68,"tdop":0.84,"xdop":0.59,"ydop":0.67,"vdop":1.44,"nSat":14,"uSat":11,"satellites":[{"PRN":26,"gnssid":0,"svid":26,"az":294.0,"el":42.0,"ss":42.0,"used":true,"health":1},{"PRN":5,"gnssid":0,"svid":5,"az":89.0,"el":17.0,"ss":44.0,"used":true,"health":1},{"PRN":29,"gnssid":0,"svid":29,"az":68.0,"el":75.0,"ss":49.0,"used":true,"health":1},{"PRN":9,"gnssid":0,"svid":9,"az":358.0,"el":1.0,"ss":34.0,"used":false,"health":1},{"PRN":18,"gnssid":0,"svid":18,"az":177.0,"el":35.0,"ss":48.0,"used":true,"health":1},{"PRN":39,"gnssid":1,"svid":126,"az":0.0,"el":-9.0,"ss":0.0,"used":false,"health":1},{"PRN":16,"gnssid":0,"svid":16,"az":0.0,"el":-9.0,"ss":20.0,"used":false,"health":1},{"PRN":25,"gnssid":0,"svid":25,"az":122.0,"el":36.0,"ss":45.0,"used":true,"health":1},{"PRN":28,"gnssid":0,"svid":28,"az":221.0,"el":46.0,"ss":31.0,"used":true,"health":1},{"PRN":20,"gnssid":0,"svid":20,"az":60.0,"el":21.0,"ss":41.0,"used":true,"health":1},{"PRN":11,"gnssid":0,"svid":11,"az":37.0,"el":12.0,"ss":31.0,"used":true,"health":1},{"PRN":31,"gnssid":0,"svid":31,"az":271.0,"el":50.0,"ss":39.0,"used":true,"health":1},{"PRN":12,"gnssid":0,"svid":12,"az":115.0,"el":8.0,"ss":39.0,"used":true,"health":1},{"PRN":4,"gnssid":0,"svid":4,"az":324.0,"el":11.0,"ss":41.0,"used":true,"health":1}]}
{"class":"TPV","device":"/dev/ttyACM0","mode":3,"time":"2024-06-05T06:37:12.500Z","leapseconds":18,"ept":0.005,"lat":52.315791954,"lon":10.563237300,"altHAE":138.1550,"altMSL":94.2577,"alt":94.2577,"epx":8.920,"epy":10.061,"epv":33.120,"track":0.0000,"magtrack":3.2199,"magvar":3.2,"speed":0.006,"climb":0.008,"eps":0.28,"epc":262.86,"ecefx":3841079.84,"ecefy":716287.99,"ecefz":5024469.55,"ecefvx":0.00,"ecefvy":0.00,"ecefvz":0.01,"ecefpAcc":5.33,"ecefvAcc":0.28,"velN":0.006,"velE":0.000,"velD":-0.008,"geoidSep":43.897,"eph":16.530,"sep":32.110}
{"class":"SKY","device":"/dev/ttyACM0","time":"2024-06-05T06:37:12.248Z","gdop":1.88,"hdop":0.87,"pdop":1.69,"tdop":0.84,"xdop":0.59,"ydop":0.67,"vdop":1.44,"uSat":10}
{"class":"SKY","device":"/dev/ttyACM0","time":"2024-06-05T06:37:12.248Z","gdop":1.88,"hdop":0.87,"pdop":1.69,"tdop":0.84,"xdop":0.59,"ydop":0.67,"vdop":1.44,"uSat":10}
{"class":"TPV","device":"/dev/ttyACM0","mode":3,"time":"2024-06-05T06:37:12.500Z","leapseconds":18,"ept":0.005,"lat":52.315791954,"lon":10.563237300,"altHAE":138.1550,"altMSL":94.2577,"alt":94.2577,"epx":8.920,"epy":10.061,"epv":33.120,"track":0.0000,"magtrack":3.2199,"magvar":3.2,"speed":0.006,"climb":0.008,"eps":79.85,"epc":262.86,"ecefx":3841079.84,"ecefy":716287.99,"ecefz":5024469.55,"ecefvx":0.00,"ecefvy":0.00,"ecefvz":0.01,"ecefpAcc":5.33,"ecefvAcc":0.28,"velN":0.006,"velE":0.000,"velD":-0.008,"geoidSep":43.897,"eph":16.530,"sep":32.110}
{"class":"SKY","device":"/dev/ttyACM0","time":"2024-06-05T06:37:12.500Z","gdop":1.88,"hdop":0.87,"pdop":1.69,"tdop":0.84,"xdop":0.59,"ydop":0.67,"vdop":1.44,"nSat":14,"uSat":11,"satellites":[{"PRN":26,"gnssid":0,"svid":26,"az":294.0,"el":42.0,"ss":41.0,"used":true,"health":1},{"PRN":5,"gnssid":0,"svid":5,"az":89.0,"el":17.0,"ss":44.0,"used":true,"health":1},{"PRN":29,"gnssid":0,"svid":29,"az":68.0,"el":75.0,"ss":49.0,"used":true,"health":1},{"PRN":9,"gnssid":0,"svid":9,"az":358.0,"el":1.0,"ss":33.0,"used":false,"health":1},{"PRN":18,"gnssid":0,"svid":18,"az":177.0,"el":35.0,"ss":48.0,"used":true,"health":1},{"PRN":39,"gnssid":1,"svid":126,"az":0.0,"el":-9.0,"ss":0.0,"used":false,"health":1},{"PRN":16,"gnssid":0,"svid":16,"az":0.0,"el":-9.0,"ss":20.0,"used":false,"health":1},{"PRN":25,"gnssid":0,"svid":25,"az":122.0,"el":36.0,"ss":44.0,"used":true,"health":1},{"PRN":28,"gnssid":0,"svid":28,"az":221.0,"el":46.0,"ss":31.0,"used":true,"health":1},{"PRN":20,"gnssid":0,"svid":20,"az":60.0,"el":21.0,"ss":42.0,"used":true,"health":1},{"PRN":11,"gnssid":0,"svid":11,"az":37.0,"el":12.0,"ss":31.0,"used":true,"health":1},{"PRN":31,"gnssid":0,"svid":31,"az":271.0,"el":50.0,"ss":39.0,"used":true,"health":1},{"PRN":12,"gnssid":0,"svid":12,"az":115.0,"el":8.0,"ss":39.0,"used":true,"health":1},{"PRN":4,"gnssid":0,"svid":4,"az":324.0,"el":11.0,"ss":40.0,"used":true,"health":1}]}
{"class":"TPV","device":"/dev/ttyACM0","mode":3,"time":"2024-06-05T06:37:12.748Z","leapseconds":18,"ept":0.005,"lat":52.315791914,"lon":10.563237327,"altHAE":138.1332,"altMSL":94.2358,"alt":94.2358,"epx":8.920,"epy":10.061,"epv":33.120,"track":42.3746,"magtrack":45.5945,"magvar":3.2,"speed":0.015,"climb":0.017,"eps":0.29,"epc":267.10,"ecefx":3841079.83,"ecefy":716287.99,"ecefz":5024469.53,"ecefvx":0.00,"ecefvy":0.01,"ecefvz":0.02,"ecefpAcc":5.33,"ecefvAcc":0.29,"velN":0.011,"velE":0.010,"velD":-0.017,"geoidSep":43.897,"eph":16.530,"sep":31.920}
{"class":"SKY","device":"/dev/ttyACM0","time":"2024-06-05T06:37:12.500Z","gdop":1.88,"hdop":0.87,"pdop":1.68,"tdop":0.84,"xdop":0.59,"ydop":0.67,"vdop":1.44,"uSat":10}
{"class":"SKY","device":"/dev/ttyACM0","time":"2024-06-05T06:37:12.500Z","gdop":1.88,"hdop":0.87,"pdop":1.68,"tdop":0.84,"xdop":0.59,"ydop":0.67,"vdop":1.44,"uSat":10}
{"class":"TPV","device":"/dev/ttyACM0","mode":3,"time":"2024-06-05T06:37:12.748Z","leapseconds":18,"ept":0.005,"lat":52.315791914,"lon":10.563237327,"altHAE":138.1332,"altMSL":94.2358,"alt":94.2358,"epx":8.920,"epy":10.061,"epv":33.120,"track":42.3746,"magtrack":45.5945,"magvar":3.2,"speed":0.015,"climb":0.017,"eps":81.14,"epc":267.10,"ecefx":3841079.83,"ecefy":716287.99,"ecefz":5024469.53,"ecefvx":0.00,"ecefvy":0.01,"ecefvz":0.02,"ecefpAcc":5.33,"ecefvAcc":0.29,"velN":0.011,"velE":0.010,"velD":-0.017,"geoidSep":43.897,"eph":16.530,"sep":31.920}
{"class":"SKY","device":"/dev/ttyACM0","time":"2024-06-05T06:37:12.748Z","gdop":1.88,"hdop":0.87,"pdop":1.68,"tdop":0.84,"xdop":0.59,"ydop":0.67,"vdop":1.44,"nSat":14,"uSat":11,"satellites":[{"PRN":26,"gnssid":0,"svid":26,"az":294.0,"el":42.0,"ss":41.0,"used":true,"health":1},{"PRN":5,"gnssid":0,"svid":5,"az":89.0,"el":17.0,"ss":44.0,"used":true,"health":1},{"PRN":29,"gnssid":0,"svid":29,"az":68.0,"el":75.0,"ss":49.0,"used":true,"health":1},{"PRN":9,"gnssid":0,"svid":9,"az":358.0,"el":1.0,"ss":33.0,"used":false,"health":1},{"PRN":18,"gnssid":0,"svid":18,"az":177.0,"el":35.0,"ss":48.0,"used":true,"health":1},{"PRN":39,"gnssid":1,"svid":126,"az":0.0,"el":-9.0,"ss":0.0,"used":false,"health":1},{"PRN":16,"gnssid":0,"svid":16,"az":0.0,"el":-9.0,"ss":20.0,"used":false,"health":1},{"PRN":25,"gnssid":0,"svid":25,"az":122.0,"el":36.0,"ss":44.0,"used":true,"health":1},{"PRN":28,"gnssid":0,"svid":28,"az":221.0,"el":46.0,"ss":33.0,"used":true,"health":1},{"PRN":20,"gnssid":0,"svid":20,"az":60.0,"el":21.0,"ss":42.0,"used":true,"health":1},{"PRN":11,"gnssid":0,"svid":11,"az":37.0,"el":12.0,"ss":31.0,"used":true,"health":1},{"PRN":31,"gnssid":0,"svid":31,"az":271.0,"el":50.0,"ss":39.0,"used":true,"health":1},{"PRN":12,"gnssid":0,"svid":12,"az":115.0,"el":8.0,"ss":39.0,"used":true,"health":1},{"PRN":4,"gnssid":0,"svid":4,"az":324.0,"el":11.0,"ss":40.0,"used":true,"health":1}]}
{"class":"TPV","device":"/dev/ttyACM0","mode":3,"time":"2024-06-05T06:37:13.000Z","leapseconds":18,"ept":0.005,"lat":52.315791887,"lon":10.563237210,"altHAE":138.1102,"altMSL":94.2129,"alt":94.2129,"epx":8.920,"epy":10.061,"epv":33.120,"track":0.0000,"magtrack":3.2199,"magvar":3.2,"speed":0.000,"climb":0.000,"eps":0.28,"epc":262.86,"ecefx":3841079.82,"ecefy":716287.98,"ecefz":5024469.51,"ecefvx":0.00,"ecefvy":0.00,"ecefvz":0.00,"ecefpAcc":5.33,"ecefvAcc":0.28,"velN":0.000,"velE":0.000,"velD":0.000,"geoidSep":43.897,"eph":16.530,"sep":31.920}
{"class":"SKY","device":"/dev/ttyACM0","time":"2024-06-05T06:37:12.748Z","gdop":1.88,"hdop":0.87,"pdop":1.68,"tdop":0.84,"xdop":0.59,"ydop":0.67,"vdop":1.44,"uSat":10}
{"class":"SKY","device":"/dev/ttyACM0","time":"2024-06-05T06:37:12.748Z","gdop":1.88,"hdop":0.87,"pdop":1.68,"tdop":0.84,"xdop":0.59,"ydop":0.67,"vdop":1.44,"uSat":10}
{"class":"TPV","device":"/dev/ttyACM0","mode":3,"time":"2024-06-05T06:37:13.000Z","leapseconds":18,"ept":0.005,"lat":52.315791887,"lon":10.563237210,"altHAE":138.1102,"altMSL":94.2129,"alt":94.2129,"epx":8.920,"epy":10.061,"epv":33.120,"track":0.0000,"magtrack":3.2199,"magvar":3.2,"speed":0.000,"climb":0.000,"eps":79.85,"epc":262.86,"ecefx":3841079.82,"ecefy":716287.98,"ecefz":5024469.51,"ecefvx":0.00,"ecefvy":0.00,"ecefvz":0.00,"ecefpAcc":5.33,"ecefvAcc":0.28,"velN":0.000,"velE":0.000,"velD":0.000,"geoidSep":43.897,"eph":16.530,"sep":31.920}
{"class":"SKY","device":"/dev/ttyACM0","time":"2024-06-05T06:37:13.000Z","gdop":1.88,"hdop":0.87,"pdop":1.68,"tdop":0.84,"xdop":0.59,"ydop":0.67,"vdop":1.44,"nSat":14,"uSat":11,"satellites":[{"PRN":26,"gnssid":0,"svid":26,"az":294.0,"el":42.0,"ss":41.0,"used":true,"health":1},{"PRN":5,"gnssid":0,"svid":5,"az":89.0,"el":17.0,"ss":44.0,"used":true,"health":1},{"PRN":29,"gnssid":0,"svid":29,"az":68.0,"el":75.0,"ss":49.0,"used":true,"health":1},{"PRN":9,"gnssid":0,"svid":9,"az":358.0,"el":1.0,"ss":33.0,"used":false,"health":1},{"PRN":18,"gnssid":0,"svid":18,"az":177.0,"el":35.0,"ss":48.0,"used":true,"health":1},{"PRN":39,"gnssid":1,"svid":126,"az":0.0,"el":-9.0,"ss":0.0,"used":false,"health":1},{"PRN":16,"gnssid":0,"svid":16,"az":0.0,"el":-9.0,"ss":20.0,"used":false,"health":1},{"PRN":25,"gnssid":0,"svid":25,"az":122.0,"el":36.0,"ss":44.0,"used":true,"health":1},{"PRN":28,"gnssid":0,"svid":28,"az":221.0,"el":46.0,"ss":33.0,"used":true,"health":1},{"PRN":20,"gnssid":0,"svid":20,"az":60.0,"el":21.0,"ss":42.0,"used":true,"health":1},{"PRN":11,"gnssid":0,"svid":11,"az":37.0,"el":12.0,"ss":31.0,"used":true,"health":1},{"PRN":31,"gnssid":0,"svid":31,"az":271.0,"el":50.0,"ss":39.0,"used":true,"health":1},{"PRN":12,"gnssid":0,"svid":12,"az":115.0,"el":8.0,"ss":38.0,"used":true,"health":1},{"PRN":4,"gnssid":0,"svid":4,"az":324.0,"el":11.0,"ss":40.0,"used":true,"health":1}]}
{"class":"TPV","device":"/dev/ttyACM0","mode":3,"time":"2024-06-05T06:37:13.248Z","leapseconds":18,"ept":0.005,"lat":52.315791722,"lon":10.563237210,"altHAE":138.0865,"altMSL":94.1891,"alt":94.1891,"epx":8.920,"epy":10.061,"epv":33.120,"track":180.0000,"magtrack":183.2199,"magvar":3.2,"speed":0.006,"climb":-0.008,"eps":0.28,"epc":267.10,"ecefx":3841079.82,"ecefy":716287.98,"ecefz":5024469.48,"ecefvx":0.00,"ecefvy":0.00,"ecefvz":-0.01,"ecefpAcc":5.33,"ecefvAcc":0.28,"velN":-0.006,"velE":0.000,"velD":0.008,"geoidSep":43.897,"eph":16.530,"sep":31.920}
{"class":"SKY","device":"/dev/ttyACM0","time":"2024-06-05T06:37:13.000Z","gdop":1.88,"hdop":0.87,"pdop":1.68,"tdop":0.84,"xdop":0.59,"ydop":0.67,"vdop":1.44,"uSat":10}
{"class":"SKY","device":"/dev/ttyACM0","time":"2024-06-05T06:37:13.000Z","gdop":1.88,"hdop":0.87,"pdop":1.68,"tdop":0.84,"xdop":0.59,"ydop":0.67,"vdop":1.44,"uSat":10}
{"class":"TPV","device":"/dev/ttyACM0","mode":3,"time":"2024-06-05T06:37:13.248Z","leapseconds":18,"ept":0.005,"lat":52.315791722,"lon":10.563237210,"altHAE":138.0865,"altMSL":94.1891,"alt":94.1891,"epx":8.920,"epy":10.061,"epv":33.120,"track":180.0000,"magtrack":183.2199,"magvar":3.2,"speed":0.006,"climb":-0.008,"eps":81.14,"epc":267.10,"ecefx":3841079.82,"ecefy":716287.98,"ecefz":5024469.48,"ecefvx":0.00,"ecefvy":0.00,"ecefvz":-0.01,"ecefpAcc":5.33,"ecefvAcc":0.28,"velN":-0.006,"velE":0.000,"velD":0.008,"geoidSep":43.897,"eph":16.530,"sep":31.920}
{"class":"SKY","device":"/dev/ttyACM0","time":"2024-06-05T06:37:13.248Z","gdop":1.88,"hdop":0.87,"pdop":1.68,"tdop":0.84,"xdop":0.59,"ydop":0.67,"vdop":1.44,"nSat":14,"uSat":11,"satellites":[{"PRN":26,"gnssid":0,"svid":26,"az":294.0,"el":42.0,"ss":41.0,"used":true,"health":1},{"PRN":5,"gnssid":0,"svid":5,"az":89.0,"el":17.0,"ss":45.0,"used":true,"health":1},{"PRN":29,"gnssid":0,"svid":29,"az":68.0,"el":75.0,"ss":49.0,"used":true,"health":1},{"PRN":9,"gnssid":0,"svid":9,"az":358.0,"el":1.0,"ss":33.0,"used":false,"health":1},{"PRN":18,"gnssid":0,"svid":18,"az":177.0,"el":35.0,"ss":48.0,"used":true,"health":1},{"PRN":39,"gnssid":1,"svid":126,"az":0.0,"el":-9.0,"ss":0.0,"used":false,"health":1},{"PRN":16,"gnssid":0,"svid":16,"az":0.0,"el":-9.0,"ss":19.0,"used":false,"health":1},{"PRN":25,"gnssid":0,"svid":25,"az":122.0,"el":36.0,"ss":44.0,"used":true,"health":1},{"PRN":28,"gnssid":0,"svid":28,"az":221.0,"el":46.0,"ss":34.0,"used":true,"health":1},{"PRN":20,"gnssid":0,"svid":20,"az":60.0,"el":21.0,"ss":42.0,"used":true,"health":1},{"PRN":11,"gnssid":0,"svid":11,"az":37.0,"el":12.0,"ss":32.0,"used":true,"health":1},{"PRN":31,"gnssid":0,"svid":31,"az":271.0,"el":50.0,"ss":40.0,"used":true,"health":1},{"PRN":12,"gnssid":0,"svid":12,"az":115.0,"el":8.0,"ss":38.0,"used":true,"health":1},{"PRN":4,"gnssid":0,"svid":4,"az":324.0,"el":11.0,"ss":40.0,"used":true,"health":1}]}
{"class":"TPV","device":"/dev/ttyACM0","mode":3,"time":"2024-06-05T06:37:13.500Z","leapseconds":18,"ept":0.005,"lat":52.315791625,"lon":10.563237065,"altHAE":138.0695,"altMSL":94.1722,"alt":94.1722,"epx":8.920,"epy":10.061,"epv":33.120,"track":187.5169,"magtrack":190.7368,"magvar":3.2,"speed":0.014,"climb":-0.002,"eps":0.28,"epc":262.86,"ecefx":3841079.82,"ecefy":716287.97,"ecefz":5024469.46,"ecefvx":0.01,"ecefvy":0.00,"ecefvz":-0.01,"ecefpAcc":5.33,"ecefvAcc":0.28,"velN":-0.014,"velE":-0.002,"velD":0.002,"geoidSep":43.897,"eph":16.530,"sep":31.920}
{"class":"SKY","device":"/dev/ttyACM0","time":"2024-06-05T06:37:13.248Z","gdop":1.88,"hdop":0.87,"pdop":1.68,"tdop":0.84,"xdop":0.59,"ydop":0.67,"vdop":1.44,"uSat":10}
{"class":"SKY","device":"/dev/ttyACM0","time":"2024-06-05T06:37:13.248Z","gdop":1.88,"hdop":0.87,"pdop":1.68,"tdop":0.84,"xdop":0.59,"ydop":0.67,"vdop":1.44,"uSat":10}
{"class":"TPV","device":"/dev/ttyACM0","mode":3,"time":"2024-06-05T06:37:13.500Z","leapseconds":18,"ept":0.005,"lat":52.315791625,"lon":10.563237065,"altHAE":138.0695,"altMSL":94.1722,"alt":94.1722,"epx":8.920,"epy":10.061,"epv":33.120,"track":187.5169,"magtrack":190.7368,"magvar":3.2,"speed":0.014,"climb":-0.002,"eps":79.85,"epc":262.86,"ecefx":3841079.82,"ecefy":716287.97,"ecefz":5024469.46,"ecefvx":0.01,"ecefvy":0.00,"ecefvz":-0.01,"ecefpAcc":5.33,"ecefvAcc":0.28,"velN":-0.014,"velE":-0.002,"velD":0.002,"geoidSep":43.897,"eph":16.530,"sep":31.920}
{"class":"SKY","device":"/dev/ttyACM0","time":"2024-06-05T06:37:13.500Z","gdop":1.88,"hdop":0.87,"pdop":1.68,"tdop":0.84,"xdop":0.59,"ydop":0.67,"vdop":1.44,"nSat":14,"uSat":11,"satellites":[{"PRN":26,"gnssid":0,"svid":26,"az":294.0,"el":42.0,"ss":41.0,"used":true,"health":1},{"PRN":5,"gnssid":0,"svid":5,"az":89.0,"el":17.0,"ss":44.0,"used":true,"health":1},{"PRN":29,"gnssid":0,"svid":29,"az":68.0,"el":75.0,"ss":49.0,"used":true,"health":1},{"PRN":9,"gnssid":0,"svid":9,"az":358.0,"el":1.0,"ss":33.0,"used":false,"health":1},{"PRN":18,"gnssid":0,"svid":18,"az":177.0,"el":35.0,"ss":47.0,"used":true,"health":1},{"PRN":39,"gnssid":1,"svid":126,"az":0.0,"el":-9.0,"ss":0.0,"used":false,"health":1},{"PRN":16,"gnssid":0,"svid":16,"az":0.0,"el":-9.0,"ss":19.0,"used":false,"health":1},{"PRN":25,"gnssid":0,"svid":25,"az":122.0,"el":36.0,"ss":44.0,"used":true,"health":1},{"PRN":28,"gnssid":0,"svid":28,"az":221.0,"el":46.0,"ss":34.0,"used":true,"health":1},{"PRN":20,"gnssid":0,"svid":20,"az":60.0,"el":21.0,"ss":41.0,"used":true,"health":1},{"PRN":11,"gnssid":0,"svid":11,"az":37.0,"el":12.0,"ss":32.0,"used":true,"health":1},{"PRN":31,"gnssid":0,"svid":31,"az":271.0,"el":50.0,"ss":40.0,"used":true,"health":1},{"PRN":12,"gnssid":0,"svid":12,"az":115.0,"el":8.0,"ss":38.0,"used":true,"health":1},{"PRN":4,"gnssid":0,"svid":4,"az":324.0,"el":11.0,"ss":40.0,"used":true,"health":1}]}
{"class":"TPV","device":"/dev/ttyACM0","mode":3,"time":"2024-06-05T06:37:13.748Z","leapseconds":18,"ept":0.005,"lat":52.315791585,"lon":10.563237092,"altHAE":138.0477,"altMSL":94.1503,"alt":94.1503,"epx":8.920,"epy":10.061,"epv":33.120,"track":180.0000,"magtrack":183.2199,"magvar":3.2,"speed":0.006,"climb":-0.008,"eps":0.28,"epc":267.10,"ecefx":3841079.81,"ecefy":716287.97,"ecefz":5024469.44,"ecefvx":0.00,"ecefvy":0.00,"ecefvz":-0.01,"ecefpAcc":5.33,"ecefvAcc":0.28,"velN":-0.006,"velE":0.000,"velD":0.008,"geoidSep":43.897,"eph":16.530,"sep":32.110}
{"class":"SKY","device":"/dev/ttyACM0","time":"2024-06-05T06:37:13.500Z","gdop":1.88,"hdop":0.87,"pdop":1.69,"tdop":0.84,"xdop":0.59,"ydop":0.67,"vdop":1.44,"uSat":10}
{"class":"SKY","device":"/dev/ttyACM0","time":"2024-06-05T06:37:13.500Z","gdop":1.88,"hdop":0.87,"pdop":1.69,"tdop":0.84,"xdop":0.59,"ydop":0.67,"vdop":1.44,"uSat":10}
{"class":"TPV","device":"/dev/ttyACM0","mode":3,"time":"2024-06-05T06:37:13.748Z","leapseconds":18,"ept":0.005,"lat":52.315791585,"lon":10.563237092,"altHAE":138.0477,"altMSL":94.1503,"alt":94.1503,"epx":8.920,"epy":10.061,"epv":33.120,"track":180.0000,"magtrack":183.2199,"magvar":3.2,"speed":0.006,"climb":-0.008,"eps":81.14,"epc":267.10,"ecefx":3841079.81,"ecefy":716287.97,"ecefz":5024469.44,"ecefvx":0.00,"ecefvy":0.00,"ecefvz":-0.01,"ecefpAcc":5.33,"ecefvAcc":0.28,"velN":-0.006,"velE":0.000,"velD":0.008,"geoidSep":43.897,"eph":16.530,"sep":32.110}
{"class":"SKY","device":"/dev/ttyACM0","time":"2024-06-05T06:37:13.748Z","gdop":1.88,"hdop":0.87,"pdop":1.69,"tdop":0.84,"xdop":0.59,"ydop":0.67,"vdop":1.44,"nSat":14,"uSat":11,"satellites":[{"PRN":26,"gnssid":0,"svid":26,"az":294.0,"el":42.0,"ss":41.0,"used":true,"health":1},{"PRN":5,"gnssid":0,"svid":5,"az":89.0,"el":17.0,"ss":44.0,"used":true,"health":1},{"PRN":29,"gnssid":0,"svid":29,"az":68.0,"el":75.0,"ss":49.0,"used":true,"health":1},{"PRN":9,"gnssid":0,"svid":9,"az":358.0,"el":1.0,"ss":32.0,"used":false,"health":1},{"PRN":18,"gnssid":0,"svid":18,"az":177.0,"el":35.0,"ss":47.0,"used":true,"health":1},{"PRN":39,"gnssid":1,"svid":126,"az":0.0,"el":-9.0,"ss":0.0,"used":false,"health":1},{"PRN":16,"gnssid":0,"svid":16,"az":0.0,"el":-9.0,"ss":19.0,"used":false,"health":1},{"PRN":25,"gnssid":0,"svid":25,"az":122.0,"el":36.0,"ss":44.0,"used":true,"health":1},{"PRN":28,"gnssid":0,"svid":28,"az":221.0,"el":46.0,"ss":34.0,"used":true,"health":1},{"PRN":20,"gnssid":0,"svid":20,"az":60.0,"el":21.0,"ss":41.0,"used":true,"health":1},{"PRN":11,"gnssid":0,"svid":11,"az":37.0,"el":12.0,"ss":32.0,"used":true,"health":1},{"PRN":31,"gnssid":0,"svid":31,"az":271.0,"el":50.0,"ss":40.0,"used":true,"health":1},{"PRN":12,"gnssid":0,"svid":12,"az":115.0,"el":8.0,"ss":38.0,"used":true,"health":1},{"PRN":4,"gnssid":0,"svid":4,"az":324.0,"el":11.0,"ss":40.0,"used":true,"health":1}]}
{"class":"TPV","device":"/dev/ttyACM0","mode":3,"time":"2024-06-05T06:37:14.000Z","leapseconds":18,"ept":0.005,"lat":52.315791488,"lon":10.563236948,"altHAE":138.0307,"altMSL":94.1334,"alt":94.1334,"epx":8.920,"epy":10.061,"epv":33.120,"track":291.2967,"magtrack":294.5166,"magvar":3.2,"speed":0.009,"climb":-0.015,"eps":0.28,"epc":262.86,"ecefx":3841079.81,"ecefy":716287.96,"ecefz":5024469.42,"ecefvx":-0.01,"ecefvy":-0.01,"ecefvz":-0.01,"ecefpAcc":5.33,"ecefvAcc":0.28,"velN":0.003,"velE":-0.008,"velD":0.015,"geoidSep":43.897,"eph":16.530,"sep":31.920}
{"class":"SKY","device":"/dev/ttyACM0","time":"2024-06-05T06:37:13.748Z","gdop":1.88,"hdop":0.87,"pdop":1.68,"tdop":0.84,"xdop":0.59,"ydop":0.67,"vdop":1.44,"uSat":10}
{"class":"SKY","device":"/dev/ttyACM0","time":"2024-06-05T06:37:13.748Z","gdop":1.88,"hdop":0.87,"pdop":1.68,"tdop":0.84,"xdop":0.59,"ydop":0.67,"vdop":1.44,"uSat":10}
{"class":"TPV","device":"/dev/ttyACM0","mode":3,"time":"2024-06-05T06:37:14.000Z","leapseconds":18,"ept":0.005,"lat":52.315791488,"lon":10.563236948,"altHAE":138.0307,"altMSL":94.1334,"alt":94.1334,"epx":8.920,"epy":10.061,"epv":33.120,"track":291.2967,"magtrack":294.5166,"magvar":3.2,"speed":0.009,"climb":-0.015,"eps":79.85,"epc":262.86,"ecefx":3841079.81,"ecefy":716287.96,"ecefz":5024469.42,"ecefvx":-0.01,"ecefvy":-0.01,"ecefvz":-0.01,"ecefpAcc":5.33,"ecefvAcc":0.28,"velN":0.003,"velE":-0.008,"velD":0.015,"geoidSep":43.897,"eph":16.530,"sep":31.920}
{"class":"SKY","device":"/dev/ttyACM0","time":"2024-06-05T06:37:14.000Z","gdop":1.88,"hdop":0.87,"pdop":1.68,"tdop":0.84,"xdop":0.59,"ydop":0.67,"vdop":1.44,"nSat":14,"uSat":11,"satellites":[{"PRN":26,"gnssid":0,"svid":26,"az":294.0,"el":42.0,"ss":41.0,"used":true,"health":1},{"PRN":5,"gnssid":0,"svid":5,"az":89.0,"el":17.0,"ss":44.0,"used":true,"health":1},{"PRN":29,"gnssid":0,"svid":29,"az":68.0,"el":75.0,"ss":49.0,"used":true,"health":1},{"PRN":9,"gnssid":0,"svid":9,"az":358.0,"el":1.0,"ss":32.0,"used":false,"health":1},{"PRN":18,"gnssid":0,"svid":18,"az":177.0,"el":35.0,"ss":47.0,"used":true,"health":1},{"PRN":39,"gnssid":1,"svid":126,"az":0.0,"el":-9.0,"ss":0.0,"used":false,"health":1},{"PRN":16,"gnssid":0,"svid":16,"az":0.0,"el":-9.0,"ss":19.0,"used":false,"health":1},{"PRN":25,"gnssid":0,"svid":25,"az":122.0,"el":36.0,"ss":44.0,"used":true,"health":1},{"PRN":28,"gnssid":0,"svid":28,"az":221.0,"el":46.0,"ss":34.0,"used":true,"health":1},{"PRN":20,"gnssid":0,"svid":20,"az":60.0,"el":21.0,"ss":41.0,"used":true,"health":1},{"PRN":11,"gnssid":0,"svid":11,"az":37.0,"el":12.0,"ss":33.0,"used":true,"health":1},{"PRN":31,"gnssid":0,"svid":31,"az":271.0,"el":50.0,"ss":40.0,"used":true,"health":1},{"PRN":12,"gnssid":0,"svid":12,"az":115.0,"el":8.0,"ss":39.0,"used":true,"health":1},{"PRN":4,"gnssid":0,"svid":4,"az":324.0,"el":11.0,"ss":41.0,"used":true,"health":1}]}
{"class":"TPV","device":"/dev/ttyACM0","mode":3,"time":"2024-06-05T06:37:14.248Z","leapseconds":18,"ept":0.005,"lat":52.315791197,"lon":10.563236750,"altHAE":138.0179,"altMSL":94.1205,"alt":94.1205,"epx":8.920,"epy":10.061,"epv":33.120,"track":180.0000,"magtrack":183.2199,"magvar":3.2,"speed":0.006,"climb":-0.008,"eps":0.27,"epc":267.10,"ecefx":3841079.83,"ecefy":716287.95,"ecefz":5024469.39,"ecefvx":0.00,"ecefvy":0.00,"ecefvz":-0.01,"ecefpAcc":5.33,"ecefvAcc":0.27,"velN":-0.006,"velE":0.000,"velD":0.008,"geoidSep":43.897,"eph":16.530,"sep":31.920}
{"class":"SKY","device":"/dev/ttyACM0","time":"2024-06-05T06:37:14.000Z","gdop":1.88,"hdop":0.87,"pdop":1.68,"tdop":0.84,"xdop":0.59,"ydop":0.67,"vdop":1.44,"uSat":10}
{"class":"SKY","device":"/dev/ttyACM0","time":"2024-06-05T06:37:14.000Z","gdop":1.88,"hdop":0.87,"pdop":1.68,"tdop":0.84,"xdop":0.59,"ydop":0.67,"vdop":1.44,"uSat":10}
{"class":"TPV","device":"/dev/ttyACM0","mode":3,"time":"2024-06-05T06:37:14.248Z","leapseconds":18,"ept":0.005,"lat":52.315791197,"lon":10.563236750,"altHAE":138.0179,"altMSL":94.1205,"alt":94.1205,"epx":8.920,"epy":10.061,"epv":33.120,"track":180.0000,"magtrack":183.2199,"magvar":3.2,"speed":0.006,"climb":-0.008,"eps":81.14,"epc":267.10,"ecefx":3841079.83,"ecefy":716287.95,"ecefz":5024469.39,"ecefvx":0.00,"ecefvy":0.00,"ecefvz":-0.01,"ecefpAcc":5.33,"ecefvAcc":0.27,"velN":-0.006,"velE":0.000,"velD":0.008,"geoidSep":43.897,"eph":16.530,"sep":31.920}
{"class":"SKY","device":"/dev/ttyACM0","time":"2024-06-05T06:37:14.248Z","gdop":1.88,"hdop":0.87,"pdop":1.68,"tdop":0.84,"xdop":0.59,"ydop":0.67,"vdop":1.44,"nSat":14,"uSat":11,"satellites":[{"PRN":26,"gnssid":0,"svid":26,"az":294.0,"el":42.0,"ss":41.0,"used":true,"health":1},{"PRN":5,"gnssid":0,"svid":5,"az":89.0,"el":17.0,"ss":44.0,"used":true,"health":1},{"PRN":29,"gnssid":0,"svid":29,"az":68.0,"el":75.0,"ss":49.0,"used":true,"health":1},{"PRN":9,"gnssid":0,"svid":9,"az":358.0,"el":1.0,"ss":32.0,"used":false,"health":1},{"PRN":18,"gnssid":0,"svid":18,"az":177.0,"el":35.0,"ss":47.0,"used":true,"health":1},{"PRN":39,"gnssid":1,"svid":126,"az":0.0,"el":-9.0,"ss":0.0,"used":false,"health":1},{"PRN":16,"gnssid":0,"svid":16,"az":0.0,"el":-9.0,"ss":19.0,"used":false,"health":1},{"PRN":25,"gnssid":0,"svid":25,"az":122.0,"el":36.0,"ss":44.0,"used":true,"health":1},{"PRN":28,"gnssid":0,"svid":28,"az":221.0,"el":46.0,"ss":34.0,"used":true,"health":1},{"PRN":20,"gnssid":0,"svid":20,"az":60.0,"el":21.0,"ss":42.0,"used":true,"health":1},{"PRN":11,"gnssid":0,"svid":11,"az":37.0,"el":12.0,"ss":35.0,"used":true,"health":1},{"PRN":31,"gnssid":0,"svid":31,"az":271.0,"el":50.0,"ss":39.0,"used":true,"health":1},{"PRN":12,"gnssid":0,"svid":12,"az":115.0,"el":8.0,"ss":39.0,"used":true,"health":1},{"PRN":4,"gnssid":0,"svid":4,"az":324.0,"el":11.0,"ss":41.0,"used":true,"health":1}]}
{"class":"TPV","device":"/dev/ttyACM0","mode":3,"time":"2024-06-05T06:37:14.500Z","leapseconds":18,"ept":0.005,"lat":52.315790892,"lon":10.563236697,"altHAE":138.0062,"altMSL":94.1088,"alt":94.1088,"epx":8.920,"epy":10.061,"epv":33.120,"track":244.6265,"magtrack":247.8464,"magvar":3.2,"speed":0.011,"climb":-0.009,"eps":0.27,"epc":262.86,"ecefx":3841079.85,"ecefy":716287.95,"ecefz":5024469.36,"ecefvx":0.00,"ecefvy":-0.01,"ecefvz":-0.01,"ecefpAcc":5.34,"ecefvAcc":0.27,"velN":-0.005,"velE":-0.010,"velD":0.009,"geoidSep":43.897,"eph":16.530,"sep":31.920}
{"class":"SKY","device":"/dev/ttyACM0","time":"2024-06-05T06:37:14.248Z","gdop":1.88,"hdop":0.87,"pdop":1.68,"tdop":0.84,"xdop":0.59,"ydop":0.67,"vdop":1.44,"uSat":10}
{"class":"SKY","device":"/dev/ttyACM0","time":"2024-06-05T06:37:14.248Z","gdop":1.88,"hdop":0.87,"pdop":1.68,"tdop":0.84,"xdop":0.59,"ydop":0.67,"vdop":1.44,"uSat":10}
{"class":"TPV","device":"/dev/ttyACM0","mode":3,"time":"2024-06-05T06:37:14.500Z","leapseconds":18,"ept":0.005,"lat":52.315790892,"lon":10.563236697,"altHAE":138.0062,"altMSL":94.1088,"alt":94.1088,"epx":8.920,"epy":10.061,"epv":33.120,"track":244.6265,"magtrack":247.8464,"magvar":3.2,"speed":0.011,"climb":-0.009,"eps":79.85,"epc":262.86,"ecefx":3841079.85,"ecefy":716287.95,"ecefz":5024469.36,"ecefvx":0.00,"ecefvy":-0.01,"ecefvz":-0.01,"ecefpAcc":5.34,"ecefvAcc":0.27,"velN":-0.005,"velE":-0.010,"velD":0.009,"geoidSep":43.897,"eph":16.530,"sep":31.920}
{"class":"SKY","device":"/dev/ttyACM0","time":"2024-06-05T06:37:14.500Z","gdop":1.88,"hdop":0.87,"pdop":1.68,"tdop":0.84,"xdop":0.59,"ydop":0.67,"vdop":1.44,"nSat":14,"uSat":11,"satellites":[{"PRN":26,"gnssid":0,"svid":26,"az":294.0,"el":42.0,"ss":42.0,"used":true,"health":1},{"PRN":5,"gnssid":0,"svid":5,"az":89.0,"el":17.0,"ss":44.0,"used":true,"health":1},{"PRN":29,"gnssid":0,"svid":29,"az":68.0,"el":75.0,"ss":49.0,"used":true,"health":1},{"PRN":9,"gnssid":0,"svid":9,"az":358.0,"el":1.0,"ss":32.0,"used":false,"health":1},{"PRN":18,"gnssid":0,"svid":18,"az":177.0,"el":35.0,"ss":47.0,"used":true,"health":1},{"PRN":39,"gnssid":1,"svid":126,"az":0.0,"el":-9.0,"ss":0.0,"used":false,"health":1},{"PRN":16,"gnssid":0,"svid":16,"az":0.0,"el":-9.0,"ss":19.0,"used":false,"health":1},{"PRN":25,"gnssid":0,"svid":25,"az":122.0,"el":36.0,"ss":44.0,"used":true,"health":1},{"PRN":28,"gnssid":0,"svid":28,"az":221.0,"el":46.0,"ss":34.0,"used":true,"health":1},{"PRN":20,"gnssid":0,"svid":20,"az":60.0,"el":21.0,"ss":41.0,"used":true,"health":1},{"PRN":11,"gnssid":0,"svid":11,"az":37.0,"el":12.0,"ss":35.0,"used":true,"health":1},{"PRN":31,"gnssid":0,"svid":31,"az":271.0,"el":50.0,"ss":39.0,"used":true,"health":1},{"PRN":12,"gnssid":0,"svid":12,"az":115.0,"el":8.0,"ss":38.0,"used":true,"health":1},{"PRN":4,"gnssid":0,"svid":4,"az":324.0,"el":11.0,"ss":41.0,"used":true,"health":1}]}
{"class":"TPV","device":"/dev/ttyACM0","mode":3,"time":"2024-06-05T06:37:14.748Z","leapseconds":18,"ept":0.005,"lat":52.315790671,"lon":10.563236525,"altHAE":137.9873,"altMSL":94.0900,"alt":94.0900,"epx":8.920,"epy":10.061,"epv":33.120,"track":13.2591,"magtrack":16.4790,"magvar":3.2,"speed":0.008,"climb":-0.006,"eps":0.27,"epc":267.10,"ecefx":3841079.86,"ecefy":716287.94,"ecefz":5024469.33,"ecefvx":-0.01,"ecefvy":0.00,"ecefvz":0.00,"ecefpAcc":5.34,"ecefvAcc":0.27,"velN":0.008,"velE":0.002,"velD":0.006,"geoidSep":43.897,"eph":16.530,"sep":31.920}
{"class":"SKY","device":"/dev/ttyACM0","time":"2024-06-05T06:37:14.500Z","gdop":1.88,"hdop":0.87,"pdop":1.68,"tdop":0.84,"xdop":0.59,"ydop":0.67,"vdop":1.44,"uSat":10}
{"class":"SKY","device":"/dev/ttyACM0","time":"2024-06-05T06:37:14.500Z","gdop":1.88,"hdop":0.87,"pdop":1.68,"tdop":0.84,"xdop":0.59,"ydop":0.67,"vdop":1.44,"uSat":10}
{"class":"TPV","device":"/dev/ttyACM0","mode":3,"time":"2024-06-05T06:37:14.748Z","leapseconds":18,"ept":0.005,"lat":52.315790671,"lon":10.563236525,"altHAE":137.9873,"altMSL":94.0900,"alt":94.0900,"epx":8.920,"epy":10.061,"epv":33.120,"track":13.2591,"magtrack":16.4790,"magvar":3.2,"speed":0.008,"climb":-0.006,"eps":81.14,"epc":267.10,"ecefx":3841079.86,"ecefy":716287.94,"ecefz":5024469.33,"ecefvx":-0.01,"ecefvy":0.00,"ecefvz":0.00,"ecefpAcc":5.34,"ecefvAcc":0.27,"velN":0.008,"velE":0.002,"velD":0.006,"geoidSep":43.897,"eph":16.530,"sep":31.920}
{"class":"SKY","device":"/dev/ttyACM0","time":"2024-06-05T06:37:14.748Z","gdop":1.88,"hdop":0.87,"pdop":1.68,"tdop":0.84,"xdop":0.59,"ydop":0.67,"vdop":1.44,"nSat":14,"uSat":11,"satellites":[{"PRN":26,"gnssid":0,"svid":26,"az":294.0,"el":42.0,"ss":42.0,"used":true,"health":1},{"PRN":5,"gnssid":0,"svid":5,"az":89.0,"el":17.0,"ss":43.0,"used":true,"health":1},{"PRN":29,"gnssid":0,"svid":29,"az":68.0,"el":75.0,"ss":49.0,"used":true,"health":1},{"PRN":9,"gnssid":0,"svid":9,"az":358.0,"el":1.0,"ss":32.0,"used":false,"health":1},{"PRN":18,"gnssid":0,"svid":18,"az":177.0,"el":35.0,"ss":48.0,"used":true,"health":1},{"PRN":39,"gnssid":1,"svid":126,"az":0.0,"el":-9.0,"ss":0.0,"used":false,"health":1},{"PRN":16,"gnssid":0,"svid":16,"az":0.0,"el":-9.0,"ss":19.0,"used":false,"health":1},{"PRN":25,"gnssid":0,"svid":25,"az":122.0,"el":36.0,"ss":44.0,"used":true,"health":1},{"PRN":28,"gnssid":0,"svid":28,"az":221.0,"el":46.0,"ss":34.0,"used":true,"health":1},{"PRN":20,"gnssid":0,"svid":20,"az":60.0,"el":21.0,"ss":40.0,"used":true,"health":1},{"PRN":11,"gnssid":0,"svid":11,"az":37.0,"el":12.0,"ss":35.0,"used":true,"health":1},{"PRN":31,"gnssid":0,"svid":31,"az":271.0,"el":50.0,"ss":39.0,"used":true,"health":1},{"PRN":12,"gnssid":0,"svid":12,"az":115.0,"el":8.0,"ss":38.0,"used":true,"health":1},{"PRN":4,"gnssid":0,"svid":4,"az":324.0,"el":11.0,"ss":41.0,"used":true,"health":1}]}
{"class":"TPV","device":"/dev/ttyACM0","mode":3,"time":"2024-06-05T06:37:15.000Z","leapseconds":18,"ept":0.005,"lat":52.315790561,"lon":10.563236525,"altHAE":137.9715,"altMSL":94.0741,"alt":94.0741,"epx":8.920,"epy":10.061,"epv":33.120,"track":244.6265,"magtrack":247.8464,"magvar":3.2,"speed":0.011,"climb":-0.009,"eps":0.28,"epc":262.86,"ecefx":3841079.86,"ecefy":716287.94,"ecefz":5024469.31,"ecefvx":0.00,"ecefvy":-0.01,"ecefvz":-0.01,"ecefpAcc":5.34,"ecefvAcc":0.28,"velN":-0.005,"velE":-0.010,"velD":0.009,"geoidSep":43.897,"eph":16.530,"sep":31.920}
{"class":"SKY","device":"/dev/ttyACM0","time":"2024-06-05T06:37:14.748Z","gdop":1.88,"hdop":0.87,"pdop":1.68,"tdop":0.84,"xdop":0.59,"ydop":0.67,"vdop":1.44,"uSat":10}
{"class":"SKY","device":"/dev/ttyACM0","time":"2024-06-05T06:37:14.748Z","gdop":1.88,"hdop":0.87,"pdop":1.68,"tdop":0.84,"xdop":0.59,"ydop":0.67,"vdop":1.44,"uSat":10}
{"class":"TPV","device":"/dev/ttyACM0","mode":3,"time":"2024-06-05T06:37:15.000Z","leapseconds":18,"ept":0.005,"lat":52.315790561,"lon":10.563236525,"altHAE":137.9715,"altMSL":94.0741,"alt":94.0741,"epx":8.920,"epy":10.061,"epv":33.120,"track":244.6265,"magtrack":247.8464,"magvar":3.2,"speed":0.011,"climb":-0.009,"eps":79.85,"epc":262.86,"ecefx":3841079.86,"ecefy":716287.94,"ecefz":5024469.31,"ecefvx":0.00,"ecefvy":-0.01,"ecefvz":-0.01,"ecefpAcc":5.34,"ecefvAcc":0.28,"velN":-0.005,"velE":-0.010,"velD":0.009,"geoidSep":43.897,"eph":16.530,"sep":31.920}
{"class":"SKY","device":"/dev/ttyACM0","time":"2024-06-05T06:37:15.000Z","gdop":1.88,"hdop":0.87,"pdop":1.68,"tdop":0.84,"xdop":0.59,"ydop":0.67,"vdop":1.44,"nSat":14,"uSat":11,"satellites":[{"PRN":26,"gnssid":0,"svid":26,"az":294.0,"el":42.0,"ss":42.0,"used":true,"health":1},{"PRN":5,"gnssid":0,"svid":5,"az":89.0,"el":17.0,"ss":43.0,"used":true,"health":1},{"PRN":29,"gnssid":0,"svid":29,"az":68.0,"el":75.0,"ss":49.0,"used":true,"health":1},{"PRN":9,"gnssid":0,"svid":9,"az":358.0,"el":1.0,"ss":32.0,"used":false,"health":1},{"PRN":18,"gnssid":0,"svid":18,"az":177.0,"el":35.0,"ss":48.0,"used":true,"health":1},{"PRN":44,"gnssid":1,"svid":131,"az":0.0,"el":-9.0,"ss":0.0,"used":false,"health":1},{"PRN":16,"gnssid":0,"svid":16,"az":0.0,"el":-9.0,"ss":18.0,"used":false,"health":1},{"PRN":25,"gnssid":0,"svid":25,"az":122.0,"el":36.0,"ss":44.0,"used":true,"health":1},{"PRN":28,"gnssid":0,"svid":28,"az":221.0,"el":46.0,"ss":34.0,"used":true,"health":1},{"PRN":20,"gnssid":0,"svid":20,"az":60.0,"el":21.0,"ss":40.0,"used":true,"health":1},{"PRN":11,"gnssid":0,"svid":11,"az":37.0,"el":12.0,"ss":34.0,"used":true,"health":1},{"PRN":31,"gnssid":0,"svid":31,"az":271.0,"el":50.0,"ss":39.0,"used":true,"health":1},{"PRN":12,"gnssid":0,"svid":12,"az":115.0,"el":8.0,"ss":37.0,"used":true,"health":1},{"PRN":4,"gnssid":0,"svid":4,"az":324.0,"el":11.0,"ss":40.0,"used":true,"health":1}]}
{"class":"TPV","device":"/dev/ttyACM0","mode":3,"time":"2024-06-05T06:37:15.248Z","leapseconds":18,"ept":0.005,"lat":52.315790269,"lon":10.563236328,"altHAE":137.9586,"altMSL":94.0613,"alt":94.0613,"epx":8.920,"epy":10.061,"epv":33.120,"track":263.7557,"magtrack":266.9756,"magvar":3.2,"speed":0.032,"climb":0.003,"eps":0.27,"epc":267.10,"ecefx":3841079.88,"ecefy":716287.93,"ecefz":5024469.28,"ecefvx":0.01,"ecefvy":-0.03,"ecefvz":0.00,"ecefpAcc":5.34,"ecefvAcc":0.27,"velN":-0.003,"velE":-0.031,"velD":-0.003,"geoidSep":43.897,"eph":16.530,"sep":31.920}
{"class":"SKY","device":"/dev/ttyACM0","time":"2024-06-05T06:37:15.000Z","gdop":1.88,"hdop":0.87,"pdop":1.68,"tdop":0.84,"xdop":0.59,"ydop":0.67,"vdop":1.44,"uSat":10}
{"class":"SKY","device":"/dev/ttyACM0","time":"2024-06-05T06:37:15.000Z","gdop":1.88,"hdop":0.87,"pdop":1.68,"tdop":0.84,"xdop":0.59,"ydop":0.67,"vdop":1.44,"uSat":10}
{"class":"TPV","device":"/dev/ttyACM0","mode":3,"time":"2024-06-05T06:37:15.248Z","leapseconds":18,"ept":0.005,"lat":52.315790269,"lon":10.563236328,"altHAE":137.9586,"altMSL":94.0613,"alt":94.0613,"epx":8.920,"epy":10.061,"epv":33.120,"track":263.7557,"magtrack":266.9756,"magvar":3.2,"speed":0.032,"climb":0.003,"eps":81.14,"epc":267.10,"ecefx":3841079.88,"ecefy":716287.93,"ecefz":5024469.28,"ecefvx":0.01,"ecefvy":-0.03,"ecefvz":0.00,"ecefpAcc":5.34,"ecefvAcc":0.27,"velN":-0.003,"velE":-0.031,"velD":-0.003,"geoidSep":43.897,"eph":16.530,"sep":31.920}
