{"class":"VERSION","release":"3.25","rev":"3.25","proto_major":3,"proto_minor":15}
{"class":"DEVICES","devices":[{"class":"DEVICE","path":"/dev/ttyACM0","driver":"u-blox","subtype":"SW 5.00    May 11 2006 14:40:17,HW 00040001","subtype1":"M4T1.2  May 11 2006 14:40:17","activated":"2024-06-05T06:49:07.419Z","flags":1,"native":1,"bps":57600,"parity":"N","stopbits":1,"cycle":1.00,"mincycle":0.02}]}
{"class":"WATCH","enable":true,"json":true,"nmea":false,"raw":0,"scaled":false,"timing":false,"split24":false,"pps":false}
{"class":"TPV","device":"/dev/ttyACM0","mode":3,"time":"2024-06-05T06:49:07.249Z","leapseconds":18,"ept":0.005,"lat":52.315583114,"lon":10.561721329,"altHAE":148.3221,"altMSL":104.4230,"alt":104.4230,"epx":8.920,"epy":10.061,"epv":39.330,"track":146.1180,"magtrack":149.3374,"magvar":3.2,"speed":0.008,"climb":0.043,"eps":81.14,"epc":317.18,"ecefx":3841122.98,"ecefy":716190.87,"ecefz":5024463.39,"ecefvx":0.03,"ecefvy":0.01,"ecefvz":0.03,"ecefpAcc":5.75,"ecefvAcc":0.22,"velN":-0.006,"velE":0.004,"velD":-0.043,"geoidSep":43.899,"eph":18.240,"sep":37.240}
{"class":"SKY","device":"/dev/ttyACM0","time":"2024-06-05T06:49:07.249Z","gdop":2.22,"hdop":0.96,"pdop":1.96,"tdop":1.04,"xdop":0.59,"ydop":0.67,"vdop":1.71,"nSat":14,"uSat":9,"satellites":[{"PRN":26,"gnssid":0,"svid":26,"az":293.0,"el":48.0,"ss":39.0,"used":true,"health":1},{"PRN":5,"gnssid":0,"svid":5,"az":84.0,"el":20.0,"ss":45.0,"used":true,"health":1},{"PRN":29,"gnssid":0,"svid":29,"az":67.0,"el":69.0,"ss":47.0,"used":true,"health":1},{"PRN":9,"gnssid":0,"svid":9,"az":354.0,"el":3.0,"ss":25.0,"used":false,"health":1},{"PRN":18,"gnssid":0,"svid":18,"az":176.0,"el":40.0,"ss":47.0,"used":true,"health":1},{"PRN":33,"gnssid":1,"svid":120,"az":0.0,"el":-9.0,"ss":0.0,"used":false,"health":1},{"PRN":16,"gnssid":0,"svid":16,"az":296.0,"el":10.0,"ss":29.0,"used":false,"health":1},{"PRN":25,"gnssid":0,"svid":25,"az":124.0,"el":31.0,"ss":42.0,"used":true,"health":1},{"PRN":28,"gnssid":0,"svid":28,"az":217.0,"el":41.0,"ss":48.0,"used":true,"health":1},{"PRN":20,"gnssid":0,"svid":20,"az":54.0,"el":21.0,"ss":40.0,"used":true,"health":1},{"PRN":11,"gnssid":0,"svid":11,"az":36.0,"el":7.0,"ss":29.0,"used":false,"health":1},{"PRN":31,"gnssid":0,"svid":31,"az":262.0,"el":50.0,"ss":46.0,"used":true,"health":1},{"PRN":12,"gnssid":0,"svid":12,"az":118.0,"el":4.0,"ss":29.0,"used":false,"health":1},{"PRN":4,"gnssid":0,"svid":4,"az":319.0,"el":10.0,"ss":35.0,"used":true,"health":1}]}
{"class":"TPV","device":"/dev/ttyACM0","mode":3,"time":"2024-06-05T06:49:07.501Z","leapseconds":18,"ept":0.005,"lat":52.315583379,"lon":10.561721410,"altHAE":148.3119,"altMSL":104.4129,"alt":104.4129,"epx":8.920,"epy":10.061,"epv":39.330,"track":77.8330,"magtrack":81.0524,"magvar":3.2,"speed":0.006,"climb":0.037,"eps":0.22,"epc":312.14,"ecefx":3841122.95,"ecefy":716190.87,"ecefz":5024463.40,"ecefvx":0.02,"ecefvy":0.01,"ecefvz":0.03,"ecefpAcc":5.74,"ecefvAcc":0.22,"velN":0.001,"velE":0.006,"velD":-0.037,"geoidSep":43.899,"eph":18.240,"sep":37.240}
{"class":"SKY","device":"/dev/ttyACM0","time":"2024-06-05T06:49:07.249Z","gdop":2.22,"hdop":0.96,"pdop":1.96,"tdop":1.04,"xdop":0.59,"ydop":0.67,"vdop":1.71,"uSat":10}
{"class":"SKY","device":"/dev/ttyACM0","time":"2024-06-05T06:49:07.249Z","gdop":2.22,"hdop":0.96,"pdop":1.96,"tdop":1.04,"xdop":0.59,"ydop":0.67,"vdop":1.71,"uSat":10}
{"class":"TPV","device":"/dev/ttyACM0","mode":3,"time":"2024-06-05T06:49:07.501Z","leapseconds":18,"ept":0.005,"lat":52.315583379,"lon":10.561721410,"altHAE":148.3119,"altMSL":104.4129,"alt":104.4129,"epx":8.920,"epy":10.061,"epv":39.330,"track":77.8330,"magtrack":81.0524,"magvar":3.2,"speed":0.006,"climb":0.037,"eps":79.85,"epc":312.14,"ecefx":3841122.95,"ecefy":716190.87,"ecefz":5024463.40,"ecefvx":0.02,"ecefvy":0.01,"ecefvz":0.03,"ecefpAcc":5.74,"ecefvAcc":0.22,"velN":0.001,"velE":0.006,"velD":-0.037,"geoidSep":43.899,"eph":18.240,"sep":37.240}
{"class":"SKY","device":"/dev/ttyACM0","time":"2024-06-05T06:49:07.501Z","gdop":2.22,"hdop":0.96,"pdop":1.96,"tdop":1.04,"xdop":0.59,"ydop":0.67,"vdop":1.71,"nSat":14,"uSat":9,"satellites":[{"PRN":26,"gnssid":0,"svid":26,"az":293.0,"el":48.0,"ss":39.0,"used":true,"health":1},{"PRN":5,"gnssid":0,"svid":5,"az":84.0,"el":20.0,"ss":45.0,"used":true,"health":1},{"PRN":29,"gnssid":0,"svid":29,"az":67.0,"el":69.0,"ss":47.0,"used":true,"health":1},{"PRN":9,"gnssid":0,"svid":9,"az":354.0,"el":3.0,"ss":25.0,"used":false,"health":1},{"PRN":18,"gnssid":0,"svid":18,"az":176.0,"el":40.0,"ss":47.0,"used":true,"health":1},{"PRN":33,"gnssid":1,"svid":120,"az":0.0,"el":-9.0,"ss":0.0,"used":false,"health":1},{"PRN":16,"gnssid":0,"svid":16,"az":296.0,"el":10.0,"ss":29.0,"used":false,"health":1},{"PRN":25,"gnssid":0,"svid":25,"az":124.0,"el":31.0,"ss":42.0,"used":true,"health":1},{"PRN":28,"gnssid":0,"svid":28,"az":217.0,"el":41.0,"ss":48.0,"used":true,"health":1},{"PRN":20,"gnssid":0,"svid":20,"az":54.0,"el":21.0,"ss":40.0,"used":true,"health":1},{"PRN":11,"gnssid":0,"svid":11,"az":36.0,"el":7.0,"ss":29.0,"used":false,"health":1},{"PRN":31,"gnssid":0,"svid":31,"az":262.0,"el":50.0,"ss":46.0,"used":true,"health":1},{"PRN":12,"gnssid":0,"svid":12,"az":118.0,"el":4.0,"ss":29.0,"used":false,"health":1},{"PRN":4,"gnssid":0,"svid":4,"az":319.0,"el":10.0,"ss":34.0,"used":true,"health":1}]}
{"class":"TPV","device":"/dev/ttyACM0","mode":3,"time":"2024-06-05T06:49:07.749Z","leapseconds":18,"ept":0.005,"lat":52.315583519,"lon":10.561721463,"altHAE":148.2999,"altMSL":104.4009,"alt":104.4009,"epx":8.920,"epy":10.061,"epv":39.330,"track":337.5971,"magtrack":340.8165,"magvar":3.2,"speed":0.010,"climb":0.044,"eps":0.22,"epc":317.18,"ecefx":3841122.93,"ecefy":716190.87,"ecefz":5024463.40,"ecefvx":0.02,"ecefvy":0.00,"ecefvz":0.04,"ecefpAcc":5.74,"ecefvAcc":0.22,"velN":0.009,"velE":-0.004,"velD":-0.044,"geoidSep":43.899,"eph":18.240,"sep":37.240}
{"class":"SKY","device":"/dev/ttyACM0","time":"2024-06-05T06:49:07.501Z","gdop":2.22,"hdop":0.96,"pdop":1.96,"tdop":1.04,"xdop":0.59,"ydop":0.67,"vdop":1.71,"uSat":10}
{"class":"SKY","device":"/dev/ttyACM0","time":"2024-06-05T06:49:07.501Z","gdop":2.22,"hdop":0.96,"pdop":1.96,"tdop":1.04,"xdop":0.59,"ydop":0.67,"vdop":1.71,"uSat":10}
{"class":"TPV","device":"/dev/ttyACM0","mode":3,"time":"2024-06-05T06:49:07.749Z","leapseconds":18,"ept":0.005,"lat":52.315583519,"lon":10.561721463,"altHAE":148.2999,"altMSL":104.4009,"alt":104.4009,"epx":8.920,"epy":10.061,"epv":39.330,"track":337.5971,"magtrack":340.8165,"magvar":3.2,"speed":0.010,"climb":0.044,"eps":81.14,"epc":317.18,"ecefx":3841122.93,"ecefy":716190.87,"ecefz":5024463.40,"ecefvx":0.02,"ecefvy":0.00,"ecefvz":0.04,"ecefpAcc":5.74,"ecefvAcc":0.22,"velN":0.009,"velE":-0.004,"velD":-0.044,"geoidSep":43.899,"eph":18.240,"sep":37.240}
{"class":"SKY","device":"/dev/ttyACM0","time":"2024-06-05T06:49:07.749Z","gdop":2.22,"hdop":0.96,"pdop":1.96,"tdop":1.04,"xdop":0.59,"ydop":0.67,"vdop":1.71,"nSat":14,"uSat":9,"satellites":[{"PRN":26,"gnssid":0,"svid":26,"az":293.0,"el":48.0,"ss":39.0,"used":true,"health":1},{"PRN":5,"gnssid":0,"svid":5,"az":84.0,"el":20.0,"ss":45.0,"used":true,"health":1},{"PRN":29,"gnssid":0,"svid":29,"az":67.0,"el":69.0,"ss":47.0,"used":true,"health":1},{"PRN":9,"gnssid":0,"svid":9,"az":354.0,"el":3.0,"ss":27.0,"used":false,"health":1},{"PRN":18,"gnssid":0,"svid":18,"az":176.0,"el":40.0,"ss":47.0,"used":true,"health":1},{"PRN":37,"gnssid":1,"svid":124,"az":0.0,"el":-9.0,"ss":0.0,"used":false,"health":1},{"PRN":16,"gnssid":0,"svid":16,"az":296.0,"el":10.0,"ss":29.0,"used":false,"health":1},{"PRN":25,"gnssid":0,"svid":25,"az":124.0,"el":31.0,"ss":42.0,"used":true,"health":1},{"PRN":28,"gnssid":0,"svid":28,"az":217.0,"el":41.0,"ss":47.0,"used":true,"health":1},{"PRN":20,"gnssid":0,"svid":20,"az":54.0,"el":21.0,"ss":40.0,"used":true,"health":1},{"PRN":11,"gnssid":0,"svid":11,"az":36.0,"el":7.0,"ss":29.0,"used":false,"health":1},{"PRN":31,"gnssid":0,"svid":31,"az":262.0,"el":50.0,"ss":46.0,"used":true,"health":1},{"PRN":12,"gnssid":0,"svid":12,"az":118.0,"el":4.0,"ss":29.0,"used":false,"health":1},{"PRN":4,"gnssid":0,"svid":4,"az":319.0,"el":10.0,"ss":34.0,"used":true,"health":1}]}
{"class":"TPV","device":"/dev/ttyACM0","mode":3,"time":"2024-06-05T06:49:08.001Z","leapseconds":18,"ept":0.005,"lat":52.315583716,"lon":10.561721688,"altHAE":148.2830,"altMSL":104.3840,"alt":104.3840,"epx":8.920,"epy":10.061,"epv":39.330,"track":77.8330,"magtrack":81.0524,"magvar":3.2,"speed":0.006,"climb":0.037,"eps":0.22,"epc":312.14,"ecefx":3841122.90,"ecefy":716190.88,"ecefz":5024463.40,"ecefvx":0.02,"ecefvy":0.01,"ecefvz":0.03,"ecefpAcc":5.74,"ecefvAcc":0.22,"velN":0.001,"velE":0.006,"velD":-0.037,"geoidSep":43.899,"eph":18.240,"sep":37.240}
{"class":"SKY","device":"/dev/ttyACM0","time":"2024-06-05T06:49:07.749Z","gdop":2.22,"hdop":0.96,"pdop":1.96,"tdop":1.04,"xdop":0.59,"ydop":0.67,"vdop":1.71,"uSat":10}
{"class":"SKY","device":"/dev/ttyACM0","time":"2024-06-05T06:49:07.749Z","gdop":2.22,"hdop":0.96,"pdop":1.96,"tdop":1.04,"xdop":0.59,"ydop":0.67,"vdop":1.71,"uSat":10}
{"class":"TPV","device":"/dev/ttyACM0","mode":3,"time":"2024-06-05T06:49:08.001Z","leapseconds":18,"ept":0.005,"lat":52.315583716,"lon":10.561721688,"altHAE":148.2830,"altMSL":104.3840,"alt":104.3840,"epx":8.920,"epy":10.061,"epv":39.330,"track":77.8330,"magtrack":81.0524,"magvar":3.2,"speed":0.006,"climb":0.037,"eps":79.85,"epc":312.14,"ecefx":3841122.90,"ecefy":716190.88,"ecefz":5024463.40,"ecefvx":0.02,"ecefvy":0.01,"ecefvz":0.03,"ecefpAcc":5.74,"ecefvAcc":0.22,"velN":0.001,"velE":0.006,"velD":-0.037,"geoidSep":43.899,"eph":18.240,"sep":37.240}
{"class":"SKY","device":"/dev/ttyACM0","time":"2024-06-05T06:49:08.001Z","gdop":2.22,"hdop":0.96,"pdop":1.96,"tdop":1.04,"xdop":0.59,"ydop":0.67,"vdop":1.71,"nSat":14,"uSat":9,"satellites":[{"PRN":26,"gnssid":0,"svid":26,"az":293.0,"el":48.0,"ss":39.0,"used":true,"health":1},{"PRN":5,"gnssid":0,"svid":5,"az":84.0,"el":20.0,"ss":45.0,"used":true,"health":1},{"PRN":29,"gnssid":0,"svid":29,"az":67.0,"el":69.0,"ss":47.0,"used":true,"health":1},{"PRN":9,"gnssid":0,"svid":9,"az":354.0,"el":3.0,"ss":27.0,"used":false,"health":1},{"PRN":18,"gnssid":0,"svid":18,"az":176.0,"el":40.0,"ss":47.0,"used":true,"health":1},{"PRN":37,"gnssid":1,"svid":124,"az":0.0,"el":-9.0,"ss":0.0,"used":false,"health":1},{"PRN":16,"gnssid":0,"svid":16,"az":296.0,"el":10.0,"ss":29.0,"used":false,"health":1},{"PRN":25,"gnssid":0,"svid":25,"az":124.0,"el":31.0,"ss":42.0,"used":true,"health":1},{"PRN":28,"gnssid":0,"svid":28,"az":217.0,"el":41.0,"ss":47.0,"used":true,"health":1},{"PRN":20,"gnssid":0,"svid":20,"az":54.0,"el":21.0,"ss":40.0,"used":true,"health":1},{"PRN":11,"gnssid":0,"svid":11,"az":36.0,"el":7.0,"ss":29.0,"used":false,"health":1},{"PRN":31,"gnssid":0,"svid":31,"az":262.0,"el":50.0,"ss":46.0,"used":true,"health":1},{"PRN":12,"gnssid":0,"svid":12,"az":118.0,"el":4.0,"ss":29.0,"used":false,"health":1},{"PRN":4,"gnssid":0,"svid":4,"az":319.0,"el":10.0,"ss":34.0,"used":true,"health":1}]}
{"class":"TPV","device":"/dev/ttyACM0","mode":3,"time":"2024-06-05T06:49:08.249Z","leapseconds":18,"ept":0.005,"lat":52.315583910,"lon":10.561721742,"altHAE":148.2789,"altMSL":104.3799,"alt":104.3799,"epx":8.920,"epy":10.061,"epv":39.330,"track":77.8330,"magtrack":81.0524,"magvar":3.2,"speed":0.006,"climb":0.037,"eps":0.22,"epc":317.18,"ecefx":3841122.88,"ecefy":716190.88,"ecefz":5024463.41,"ecefvx":0.02,"ecefvy":0.01,"ecefvz":0.03,"ecefpAcc":5.73,"ecefvAcc":0.22,"velN":0.001,"velE":0.006,"velD":-0.037,"geoidSep":43.899,"eph":18.240,"sep":37.240}
{"class":"SKY","device":"/dev/ttyACM0","time":"2024-06-05T06:49:08.001Z","gdop":2.22,"hdop":0.96,"pdop":1.96,"tdop":1.04,"xdop":0.59,"ydop":0.67,"vdop":1.71,"uSat":10}
{"class":"SKY","device":"/dev/ttyACM0","time":"2024-06-05T06:49:08.001Z","gdop":2.22,"hdop":0.96,"pdop":1.96,"tdop":1.04,"xdop":0.59,"ydop":0.67,"vdop":1.71,"uSat":10}
{"class":"TPV","device":"/dev/ttyACM0","mode":3,"time":"2024-06-05T06:49:08.249Z","leapseconds":18,"ept":0.005,"lat":52.315583910,"lon":10.561721742,"altHAE":148.2789,"altMSL":104.3799,"alt":104.3799,"epx":8.920,"epy":10.061,"epv":39.330,"track":77.8330,"magtrack":81.0524,"magvar":3.2,"speed":0.006,"climb":0.037,"eps":81.14,"epc":317.18,"ecefx":3841122.88,"ecefy":716190.88,"ecefz":5024463.41,"ecefvx":0.02,"ecefvy":0.01,"ecefvz":0.03,"ecefpAcc":5.73,"ecefvAcc":0.22,"velN":0.001,"velE":0.006,"velD":-0.037,"geoidSep":43.899,"eph":18.240,"sep":37.240}
{"class":"SKY","device":"/dev/ttyACM0","time":"2024-06-05T06:49:08.249Z","gdop":2.22,"hdop":0.96,"pdop":1.96,"tdop":1.04,"xdop":0.59,"ydop":0.67,"vdop":1.71,"nSat":14,"uSat":9,"satellites":[{"PRN":26,"gnssid":0,"svid":26,"az":293.0,"el":48.0,"ss":39.0,"used":true,"health":1},{"PRN":5,"gnssid":0,"svid":5,"az":84.0,"el":20.0,"ss":45.0,"used":true,"health":1},{"PRN":29,"gnssid":0,"svid":29,"az":67.0,"el":69.0,"ss":47.0,"used":true,"health":1},{"PRN":9,"gnssid":0,"svid":9,"az":354.0,"el":3.0,"ss":27.0,"used":false,"health":1},{"PRN":18,"gnssid":0,"svid":18,"az":176.0,"el":40.0,"ss":47.0,"used":true,"health":1},{"PRN":37,"gnssid":1,"svid":124,"az":0.0,"el":-9.0,"ss":0.0,"used":false,"health":1},{"PRN":16,"gnssid":0,"svid":16,"az":296.0,"el":10.0,"ss":29.0,"used":false,"health":1},{"PRN":25,"gnssid":0,"svid":25,"az":124.0,"el":31.0,"ss":42.0,"used":true,"health":1},{"PRN":28,"gnssid":0,"svid":28,"az":217.0,"el":41.0,"ss":47.0,"used":true,"health":1},{"PRN":20,"gnssid":0,"svid":20,"az":54.0,"el":21.0,"ss":40.0,"used":true,"health":1},{"PRN":11,"gnssid":0,"svid":11,"az":36.0,"el":7.0,"ss":29.0,"used":false,"health":1},{"PRN":31,"gnssid":0,"svid":31,"az":262.0,"el":50.0,"ss":46.0,"used":true,"health":1},{"PRN":12,"gnssid":0,"svid":12,"az":118.0,"el":4.0,"ss":28.0,"used":false,"health":1},{"PRN":4,"gnssid":0,"svid":4,"az":319.0,"el":10.0,"ss":34.0,"used":true,"health":1}]}
{"class":"TPV","device":"/dev/ttyACM0","mode":3,"time":"2024-06-05T06:49:08.501Z","leapseconds":18,"ept":0.005,"lat":52.315584120,"lon":10.561721822,"altHAE":148.2609,"altMSL":104.3618,"alt":104.3618,"epx":8.920,"epy":10.061,"epv":39.330,"track":77.8330,"magtrack":81.0524,"magvar":3.2,"speed":0.006,"climb":0.037,"eps":0.22,"epc":312.14,"ecefx":3841122.85,"ecefy":716190.88,"ecefz":5024463.41,"ecefvx":0.02,"ecefvy":0.01,"ecefvz":0.03,"ecefpAcc":5.73,"ecefvAcc":0.22,"velN":0.001,"velE":0.006,"velD":-0.037,"geoidSep":43.899,"eph":18.240,"sep":37.240}
{"class":"SKY","device":"/dev/ttyACM0","time":"2024-06-05T06:49:08.249Z","gdop":2.22,"hdop":0.96,"pdop":1.96,"tdop":1.04,"xdop":0.59,"ydop":0.67,"vdop":1.71,"uSat":10}
{"class":"SKY","device":"/dev/ttyACM0","time":"2024-06-05T06:49:08.249Z","gdop":2.22,"hdop":0.96,"pdop":1.96,"tdop":1.04,"xdop":0.59,"ydop":0.67,"vdop":1.71,"uSat":10}
{"class":"TPV","device":"/dev/ttyACM0","mode":3,"time":"2024-06-05T06:49:08.501Z","leapseconds":18,"ept":0.005,"lat":52.315584120,"lon":10.561721822,"altHAE":148.2609,"altMSL":104.3618,"alt":104.3618,"epx":8.920,"epy":10.061,"epv":39.330,"track":77.8330,"magtrack":81.0524,"magvar":3.2,"speed":0.006,"climb":0.037,"eps":79.85,"epc":312.14,"ecefx":3841122.85,"ecefy":716190.88,"ecefz":5024463.41,"ecefvx":0.02,"ecefvy":0.01,"ecefvz":0.03,"ecefpAcc":5.73,"ecefvAcc":0.22,"velN":0.001,"velE":0.006,"velD":-0.037,"geoidSep":43.899,"eph":18.240,"sep":37.240}
{"class":"SKY","device":"/dev/ttyACM0","time":"2024-06-05T06:49:08.501Z","gdop":2.22,"hdop":0.96,"pdop":1.96,"tdop":1.04,"xdop":0.59,"ydop":0.67,"vdop":1.71,"nSat":14,"uSat":9,"satellites":[{"PRN":26,"gnssid":0,"svid":26,"az":293.0,"el":48.0,"ss":39.0,"used":true,"health":1},{"PRN":5,"gnssid":0,"svid":5,"az":84.0,"el":20.0,"ss":45.0,"used":true,"health":1},{"PRN":29,"gnssid":0,"svid":29,"az":67.0,"el":69.0,"ss":47.0,"used":true,"health":1},{"PRN":9,"gnssid":0,"svid":9,"az":354.0,"el":3.0,"ss":27.0,"used":false,"health":1},{"PRN":18,"gnssid":0,"svid":18,"az":176.0,"el":40.0,"ss":47.0,"used":true,"health":1},{"PRN":37,"gnssid":1,"svid":124,"az":0.0,"el":-9.0,"ss":0.0,"used":false,"health":1},{"PRN":16,"gnssid":0,"svid":16,"az":296.0,"el":10.0,"ss":29.0,"used":false,"health":1},{"PRN":25,"gnssid":0,"svid":25,"az":124.0,"el":31.0,"ss":42.0,"used":true,"health":1},{"PRN":28,"gnssid":0,"svid":28,"az":217.0,"el":41.0,"ss":48.0,"used":true,"health":1},{"PRN":20,"gnssid":0,"svid":20,"az":54.0,"el":21.0,"ss":40.0,"used":true,"health":1},{"PRN":11,"gnssid":0,"svid":11,"az":36.0,"el":7.0,"ss":29.0,"used":false,"health":1},{"PRN":31,"gnssid":0,"svid":31,"az":262.0,"el":50.0,"ss":46.0,"used":true,"health":1},{"PRN":12,"gnssid":0,"svid":12,"az":118.0,"el":4.0,"ss":28.0,"used":false,"health":1},{"PRN":4,"gnssid":0,"svid":4,"az":319.0,"el":10.0,"ss":34.0,"used":true,"health":1}]}
{"class":"TPV","device":"/dev/ttyACM0","mode":3,"time":"2024-06-05T06:49:08.749Z","leapseconds":18,"ept":0.005,"lat":52.315584260,"lon":10.561721876,"altHAE":148.2489,"altMSL":104.3498,"alt":104.3498,"epx":8.920,"epy":10.061,"epv":39.330,"track":77.8330,"magtrack":81.0524,"magvar":3.2,"speed":0.006,"climb":0.037,"eps":0.22,"epc":317.18,"ecefx":3841122.83,"ecefy":716190.88,"ecefz":5024463.41,"ecefvx":0.02,"ecefvy":0.01,"ecefvz":0.03,"ecefpAcc":5.73,"ecefvAcc":0.22,"velN":0.001,"velE":0.006,"velD":-0.037,"geoidSep":43.899,"eph":18.240,"sep":37.240}
{"class":"SKY","device":"/dev/ttyACM0","time":"2024-06-05T06:49:08.501Z","gdop":2.22,"hdop":0.96,"pdop":1.96,"tdop":1.04,"xdop":0.59,"ydop":0.67,"vdop":1.71,"uSat":10}
{"class":"SKY","device":"/dev/ttyACM0","time":"2024-06-05T06:49:08.501Z","gdop":2.22,"hdop":0.96,"pdop":1.96,"tdop":1.04,"xdop":0.59,"ydop":0.67,"vdop":1.71,"uSat":10}
{"class":"TPV","device":"/dev/ttyACM0","mode":3,"time":"2024-06-05T06:49:08.749Z","leapseconds":18,"ept":0.005,"lat":52.315584260,"lon":10.561721876,"altHAE":148.2489,"altMSL":104.3498,"alt":104.3498,"epx":8.920,"epy":10.061,"epv":39.330,"track":77.8330,"magtrack":81.0524,"magvar":3.2,"speed":0.006,"climb":0.037,"eps":81.14,"epc":317.18,"ecefx":3841122.83,"ecefy":716190.88,"ecefz":5024463.41,"ecefvx":0.02,"ecefvy":0.01,"ecefvz":0.03,"ecefpAcc":5.73,"ecefvAcc":0.22,"velN":0.001,"velE":0.006,"velD":-0.037,"geoidSep":43.899,"eph":18.240,"sep":37.240}
{"class":"SKY","device":"/dev/ttyACM0","time":"2024-06-05T06:49:08.749Z","gdop":2.22,"hdop":0.96,"pdop":1.96,"tdop":1.04,"xdop":0.59,"ydop":0.67,"vdop":1.71,"nSat":14,"uSat":9,"satellites":[{"PRN":26,"gnssid":0,"svid":26,"az":293.0,"el":48.0,"ss":39.0,"used":true,"health":1},{"PRN":5,"gnssid":0,"svid":5,"az":84.0,"el":20.0,"ss":45.0,"used":true,"health":1},{"PRN":29,"gnssid":0,"svid":29,"az":67.0,"el":69.0,"ss":47.0,"used":true,"health":1},{"PRN":9,"gnssid":0,"svid":9,"az":354.0,"el":3.0,"ss":27.0,"used":false,"health":1},{"PRN":18,"gnssid":0,"svid":18,"az":176.0,"el":40.0,"ss":47.0,"used":true,"health":1},{"PRN":37,"gnssid":1,"svid":124,"az":0.0,"el":-9.0,"ss":0.0,"used":false,"health":1},{"PRN":16,"gnssid":0,"svid":16,"az":296.0,"el":10.0,"ss":28.0,"used":false,"health":1},{"PRN":25,"gnssid":0,"svid":25,"az":124.0,"el":31.0,"ss":42.0,"used":true,"health":1},{"PRN":28,"gnssid":0,"svid":28,"az":217.0,"el":41.0,"ss":48.0,"used":true,"health":1},{"PRN":20,"gnssid":0,"svid":20,"az":54.0,"el":21.0,"ss":40.0,"used":true,"health":1},{"PRN":11,"gnssid":0,"svid":11,"az":36.0,"el":7.0,"ss":29.0,"used":false,"health":1},{"PRN":31,"gnssid":0,"svid":31,"az":262.0,"el":50.0,"ss":46.0,"used":true,"health":1},{"PRN":12,"gnssid":0,"svid":12,"az":118.0,"el":4.0,"ss":28.0,"used":false,"health":1},{"PRN":4,"gnssid":0,"svid":4,"az":319.0,"el":10.0,"ss":34.0,"used":true,"health":1}]}
{"class":"TPV","device":"/dev/ttyACM0","mode":3,"time":"2024-06-05T06:49:09.001Z","leapseconds":18,"ept":0.005,"lat":52.315584415,"lon":10.561721957,"altHAE":148.2229,"altMSL":104.3239,"alt":104.3239,"epx":8.920,"epy":10.061,"epv":39.330,"track":77.8330,"magtrack":81.0524,"magvar":3.2,"speed":0.006,"climb":0.037,"eps":0.22,"epc":312.14,"ecefx":3841122.80,"ecefy":716190.88,"ecefz":5024463.40,"ecefvx":0.02,"ecefvy":0.01,"ecefvz":0.03,"ecefpAcc":5.72,"ecefvAcc":0.22,"velN":0.001,"velE":0.006,"velD":-0.037,"geoidSep":43.899,"eph":18.240,"sep":37.240}
{"class":"SKY","device":"/dev/ttyACM0","time":"2024-06-05T06:49:08.749Z","gdop":2.22,"hdop":0.96,"pdop":1.96,"tdop":1.04,"xdop":0.59,"ydop":0.67,"vdop":1.71,"uSat":10}
{"class":"SKY","device":"/dev/ttyACM0","time":"2024-06-05T06:49:08.749Z","gdop":2.22,"hdop":0.96,"pdop":1.96,"tdop":1.04,"xdop":0.59,"ydop":0.67,"vdop":1.71,"uSat":10}
{"class":"TPV","device":"/dev/ttyACM0","mode":3,"time":"2024-06-05T06:49:09.001Z","leapseconds":18,"ept":0.005,"lat":52.315584415,"lon":10.561721957,"altHAE":148.2229,"altMSL":104.3239,"alt":104.3239,"epx":8.920,"epy":10.061,"epv":39.330,"track":77.8330,"magtrack":81.0524,"magvar":3.2,"speed":0.006,"climb":0.037,"eps":79.85,"epc":312.14,"ecefx":3841122.80,"ecefy":716190.88,"ecefz":5024463.40,"ecefvx":0.02,"ecefvy":0.01,"ecefvz":0.03,"ecefpAcc":5.72,"ecefvAcc":0.22,"velN":0.001,"velE":0.006,"velD":-0.037,"geoidSep":43.899,"eph":18.240,"sep":37.240}
{"class":"SKY","device":"/dev/ttyACM0","time":"2024-06-05T06:49:09.001Z","gdop":2.22,"hdop":0.96,"pdop":1.96,"tdop":1.04,"xdop":0.59,"ydop":0.67,"vdop":1.71,"nSat":14,"uSat":9,"satellites":[{"PRN":26,"gnssid":0,"svid":26,"az":293.0,"el":48.0,"ss":40.0,"used":true,"health":1},{"PRN":5,"gnssid":0,"svid":5,"az":84.0,"el":20.0,"ss":45.0,"used":true,"health":1},{"PRN":29,"gnssid":0,"svid":29,"az":67.0,"el":69.0,"ss":47.0,"used":true,"health":1},{"PRN":9,"gnssid":0,"svid":9,"az":354.0,"el":3.0,"ss":27.0,"used":false,"health":1},{"PRN":18,"gnssid":0,"svid":18,"az":176.0,"el":40.0,"ss":47.0,"used":true,"health":1},{"PRN":37,"gnssid":1,"svid":124,"az":0.0,"el":-9.0,"ss":0.0,"used":false,"health":1},{"PRN":16,"gnssid":0,"svid":16,"az":296.0,"el":10.0,"ss":28.0,"used":false,"health":1},{"PRN":25,"gnssid":0,"svid":25,"az":124.0,"el":31.0,"ss":42.0,"used":true,"health":1},{"PRN":28,"gnssid":0,"svid":28,"az":217.0,"el":41.0,"ss":48.0,"used":true,"health":1},{"PRN":20,"gnssid":0,"svid":20,"az":54.0,"el":21.0,"ss":40.0,"used":true,"health":1},{"PRN":11,"gnssid":0,"svid":11,"az":36.0,"el":7.0,"ss":29.0,"used":false,"health":1},{"PRN":31,"gnssid":0,"svid":31,"az":262.0,"el":50.0,"ss":46.0,"used":true,"health":1},{"PRN":12,"gnssid":0,"svid":12,"az":118.0,"el":4.0,"ss":28.0,"used":false,"health":1},{"PRN":4,"gnssid":0,"svid":4,"az":319.0,"el":10.0,"ss":34.0,"used":true,"health":1}]}
{"class":"TPV","device":"/dev/ttyACM0","mode":3,"time":"2024-06-05T06:49:09.249Z","leapseconds":18,"ept":0.005,"lat":52.315584596,"lon":10.561722155,"altHAE":148.2199,"altMSL":104.3209,"alt":104.3209,"epx":8.920,"epy":10.061,"epv":39.330,"track":307.1717,"magtrack":310.3911,"magvar":3.2,"speed":0.005,"climb":0.036,"eps":0.22,"epc":317.18,"ecefx":3841122.78,"ecefy":716190.89,"ecefz":5024463.41,"ecefvx":0.02,"ecefvy":0.00,"ecefvz":0.03,"ecefpAcc":5.72,"ecefvAcc":0.22,"velN":0.003,"velE":-0.004,"velD":-0.036,"geoidSep":43.899,"eph":18.240,"sep":37.240}
{"class":"SKY","device":"/dev/ttyACM0","time":"2024-06-05T06:49:09.001Z","gdop":2.22,"hdop":0.96,"pdop":1.96,"tdop":1.04,"xdop":0.59,"ydop":0.67,"vdop":1.71,"uSat":10}
{"class":"SKY","device":"/dev/ttyACM0","time":"2024-06-05T06:49:09.001Z","gdop":2.22,"hdop":0.96,"pdop":1.96,"tdop":1.04,"xdop":0.59,"ydop":0.67,"vdop":1.71,"uSat":10}
{"class":"TPV","device":"/dev/ttyACM0","mode":3,"time":"2024-06-05T06:49:09.249Z","leapseconds":18,"ept":0.005,"lat":52.315584596,"lon":10.561722155,"altHAE":148.2199,"altMSL":104.3209,"alt":104.3209,"epx":8.920,"epy":10.061,"epv":39.330,"track":307.1717,"magtrack":310.3911,"magvar":3.2,"speed":0.005,"climb":0.036,"eps":81.14,"epc":317.18,"ecefx":3841122.78,"ecefy":716190.89,"ecefz":5024463.41,"ecefvx":0.02,"ecefvy":0.00,"ecefvz":0.03,"ecefpAcc":5.72,"ecefvAcc":0.22,"velN":0.003,"velE":-0.004,"velD":-0.036,"geoidSep":43.899,"eph":18.240,"sep":37.240}
{"class":"SKY","device":"/dev/ttyACM0","time":"2024-06-05T06:49:09.249Z","gdop":2.22,"hdop":0.96,"pdop":1.96,"tdop":1.04,"xdop":0.59,"ydop":0.67,"vdop":1.71,"nSat":14,"uSat":9,"satellites":[{"PRN":26,"gnssid":0,"svid":26,"az":293.0,"el":48.0,"ss":39.0,"used":true,"health":1},{"PRN":5,"gnssid":0,"svid":5,"az":84.0,"el":20.0,"ss":45.0,"used":true,"health":1},{"PRN":29,"gnssid":0,"svid":29,"az":67.0,"el":69.0,"ss":47.0,"used":true,"health":1},{"PRN":9,"gnssid":0,"svid":9,"az":354.0,"el":3.0,"ss":27.0,"used":false,"health":1},{"PRN":18,"gnssid":0,"svid":18,"az":176.0,"el":40.0,"ss":47.0,"used":true,"health":1},{"PRN":37,"gnssid":1,"svid":124,"az":0.0,"el":-9.0,"ss":0.0,"used":false,"health":1},{"PRN":16,"gnssid":0,"svid":16,"az":296.0,"el":10.0,"ss":28.0,"used":false,"health":1},{"PRN":25,"gnssid":0,"svid":25,"az":124.0,"el":31.0,"ss":42.0,"used":true,"health":1},{"PRN":28,"gnssid":0,"svid":28,"az":217.0,"el":41.0,"ss":47.0,"used":true,"health":1},{"PRN":20,"gnssid":0,"svid":20,"az":54.0,"el":21.0,"ss":40.0,"used":true,"health":1},{"PRN":11,"gnssid":0,"svid":11,"az":36.0,"el":7.0,"ss":29.0,"used":false,"health":1},{"PRN":31,"gnssid":0,"svid":31,"az":262.0,"el":50.0,"ss":46.0,"used":true,"health":1},{"PRN":12,"gnssid":0,"svid":12,"az":118.0,"el":4.0,"ss":29.0,"used":false,"health":1},{"PRN":4,"gnssid":0,"svid":4,"az":319.0,"el":10.0,"ss":34.0,"used":true,"health":1}]}
{"class":"TPV","device":"/dev/ttyACM0","mode":3,"time":"2024-06-05T06:49:09.501Z","leapseconds":18,"ept":0.005,"lat":52.315584723,"lon":10.561722353,"altHAE":148.2090,"altMSL":104.3100,"alt":104.3100,"epx":8.920,"epy":10.061,"epv":39.330,"track":77.8330,"magtrack":81.0524,"magvar":3.2,"speed":0.006,"climb":0.037,"eps":0.22,"epc":312.14,"ecefx":3841122.76,"ecefy":716190.90,"ecefz":5024463.41,"ecefvx":0.02,"ecefvy":0.01,"ecefvz":0.03,"ecefpAcc":5.72,"ecefvAcc":0.22,"velN":0.001,"velE":0.006,"velD":-0.037,"geoidSep":43.899,"eph":18.240,"sep":37.240}
{"class":"SKY","device":"/dev/ttyACM0","time":"2024-06-05T06:49:09.249Z","gdop":2.22,"hdop":0.96,"pdop":1.96,"tdop":1.04,"xdop":0.59,"ydop":0.67,"vdop":1.71,"uSat":10}
{"class":"SKY","device":"/dev/ttyACM0","time":"2024-06-05T06:49:09.249Z","gdop":2.22,"hdop":0.96,"pdop":1.96,"tdop":1.04,"xdop":0.59,"ydop":0.67,"vdop":1.71,"uSat":10}
{"class":"TPV","device":"/dev/ttyACM0","mode":3,"time":"2024-06-05T06:49:09.501Z","leapseconds":18,"ept":0.005,"lat":52.315584723,"lon":10.561722353,"altHAE":148.2090,"altMSL":104.3100,"alt":104.3100,"epx":8.920,"epy":10.061,"epv":39.330,"track":77.8330,"magtrack":81.0524,"magvar":3.2,"speed":0.006,"climb":0.037,"eps":79.85,"epc":312.14,"ecefx":3841122.76,"ecefy":716190.90,"ecefz":5024463.41,"ecefvx":0.02,"ecefvy":0.01,"ecefvz":0.03,"ecefpAcc":5.72,"ecefvAcc":0.22,"velN":0.001,"velE":0.006,"velD":-0.037,"geoidSep":43.899,"eph":18.240,"sep":37.240}
{"class":"SKY","device":"/dev/ttyACM0","time":"2024-06-05T06:49:09.501Z","gdop":2.22,"hdop":0.96,"pdop":1.96,"tdop":1.04,"xdop":0.59,"ydop":0.67,"vdop":1.71,"nSat":14,"uSat":9,"satellites":[{"PRN":26,"gnssid":0,"svid":26,"az":293.0,"el":48.0,"ss":39.0,"used":true,"health":1},{"PRN":5,"gnssid":0,"svid":5,"az":84.0,"el":20.0,"ss":45.0,"used":true,"health":1},{"PRN":29,"gnssid":0,"svid":29,"az":67.0,"el":69.0,"ss":47.0,"used":true,"health":1},{"PRN":9,"gnssid":0,"svid":9,"az":354.0,"el":3.0,"ss":27.0,"used":false,"health":1},{"PRN":18,"gnssid":0,"svid":18,"az":176.0,"el":40.0,"ss":47.0,"used":true,"health":1},{"PRN":37,"gnssid":1,"svid":124,"az":0.0,"el":-9.0,"ss":0.0,"used":false,"health":1},{"PRN":16,"gnssid":0,"svid":16,"az":296.0,"el":10.0,"ss":28.0,"used":false,"health":1},{"PRN":25,"gnssid":0,"svid":25,"az":124.0,"el":31.0,"ss":42.0,"used":true,"health":1},{"PRN":28,"gnssid":0,"svid":28,"az":217.0,"el":41.0,"ss":48.0,"used":true,"health":1},{"PRN":20,"gnssid":0,"svid":20,"az":54.0,"el":21.0,"ss":40.0,"used":true,"health":1},{"PRN":11,"gnssid":0,"svid":11,"az":36.0,"el":7.0,"ss":29.0,"used":false,"health":1},{"PRN":31,"gnssid":0,"svid":31,"az":262.0,"el":50.0,"ss":46.0,"used":true,"health":1},{"PRN":12,"gnssid":0,"svid":12,"az":118.0,"el":4.0,"ss":29.0,"used":false,"health":1},{"PRN":4,"gnssid":0,"svid":4,"az":319.0,"el":10.0,"ss":34.0,"used":true,"health":1}]}
{"class":"TPV","device":"/dev/ttyACM0","mode":3,"time":"2024-06-05T06:49:09.749Z","leapseconds":18,"ept":0.005,"lat":52.315584918,"lon":10.561722406,"altHAE":148.2049,"altMSL":104.3059,"alt":104.3059,"epx":8.920,"epy":10.061,"epv":39.330,"track":307.1717,"magtrack":310.3911,"magvar":3.2,"speed":0.005,"climb":0.036,"eps":0.22,"epc":317.18,"ecefx":3841122.74,"ecefy":716190.90,"ecefz":5024463.42,"ecefvx":0.02,"ecefvy":0.00,"ecefvz":0.03,"ecefpAcc":5.72,"ecefvAcc":0.22,"velN":0.003,"velE":-0.004,"velD":-0.036,"geoidSep":43.899,"eph":18.240,"sep":37.240}
{"class":"SKY","device":"/dev/ttyACM0","time":"2024-06-05T06:49:09.501Z","gdop":2.22,"hdop":0.96,"pdop":1.96,"tdop":1.04,"xdop":0.59,"ydop":0.67,"vdop":1.71,"uSat":10}
{"class":"SKY","device":"/dev/ttyACM0","time":"2024-06-05T06:49:09.501Z","gdop":2.22,"hdop":0.96,"pdop":1.96,"tdop":1.04,"xdop":0.59,"ydop":0.67,"vdop":1.71,"uSat":10}
{"class":"TPV","device":"/dev/ttyACM0","mode":3,"time":"2024-06-05T06:49:09.749Z","leapseconds":18,"ept":0.005,"lat":52.315584918,"lon":10.561722406,"altHAE":148.2049,"altMSL":104.3059,"alt":104.3059,"epx":8.920,"epy":10.061,"epv":39.330,"track":307.1717,"magtrack":310.3911,"magvar":3.2,"speed":0.005,"climb":0.036,"eps":81.14,"epc":317.18,"ecefx":3841122.74,"ecefy":716190.90,"ecefz":5024463.42,"ecefvx":0.02,"ecefvy":0.00,"ecefvz":0.03,"ecefpAcc":5.72,"ecefvAcc":0.22,"velN":0.003,"velE":-0.004,"velD":-0.036,"geoidSep":43.899,"eph":18.240,"sep":37.240}
{"class":"SKY","device":"/dev/ttyACM0","time":"2024-06-05T06:49:09.749Z","gdop":2.22,"hdop":0.96,"pdop":1.96,"tdop":1.04,"xdop":0.59,"ydop":0.67,"vdop":1.71,"nSat":14,"uSat":9,"satellites":[{"PRN":26,"gnssid":0,"svid":26,"az":293.0,"el":48.0,"ss":39.0,"used":true,"health":1},{"PRN":5,"gnssid":0,"svid":5,"az":84.0,"el":20.0,"ss":45.0,"used":true,"health":1},{"PRN":29,"gnssid":0,"svid":29,"az":67.0,"el":69.0,"ss":47.0,"used":true,"health":1},{"PRN":9,"gnssid":0,"svid":9,"az":354.0,"el":3.0,"ss":27.0,"used":false,"health":1},{"PRN":18,"gnssid":0,"svid":18,"az":176.0,"el":40.0,"ss":47.0,"used":true,"health":1},{"PRN":37,"gnssid":1,"svid":124,"az":0.0,"el":-9.0,"ss":0.0,"used":false,"health":1},{"PRN":16,"gnssid":0,"svid":16,"az":296.0,"el":10.0,"ss":28.0,"used":false,"health":1},{"PRN":25,"gnssid":0,"svid":25,"az":124.0,"el":31.0,"ss":42.0,"used":true,"health":1},{"PRN":28,"gnssid":0,"svid":28,"az":217.0,"el":41.0,"ss":47.0,"used":true,"health":1},{"PRN":20,"gnssid":0,"svid":20,"az":54.0,"el":21.0,"ss":40.0,"used":true,"health":1},{"PRN":11,"gnssid":0,"svid":11,"az":36.0,"el":7.0,"ss":29.0,"used":false,"health":1},{"PRN":31,"gnssid":0,"svid":31,"az":262.0,"el":50.0,"ss":46.0,"used":true,"health":1},{"PRN":12,"gnssid":0,"svid":12,"az":118.0,"el":4.0,"ss":29.0,"used":false,"health":1},{"PRN":4,"gnssid":0,"svid":4,"az":319.0,"el":10.0,"ss":33.0,"used":true,"health":1}]}
{"class":"TPV","device":"/dev/ttyACM0","mode":3,"time":"2024-06-05T06:49:10.001Z","leapseconds":18,"ept":0.005,"lat":52.315585045,"lon":10.561722604,"altHAE":148.1940,"altMSL":104.2950,"alt":104.2950,"epx":8.920,"epy":10.061,"epv":39.330,"track":41.2830,"magtrack":44.5025,"magvar":3.2,"speed":0.012,"climb":0.031,"eps":0.22,"epc":312.14,"ecefx":3841122.72,"ecefy":716190.91,"ecefz":5024463.42,"ecefvx":0.01,"ecefvy":0.01,"ecefvz":0.03,"ecefpAcc":5.71,"ecefvAcc":0.22,"velN":0.009,"velE":0.008,"velD":-0.031,"geoidSep":43.899,"eph":18.240,"sep":37.240}
{"class":"SKY","device":"/dev/ttyACM0","time":"2024-06-05T06:49:09.749Z","gdop":2.22,"hdop":0.96,"pdop":1.96,"tdop":1.04,"xdop":0.59,"ydop":0.67,"vdop":1.71,"uSat":10}
{"class":"SKY","device":"/dev/ttyACM0","time":"2024-06-05T06:49:09.749Z","gdop":2.22,"hdop":0.96,"pdop":1.96,"tdop":1.04,"xdop":0.59,"ydop":0.67,"vdop":1.71,"uSat":10}
{"class":"TPV","device":"/dev/ttyACM0","mode":3,"time":"2024-06-05T06:49:10.001Z","leapseconds":18,"ept":0.005,"lat":52.315585045,"lon":10.561722604,"altHAE":148.1940,"altMSL":104.2950,"alt":104.2950,"epx":8.920,"epy":10.061,"epv":39.330,"track":41.2830,"magtrack":44.5025,"magvar":3.2,"speed":0.012,"climb":0.031,"eps":79.85,"epc":312.14,"ecefx":3841122.72,"ecefy":716190.91,"ecefz":5024463.42,"ecefvx":0.01,"ecefvy":0.01,"ecefvz":0.03,"ecefpAcc":5.71,"ecefvAcc":0.22,"velN":0.009,"velE":0.008,"velD":-0.031,"geoidSep":43.899,"eph":18.240,"sep":37.240}
{"class":"SKY","device":"/dev/ttyACM0","time":"2024-06-05T06:49:10.001Z","gdop":2.22,"hdop":0.96,"pdop":1.96,"tdop":1.04,"xdop":0.59,"ydop":0.67,"vdop":1.71,"nSat":14,"uSat":9,"satellites":[{"PRN":26,"gnssid":0,"svid":26,"az":293.0,"el":48.0,"ss":40.0,"used":true,"health":1},{"PRN":5,"gnssid":0,"svid":5,"az":84.0,"el":20.0,"ss":45.0,"used":true,"health":1},{"PRN":29,"gnssid":0,"svid":29,"az":67.0,"el":69.0,"ss":47.0,"used":true,"health":1},{"PRN":9,"gnssid":0,"svid":9,"az":354.0,"el":3.0,"ss":28.0,"used":false,"health":1},{"PRN":18,"gnssid":0,"svid":18,"az":176.0,"el":40.0,"ss":47.0,"used":true,"health":1},{"PRN":37,"gnssid":1,"svid":124,"az":0.0,"el":-9.0,"ss":0.0,"used":false,"health":1},{"PRN":16,"gnssid":0,"svid":16,"az":296.0,"el":10.0,"ss":28.0,"used":false,"health":1},{"PRN":25,"gnssid":0,"svid":25,"az":124.0,"el":31.0,"ss":42.0,"used":true,"health":1},{"PRN":28,"gnssid":0,"svid":28,"az":217.0,"el":41.0,"ss":47.0,"used":true,"health":1},{"PRN":20,"gnssid":0,"svid":20,"az":54.0,"el":21.0,"ss":40.0,"used":true,"health":1},{"PRN":11,"gnssid":0,"svid":11,"az":36.0,"el":7.0,"ss":29.0,"used":false,"health":1},{"PRN":31,"gnssid":0,"svid":31,"az":262.0,"el":50.0,"ss":46.0,"used":true,"health":1},{"PRN":12,"gnssid":0,"svid":12,"az":118.0,"el":4.0,"ss":28.0,"used":false,"health":1},{"PRN":4,"gnssid":0,"svid":4,"az":319.0,"el":10.0,"ss":33.0,"used":true,"health":1}]}
{"class":"TPV","device":"/dev/ttyACM0","mode":3,"time":"2024-06-05T06:49:10.249Z","leapseconds":18,"ept":0.005,"lat":52.315585185,"lon":10.561722658,"altHAE":148.1820,"altMSL":104.2830,"alt":104.2830,"epx":8.920,"epy":10.061,"epv":39.330,"track":350.1526,"magtrack":353.3720,"magvar":3.2,"speed":0.011,"climb":0.030,"eps":0.22,"epc":317.18,"ecefx":3841122.70,"ecefy":716190.91,"ecefz":5024463.42,"ecefvx":0.01,"ecefvy":0.00,"ecefvz":0.03,"ecefpAcc":5.71,"ecefvAcc":0.22,"velN":0.011,"velE":-0.002,"velD":-0.030,"geoidSep":43.899,"eph":18.240,"sep":37.240}
{"class":"SKY","device":"/dev/ttyACM0","time":"2024-06-05T06:49:10.001Z","gdop":2.22,"hdop":0.96,"pdop":1.96,"tdop":1.04,"xdop":0.59,"ydop":0.67,"vdop":1.71,"uSat":10}
{"class":"SKY","device":"/dev/ttyACM0","time":"2024-06-05T06:49:10.001Z","gdop":2.22,"hdop":0.96,"pdop":1.96,"tdop":1.04,"xdop":0.59,"ydop":0.67,"vdop":1.71,"uSat":10}
{"class":"TPV","device":"/dev/ttyACM0","mode":3,"time":"2024-06-05T06:49:10.249Z","leapseconds":18,"ept":0.005,"lat":52.315585185,"lon":10.561722658,"altHAE":148.1820,"altMSL":104.2830,"alt":104.2830,"epx":8.920,"epy":10.061,"epv":39.330,"track":350.1526,"magtrack":353.3720,"magvar":3.2,"speed":0.011,"climb":0.030,"eps":81.14,"epc":317.18,"ecefx":3841122.70,"ecefy":716190.91,"ecefz":5024463.42,"ecefvx":0.01,"ecefvy":0.00,"ecefvz":0.03,"ecefpAcc":5.71,"ecefvAcc":0.22,"velN":0.011,"velE":-0.002,"velD":-0.030,"geoidSep":43.899,"eph":18.240,"sep":37.240}
{"class":"SKY","device":"/dev/ttyACM0","time":"2024-06-05T06:49:10.249Z","gdop":2.22,"hdop":0.96,"pdop":1.96,"tdop":1.04,"xdop":0.59,"ydop":0.67,"vdop":1.71,"nSat":14,"uSat":9,"satellites":[{"PRN":26,"gnssid":0,"svid":26,"az":293.0,"el":48.0,"ss":39.0,"used":true,"health":1},{"PRN":5,"gnssid":0,"svid":5,"az":84.0,"el":20.0,"ss":45.0,"used":true,"health":1},{"PRN":29,"gnssid":0,"svid":29,"az":67.0,"el":69.0,"ss":47.0,"used":true,"health":1},{"PRN":9,"gnssid":0,"svid":9,"az":354.0,"el":3.0,"ss":27.0,"used":false,"health":1},{"PRN":18,"gnssid":0,"svid":18,"az":176.0,"el":40.0,"ss":47.0,"used":true,"health":1},{"PRN":37,"gnssid":1,"svid":124,"az":0.0,"el":-9.0,"ss":0.0,"used":false,"health":1},{"PRN":16,"gnssid":0,"svid":16,"az":296.0,"el":10.0,"ss":28.0,"used":false,"health":1},{"PRN":25,"gnssid":0,"svid":25,"az":124.0,"el":31.0,"ss":42.0,"used":true,"health":1},{"PRN":28,"gnssid":0,"svid":28,"az":217.0,"el":41.0,"ss":47.0,"used":true,"health":1},{"PRN":20,"gnssid":0,"svid":20,"az":54.0,"el":21.0,"ss":40.0,"used":true,"health":1},{"PRN":11,"gnssid":0,"svid":11,"az":36.0,"el":7.0,"ss":30.0,"used":false,"health":1},{"PRN":31,"gnssid":0,"svid":31,"az":262.0,"el":50.0,"ss":46.0,"used":true,"health":1},{"PRN":12,"gnssid":0,"svid":12,"az":118.0,"el":4.0,"ss":29.0,"used":false,"health":1},{"PRN":4,"gnssid":0,"svid":4,"az":319.0,"el":10.0,"ss":33.0,"used":true,"health":1}]}
{"class":"TPV","device":"/dev/ttyACM0","mode":3,"time":"2024-06-05T06:49:10.501Z","leapseconds":18,"ept":0.005,"lat":52.315585257,"lon":10.561722856,"altHAE":148.1632,"altMSL":104.2642,"alt":104.2642,"epx":8.920,"epy":10.061,"epv":39.330,"track":127.8125,"magtrack":131.0320,"magvar":3.2,"speed":0.008,"climb":0.029,"eps":0.22,"epc":312.14,"ecefx":3841122.68,"ecefy":716190.92,"ecefz":5024463.41,"ecefvx":0.02,"ecefvy":0.01,"ecefvz":0.02,"ecefpAcc":5.71,"ecefvAcc":0.22,"velN":-0.005,"velE":0.006,"velD":-0.029,"geoidSep":43.899,"eph":18.240,"sep":37.240}
{"class":"SKY","device":"/dev/ttyACM0","time":"2024-06-05T06:49:10.249Z","gdop":2.22,"hdop":0.96,"pdop":1.96,"tdop":1.04,"xdop":0.59,"ydop":0.67,"vdop":1.71,"uSat":10}
{"class":"SKY","device":"/dev/ttyACM0","time":"2024-06-05T06:49:10.249Z","gdop":2.22,"hdop":0.96,"pdop":1.96,"tdop":1.04,"xdop":0.59,"ydop":0.67,"vdop":1.71,"uSat":10}
{"class":"TPV","device":"/dev/ttyACM0","mode":3,"time":"2024-06-05T06:49:10.501Z","leapseconds":18,"ept":0.005,"lat":52.315585257,"lon":10.561722856,"altHAE":148.1632,"altMSL":104.2642,"alt":104.2642,"epx":8.920,"epy":10.061,"epv":39.330,"track":127.8125,"magtrack":131.0320,"magvar":3.2,"speed":0.008,"climb":0.029,"eps":79.85,"epc":312.14,"ecefx":3841122.68,"ecefy":716190.92,"ecefz":5024463.41,"ecefvx":0.02,"ecefvy":0.01,"ecefvz":0.02,"ecefpAcc":5.71,"ecefvAcc":0.22,"velN":-0.005,"velE":0.006,"velD":-0.029,"geoidSep":43.899,"eph":18.240,"sep":37.240}
{"class":"SKY","device":"/dev/ttyACM0","time":"2024-06-05T06:49:10.501Z","gdop":2.22,"hdop":0.96,"pdop":1.96,"tdop":1.04,"xdop":0.59,"ydop":0.67,"vdop":1.71,"nSat":14,"uSat":9,"satellites":[{"PRN":26,"gnssid":0,"svid":26,"az":293.0,"el":48.0,"ss":40.0,"used":true,"health":1},{"PRN":5,"gnssid":0,"svid":5,"az":84.0,"el":20.0,"ss":45.0,"used":true,"health":1},{"PRN":29,"gnssid":0,"svid":29,"az":67.0,"el":69.0,"ss":47.0,"used":true,"health":1},{"PRN":9,"gnssid":0,"svid":9,"az":354.0,"el":3.0,"ss":27.0,"used":false,"health":1},{"PRN":18,"gnssid":0,"svid":18,"az":176.0,"el":40.0,"ss":47.0,"used":true,"health":1},{"PRN":37,"gnssid":1,"svid":124,"az":0.0,"el":-9.0,"ss":0.0,"used":false,"health":1},{"PRN":16,"gnssid":0,"svid":16,"az":296.0,"el":10.0,"ss":27.0,"used":false,"health":1},{"PRN":25,"gnssid":0,"svid":25,"az":124.0,"el":31.0,"ss":42.0,"used":true,"health":1},{"PRN":28,"gnssid":0,"svid":28,"az":217.0,"el":41.0,"ss":47.0,"used":true,"health":1},{"PRN":20,"gnssid":0,"svid":20,"az":54.0,"el":21.0,"ss":40.0,"used":true,"health":1},{"PRN":11,"gnssid":0,"svid":11,"az":36.0,"el":7.0,"ss":30.0,"used":false,"health":1},{"PRN":31,"gnssid":0,"svid":31,"az":262.0,"el":50.0,"ss":46.0,"used":true,"health":1},{"PRN":12,"gnssid":0,"svid":12,"az":118.0,"el":4.0,"ss":29.0,"used":false,"health":1},{"PRN":4,"gnssid":0,"svid":4,"az":319.0,"el":10.0,"ss":32.0,"used":true,"health":1}]}
{"class":"TPV","device":"/dev/ttyACM0","mode":3,"time":"2024-06-05T06:49:10.749Z","leapseconds":18,"ept":0.005,"lat":52.315585396,"lon":10.561722910,"altHAE":148.1512,"altMSL":104.2521,"alt":104.2521,"epx":8.920,"epy":10.061,"epv":39.330,"track":307.1717,"magtrack":310.3911,"magvar":3.2,"speed":0.005,"climb":0.036,"eps":0.22,"epc":317.18,"ecefx":3841122.66,"ecefy":716190.92,"ecefz":5024463.41,"ecefvx":0.02,"ecefvy":0.00,"ecefvz":0.03,"ecefpAcc":5.71,"ecefvAcc":0.22,"velN":0.003,"velE":-0.004,"velD":-0.036,"geoidSep":43.899,"eph":18.240,"sep":37.240}
{"class":"SKY","device":"/dev/ttyACM0","time":"2024-06-05T06:49:10.501Z","gdop":2.22,"hdop":0.96,"pdop":1.96,"tdop":1.04,"xdop":0.59,"ydop":0.67,"vdop":1.71,"uSat":10}
{"class":"SKY","device":"/dev/ttyACM0","time":"2024-06-05T06:49:10.501Z","gdop":2.22,"hdop":0.96,"pdop":1.96,"tdop":1.04,"xdop":0.59,"ydop":0.67,"vdop":1.71,"uSat":10}
{"class":"TPV","device":"/dev/ttyACM0","mode":3,"time":"2024-06-05T06:49:10.749Z","leapseconds":18,"ept":0.005,"lat":52.315585396,"lon":10.561722910,"altHAE":148.1512,"altMSL":104.2521,"alt":104.2521,"epx":8.920,"epy":10.061,"epv":39.330,"track":307.1717,"magtrack":310.3911,"magvar":3.2,"speed":0.005,"climb":0.036,"eps":81.14,"epc":317.18,"ecefx":3841122.66,"ecefy":716190.92,"ecefz":5024463.41,"ecefvx":0.02,"ecefvy":0.00,"ecefvz":0.03,"ecefpAcc":5.71,"ecefvAcc":0.22,"velN":0.003,"velE":-0.004,"velD":-0.036,"geoidSep":43.899,"eph":18.240,"sep":37.240}
{"class":"SKY","device":"/dev/ttyACM0","time":"2024-06-05T06:49:10.749Z","gdop":2.22,"hdop":0.96,"pdop":1.96,"tdop":1.04,"xdop":0.59,"ydop":0.67,"vdop":1.71,"nSat":14,"uSat":9,"satellites":[{"PRN":26,"gnssid":0,"svid":26,"az":293.0,"el":48.0,"ss":39.0,"used":true,"health":1},{"PRN":5,"gnssid":0,"svid":5,"az":84.0,"el":20.0,"ss":45.0,"used":true,"health":1},{"PRN":29,"gnssid":0,"svid":29,"az":67.0,"el":69.0,"ss":47.0,"used":true,"health":1},{"PRN":9,"gnssid":0,"svid":9,"az":354.0,"el":3.0,"ss":27.0,"used":false,"health":1},{"PRN":18,"gnssid":0,"svid":18,"az":176.0,"el":40.0,"ss":47.0,"used":true,"health":1},{"PRN":37,"gnssid":1,"svid":124,"az":0.0,"el":-9.0,"ss":0.0,"used":false,"health":1},{"PRN":16,"gnssid":0,"svid":16,"az":296.0,"el":10.0,"ss":27.0,"used":false,"health":1},{"PRN":25,"gnssid":0,"svid":25,"az":124.0,"el":31.0,"ss":41.0,"used":true,"health":1},{"PRN":28,"gnssid":0,"svid":28,"az":217.0,"el":41.0,"ss":47.0,"used":true,"health":1},{"PRN":20,"gnssid":0,"svid":20,"az":54.0,"el":21.0,"ss":40.0,"used":true,"health":1},{"PRN":11,"gnssid":0,"svid":11,"az":36.0,"el":7.0,"ss":30.0,"used":false,"health":1},{"PRN":31,"gnssid":0,"svid":31,"az":262.0,"el":50.0,"ss":46.0,"used":true,"health":1},{"PRN":12,"gnssid":0,"svid":12,"az":118.0,"el":4.0,"ss":29.0,"used":false,"health":1},{"PRN":4,"gnssid":0,"svid":4,"az":319.0,"el":10.0,"ss":32.0,"used":true,"health":1}]}
{"class":"TPV","device":"/dev/ttyACM0","mode":3,"time":"2024-06-05T06:49:11.001Z","leapseconds":18,"ept":0.005,"lat":52.315585536,"lon":10.561722964,"altHAE":148.1392,"altMSL":104.2401,"alt":104.2401,"epx":8.920,"epy":10.061,"epv":39.330,"track":111.2946,"magtrack":114.5140,"magvar":3.2,"speed":0.017,"climb":0.030,"eps":0.22,"epc":312.14,"ecefx":3841122.64,"ecefy":716190.92,"ecefz":5024463.41,"ecefvx":0.02,"ecefvy":0.02,"ecefvz":0.02,"ecefpAcc":5.70,"ecefvAcc":0.22,"velN":-0.006,"velE":0.016,"velD":-0.030,"geoidSep":43.899,"eph":18.240,"sep":37.240}
{"class":"SKY","device":"/dev/ttyACM0","time":"2024-06-05T06:49:10.749Z","gdop":2.22,"hdop":0.96,"pdop":1.96,"tdop":1.04,"xdop":0.59,"ydop":0.67,"vdop":1.71,"uSat":10}
{"class":"SKY","device":"/dev/ttyACM0","time":"2024-06-05T06:49:10.749Z","gdop":2.22,"hdop":0.96,"pdop":1.96,"tdop":1.04,"xdop":0.59,"ydop":0.67,"vdop":1.71,"uSat":10}
{"class":"TPV","device":"/dev/ttyACM0","mode":3,"time":"2024-06-05T06:49:11.001Z","leapseconds":18,"ept":0.005,"lat":52.315585536,"lon":10.561722964,"altHAE":148.1392,"altMSL":104.2401,"alt":104.2401,"epx":8.920,"epy":10.061,"epv":39.330,"track":111.2946,"magtrack":114.5140,"magvar":3.2,"speed":0.017,"climb":0.030,"eps":79.85,"epc":312.14,"ecefx":3841122.64,"ecefy":716190.92,"ecefz":5024463.41,"ecefvx":0.02,"ecefvy":0.02,"ecefvz":0.02,"ecefpAcc":5.70,"ecefvAcc":0.22,"velN":-0.006,"velE":0.016,"velD":-0.030,"geoidSep":43.899,"eph":18.240,"sep":37.240}
{"class":"SKY","device":"/dev/ttyACM0","time":"2024-06-05T06:49:11.001Z","gdop":2.22,"hdop":0.96,"pdop":1.96,"tdop":1.04,"xdop":0.59,"ydop":0.67,"vdop":1.71,"nSat":14,"uSat":9,"satellites":[{"PRN":26,"gnssid":0,"svid":26,"az":293.0,"el":48.0,"ss":39.0,"used":true,"health":1},{"PRN":5,"gnssid":0,"svid":5,"az":84.0,"el":20.0,"ss":45.0,"used":true,"health":1},{"PRN":29,"gnssid":0,"svid":29,"az":67.0,"el":69.0,"ss":47.0,"used":true,"health":1},{"PRN":9,"gnssid":0,"svid":9,"az":354.0,"el":3.0,"ss":27.0,"used":false,"health":1},{"PRN":18,"gnssid":0,"svid":18,"az":176.0,"el":40.0,"ss":47.0,"used":true,"health":1},{"PRN":37,"gnssid":1,"svid":124,"az":0.0,"el":-9.0,"ss":0.0,"used":false,"health":1},{"PRN":16,"gnssid":0,"svid":16,"az":296.0,"el":10.0,"ss":27.0,"used":false,"health":1},{"PRN":25,"gnssid":0,"svid":25,"az":124.0,"el":31.0,"ss":41.0,"used":true,"health":1},{"PRN":28,"gnssid":0,"svid":28,"az":217.0,"el":41.0,"ss":47.0,"used":true,"health":1},{"PRN":20,"gnssid":0,"svid":20,"az":54.0,"el":21.0,"ss":40.0,"used":true,"health":1},{"PRN":11,"gnssid":0,"svid":11,"az":36.0,"el":7.0,"ss":30.0,"used":false,"health":1},{"PRN":31,"gnssid":0,"svid":31,"az":262.0,"el":50.0,"ss":46.0,"used":true,"health":1},{"PRN":12,"gnssid":0,"svid":12,"az":118.0,"el":4.0,"ss":29.0,"used":false,"health":1},{"PRN":4,"gnssid":0,"svid":4,"az":319.0,"el":10.0,"ss":31.0,"used":true,"health":1}]}
{"class":"TPV","device":"/dev/ttyACM0","mode":3,"time":"2024-06-05T06:49:11.249Z","leapseconds":18,"ept":0.005,"lat":52.315585691,"lon":10.561723044,"altHAE":148.1132,"altMSL":104.2142,"alt":104.2142,"epx":8.920,"epy":10.061,"epv":39.330,"track":127.8125,"magtrack":131.0320,"magvar":3.2,"speed":0.008,"climb":0.029,"eps":0.22,"epc":317.18,"ecefx":3841122.61,"ecefy":716190.92,"ecefz":5024463.40,"ecefvx":0.02,"ecefvy":0.01,"ecefvz":0.02,"ecefpAcc":5.70,"ecefvAcc":0.22,"velN":-0.005,"velE":0.006,"velD":-0.029,"geoidSep":43.899,"eph":18.240,"sep":37.240}
{"class":"SKY","device":"/dev/ttyACM0","time":"2024-06-05T06:49:11.001Z","gdop":2.22,"hdop":0.96,"pdop":1.96,"tdop":1.04,"xdop":0.59,"ydop":0.67,"vdop":1.71,"uSat":10}
{"class":"SKY","device":"/dev/ttyACM0","time":"2024-06-05T06:49:11.001Z","gdop":2.22,"hdop":0.96,"pdop":1.96,"tdop":1.04,"xdop":0.59,"ydop":0.67,"vdop":1.71,"uSat":10}
{"class":"TPV","device":"/dev/ttyACM0","mode":3,"time":"2024-06-05T06:49:11.249Z","leapseconds":18,"ept":0.005,"lat":52.315585691,"lon":10.561723044,"altHAE":148.1132,"altMSL":104.2142,"alt":104.2142,"epx":8.920,"epy":10.061,"epv":39.330,"track":127.8125,"magtrack":131.0320,"magvar":3.2,"speed":0.008,"climb":0.029,"eps":81.14,"epc":317.18,"ecefx":3841122.61,"ecefy":716190.92,"ecefz":5024463.40,"ecefvx":0.02,"ecefvy":0.01,"ecefvz":0.02,"ecefpAcc":5.70,"ecefvAcc":0.22,"velN":-0.005,"velE":0.006,"velD":-0.029,"geoidSep":43.899,"eph":18.240,"sep":37.240}
{"class":"SKY","device":"/dev/ttyACM0","time":"2024-06-05T06:49:11.249Z","gdop":2.22,"hdop":0.96,"pdop":1.96,"tdop":1.04,"xdop":0.59,"ydop":0.67,"vdop":1.71,"nSat":14,"uSat":9,"satellites":[{"PRN":26,"gnssid":0,"svid":26,"az":293.0,"el":48.0,"ss":39.0,"used":true,"health":1},{"PRN":5,"gnssid":0,"svid":5,"az":84.0,"el":20.0,"ss":45.0,"used":true,"health":1},{"PRN":29,"gnssid":0,"svid":29,"az":67.0,"el":69.0,"ss":47.0,"used":true,"health":1},{"PRN":9,"gnssid":0,"svid":9,"az":354.0,"el":3.0,"ss":27.0,"used":false,"health":1},{"PRN":18,"gnssid":0,"svid":18,"az":176.0,"el":40.0,"ss":47.0,"used":true,"health":1},{"PRN":37,"gnssid":1,"svid":124,"az":0.0,"el":-9.0,"ss":0.0,"used":false,"health":1},{"PRN":16,"gnssid":0,"svid":16,"az":296.0,"el":10.0,"ss":27.0,"used":false,"health":1},{"PRN":25,"gnssid":0,"svid":25,"az":124.0,"el":31.0,"ss":41.0,"used":true,"health":1},{"PRN":28,"gnssid":0,"svid":28,"az":217.0,"el":41.0,"ss":47.0,"used":true,"health":1},{"PRN":20,"gnssid":0,"svid":20,"az":54.0,"el":21.0,"ss":40.0,"used":true,"health":1},{"PRN":11,"gnssid":0,"svid":11,"az":36.0,"el":7.0,"ss":30.0,"used":false,"health":1},{"PRN":31,"gnssid":0,"svid":31,"az":262.0,"el":50.0,"ss":46.0,"used":true,"health":1},{"PRN":12,"gnssid":0,"svid":12,"az":118.0,"el":4.0,"ss":29.0,"used":false,"health":1},{"PRN":4,"gnssid":0,"svid":4,"az":319.0,"el":10.0,"ss":31.0,"used":true,"health":1}]}
{"class":"TPV","device":"/dev/ttyACM0","mode":3,"time":"2024-06-05T06:49:11.501Z","leapseconds":18,"ept":0.005,"lat":52.315585818,"lon":10.561723242,"altHAE":148.1023,"altMSL":104.2033,"alt":104.2033,"epx":8.920,"epy":10.061,"epv":39.330,"track":127.8125,"magtrack":131.0320,"magvar":3.2,"speed":0.008,"climb":0.029,"eps":0.22,"epc":312.14,"ecefx":3841122.59,"ecefy":716190.93,"ecefz":5024463.40,"ecefvx":0.02,"ecefvy":0.01,"ecefvz":0.02,"ecefpAcc":5.70,"ecefvAcc":0.22,"velN":-0.005,"velE":0.006,"velD":-0.029,"geoidSep":43.899,"eph":18.240,"sep":37.240}
{"class":"SKY","device":"/dev/ttyACM0","time":"2024-06-05T06:49:11.249Z","gdop":2.22,"hdop":0.96,"pdop":1.96,"tdop":1.04,"xdop":0.59,"ydop":0.67,"vdop":1.71,"uSat":10}
{"class":"SKY","device":"/dev/ttyACM0","time":"2024-06-05T06:49:11.249Z","gdop":2.22,"hdop":0.96,"pdop":1.96,"tdop":1.04,"xdop":0.59,"ydop":0.67,"vdop":1.71,"uSat":10}
{"class":"TPV","device":"/dev/ttyACM0","mode":3,"time":"2024-06-05T06:49:11.501Z","leapseconds":18,"ept":0.005,"lat":52.315585818,"lon":10.561723242,"altHAE":148.1023,"altMSL":104.2033,"alt":104.2033,"epx":8.920,"epy":10.061,"epv":39.330,"track":127.8125,"magtrack":131.0320,"magvar":3.2,"speed":0.008,"climb":0.029,"eps":79.85,"epc":312.14,"ecefx":3841122.59,"ecefy":716190.93,"ecefz":5024463.40,"ecefvx":0.02,"ecefvy":0.01,"ecefvz":0.02,"ecefpAcc":5.70,"ecefvAcc":0.22,"velN":-0.005,"velE":0.006,"velD":-0.029,"geoidSep":43.899,"eph":18.240,"sep":37.240}
{"class":"SKY","device":"/dev/ttyACM0","time":"2024-06-05T06:49:11.501Z","gdop":2.22,"hdop":0.96,"pdop":1.96,"tdop":1.04,"xdop":0.59,"ydop":0.67,"vdop":1.71,"nSat":14,"uSat":9,"satellites":[{"PRN":26,"gnssid":0,"svid":26,"az":293.0,"el":48.0,"ss":39.0,"used":true,"health":1},{"PRN":5,"gnssid":0,"svid":5,"az":84.0,"el":20.0,"ss":45.0,"used":true,"health":1},{"PRN":29,"gnssid":0,"svid":29,"az":67.0,"el":69.0,"ss":47.0,"used":true,"health":1},{"PRN":9,"gnssid":0,"svid":9,"az":354.0,"el":3.0,"ss":27.0,"used":false,"health":1},{"PRN":18,"gnssid":0,"svid":18,"az":176.0,"el":40.0,"ss":47.0,"used":true,"health":1},{"PRN":37,"gnssid":1,"svid":124,"az":0.0,"el":-9.0,"ss":0.0,"used":false,"health":1},{"PRN":16,"gnssid":0,"svid":16,"az":296.0,"el":10.0,"ss":27.0,"used":false,"health":1},{"PRN":25,"gnssid":0,"svid":25,"az":124.0,"el":31.0,"ss":41.0,"used":true,"health":1},{"PRN":28,"gnssid":0,"svid":28,"az":217.0,"el":41.0,"ss":47.0,"used":true,"health":1},{"PRN":20,"gnssid":0,"svid":20,"az":54.0,"el":21.0,"ss":40.0,"used":true,"health":1},{"PRN":11,"gnssid":0,"svid":11,"az":36.0,"el":7.0,"ss":30.0,"used":false,"health":1},{"PRN":31,"gnssid":0,"svid":31,"az":262.0,"el":50.0,"ss":46.0,"used":true,"health":1},{"PRN":12,"gnssid":0,"svid":12,"az":118.0,"el":4.0,"ss":29.0,"used":false,"health":1},{"PRN":4,"gnssid":0,"svid":4,"az":319.0,"el":10.0,"ss":31.0,"used":true,"health":1}]}
{"class":"TPV","device":"/dev/ttyACM0","mode":3,"time":"2024-06-05T06:49:11.749Z","leapseconds":18,"ept":0.005,"lat":52.315585903,"lon":10.561723296,"altHAE":148.0824,"altMSL":104.1833,"alt":104.1833,"epx":8.920,"epy":10.061,"epv":39.330,"track":127.8125,"magtrack":131.0320,"magvar":3.2,"speed":0.008,"climb":0.029,"eps":0.22,"epc":317.18,"ecefx":3841122.57,"ecefy":716190.93,"ecefz":5024463.39,"ecefvx":0.02,"ecefvy":0.01,"ecefvz":0.02,"ecefpAcc":5.70,"ecefvAcc":0.22,"velN":-0.005,"velE":0.006,"velD":-0.029,"geoidSep":43.899,"eph":18.240,"sep":37.240}
{"class":"SKY","device":"/dev/ttyACM0","time":"2024-06-05T06:49:11.501Z","gdop":2.22,"hdop":0.96,"pdop":1.96,"tdop":1.04,"xdop":0.59,"ydop":0.67,"vdop":1.71,"uSat":10}
{"class":"SKY","device":"/dev/ttyACM0","time":"2024-06-05T06:49:11.501Z","gdop":2.22,"hdop":0.96,"pdop":1.96,"tdop":1.04,"xdop":0.59,"ydop":0.67,"vdop":1.71,"uSat":10}
{"class":"TPV","device":"/dev/ttyACM0","mode":3,"time":"2024-06-05T06:49:11.749Z","leapseconds":18,"ept":0.005,"lat":52.315585903,"lon":10.561723296,"altHAE":148.0824,"altMSL":104.1833,"alt":104.1833,"epx":8.920,"epy":10.061,"epv":39.330,"track":127.8125,"magtrack":131.0320,"magvar":3.2,"speed":0.008,"climb":0.029,"eps":81.14,"epc":317.18,"ecefx":3841122.57,"ecefy":716190.93,"ecefz":5024463.39,"ecefvx":0.02,"ecefvy":0.01,"ecefvz":0.02,"ecefpAcc":5.70,"ecefvAcc":0.22,"velN":-0.005,"velE":0.006,"velD":-0.029,"geoidSep":43.899,"eph":18.240,"sep":37.240}
{"class":"SKY","device":"/dev/ttyACM0","time":"2024-06-05T06:49:11.749Z","gdop":2.22,"hdop":0.96,"pdop":1.96,"tdop":1.04,"xdop":0.59,"ydop":0.67,"vdop":1.71,"nSat":14,"uSat":9,"satellites":[{"PRN":26,"gnssid":0,"svid":26,"az":293.0,"el":48.0,"ss":40.0,"used":true,"health":1},{"PRN":5,"gnssid":0,"svid":5,"az":84.0,"el":20.0,"ss":45.0,"used":true,"health":1},{"PRN":29,"gnssid":0,"svid":29,"az":67.0,"el":69.0,"ss":47.0,"used":true,"health":1},{"PRN":9,"gnssid":0,"svid":9,"az":354.0,"el":3.0,"ss":27.0,"used":false,"health":1},{"PRN":18,"gnssid":0,"svid":18,"az":176.0,"el":40.0,"ss":47.0,"used":true,"health":1},{"PRN":37,"gnssid":1,"svid":124,"az":0.0,"el":-9.0,"ss":0.0,"used":false,"health":1},{"PRN":16,"gnssid":0,"svid":16,"az":296.0,"el":10.0,"ss":27.0,"used":false,"health":1},{"PRN":25,"gnssid":0,"svid":25,"az":124.0,"el":31.0,"ss":41.0,"used":true,"health":1},{"PRN":28,"gnssid":0,"svid":28,"az":217.0,"el":41.0,"ss":47.0,"used":true,"health":1},{"PRN":20,"gnssid":0,"svid":20,"az":54.0,"el":21.0,"ss":40.0,"used":true,"health":1},{"PRN":11,"gnssid":0,"svid":11,"az":36.0,"el":7.0,"ss":30.0,"used":false,"health":1},{"PRN":31,"gnssid":0,"svid":31,"az":262.0,"el":50.0,"ss":46.0,"used":true,"health":1},{"PRN":12,"gnssid":0,"svid":12,"az":118.0,"el":4.0,"ss":29.0,"used":false,"health":1},{"PRN":4,"gnssid":0,"svid":4,"az":319.0,"el":10.0,"ss":31.0,"used":true,"health":1}]}
{"class":"TPV","device":"/dev/ttyACM0","mode":3,"time":"2024-06-05T06:49:12.001Z","leapseconds":18,"ept":0.005,"lat":52.315586057,"lon":10.561723376,"altHAE":148.0564,"altMSL":104.1574,"alt":104.1574,"epx":8.920,"epy":10.061,"epv":39.330,"track":127.8125,"magtrack":131.0320,"magvar":3.2,"speed":0.008,"climb":0.029,"eps":0.22,"epc":312.14,"ecefx":3841122.54,"ecefy":716190.93,"ecefz":5024463.38,"ecefvx":0.02,"ecefvy":0.01,"ecefvz":0.02,"ecefpAcc":5.70,"ecefvAcc":0.22,"velN":-0.005,"velE":0.006,"velD":-0.029,"geoidSep":43.899,"eph":18.240,"sep":37.240}
{"class":"SKY","device":"/dev/ttyACM0","time":"2024-06-05T06:49:11.749Z","gdop":2.22,"hdop":0.96,"pdop":1.96,"tdop":1.04,"xdop":0.59,"ydop":0.67,"vdop":1.71,"uSat":10}
{"class":"SKY","device":"/dev/ttyACM0","time":"2024-06-05T06:49:11.749Z","gdop":2.22,"hdop":0.96,"pdop":1.96,"tdop":1.04,"xdop":0.59,"ydop":0.67,"vdop":1.71,"uSat":10}
{"class":"TPV","device":"/dev/ttyACM0","mode":3,"time":"2024-06-05T06:49:12.001Z","leapseconds":18,"ept":0.005,"lat":52.315586057,"lon":10.561723376,"altHAE":148.0564,"altMSL":104.1574,"alt":104.1574,"epx":8.920,"epy":10.061,"epv":39.330,"track":127.8125,"magtrack":131.0320,"magvar":3.2,"speed":0.008,"climb":0.029,"eps":79.85,"epc":312.14,"ecefx":3841122.54,"ecefy":716190.93,"ecefz":5024463.38,"ecefvx":0.02,"ecefvy":0.01,"ecefvz":0.02,"ecefpAcc":5.70,"ecefvAcc":0.22,"velN":-0.005,"velE":0.006,"velD":-0.029,"geoidSep":43.899,"eph":18.240,"sep":37.240}
{"class":"SKY","device":"/dev/ttyACM0","time":"2024-06-05T06:49:12.001Z","gdop":2.22,"hdop":0.96,"pdop":1.96,"tdop":1.04,"xdop":0.59,"ydop":0.67,"vdop":1.71,"nSat":14,"uSat":9,"satellites":[{"PRN":26,"gnssid":0,"svid":26,"az":293.0,"el":48.0,"ss":40.0,"used":true,"health":1},{"PRN":5,"gnssid":0,"svid":5,"az":84.0,"el":20.0,"ss":45.0,"used":true,"health":1},{"PRN":29,"gnssid":0,"svid":29,"az":67.0,"el":69.0,"ss":47.0,"used":true,"health":1},{"PRN":9,"gnssid":0,"svid":9,"az":354.0,"el":3.0,"ss":27.0,"used":false,"health":1},{"PRN":18,"gnssid":0,"svid":18,"az":176.0,"el":40.0,"ss":47.0,"used":true,"health":1},{"PRN":39,"gnssid":1,"svid":126,"az":0.0,"el":-9.0,"ss":0.0,"used":false,"health":1},{"PRN":16,"gnssid":0,"svid":16,"az":296.0,"el":10.0,"ss":27.0,"used":false,"health":1},{"PRN":25,"gnssid":0,"svid":25,"az":124.0,"el":31.0,"ss":41.0,"used":true,"health":1},{"PRN":28,"gnssid":0,"svid":28,"az":217.0,"el":41.0,"ss":47.0,"used":true,"health":1},{"PRN":20,"gnssid":0,"svid":20,"az":54.0,"el":21.0,"ss":40.0,"used":true,"health":1},{"PRN":11,"gnssid":0,"svid":11,"az":36.0,"el":7.0,"ss":30.0,"used":false,"health":1},{"PRN":31,"gnssid":0,"svid":31,"az":262.0,"el":50.0,"ss":45.0,"used":true,"health":1},{"PRN":12,"gnssid":0,"svid":12,"az":118.0,"el":4.0,"ss":29.0,"used":false,"health":1},{"PRN":4,"gnssid":0,"svid":4,"az":319.0,"el":10.0,"ss":30.0,"used":true,"health":1}]}
{"class":"TPV","device":"/dev/ttyACM0","mode":3,"time":"2024-06-05T06:49:12.249Z","leapseconds":18,"ept":0.005,"lat":52.315586295,"lon":10.561723340,"altHAE":148.0234,"altMSL":104.1243,"alt":104.1243,"epx":8.920,"epy":10.061,"epv":39.330,"track":127.8125,"magtrack":131.0320,"magvar":3.2,"speed":0.008,"climb":0.029,"eps":0.22,"epc":317.18,"ecefx":3841122.50,"ecefy":716190.92,"ecefz":5024463.37,"ecefvx":0.02,"ecefvy":0.01,"ecefvz":0.02,"ecefpAcc":5.70,"ecefvAcc":0.22,"velN":-0.005,"velE":0.006,"velD":-0.029,"geoidSep":43.899,"eph":18.240,"sep":52.060}
{"class":"SKY","device":"/dev/ttyACM0","time":"2024-06-05T06:49:12.001Z","gdop":2.22,"hdop":0.96,"pdop":2.74,"tdop":1.04,"xdop":0.59,"ydop":0.67,"vdop":1.71,"uSat":10}
{"class":"SKY","device":"/dev/ttyACM0","time":"2024-06-05T06:49:12.001Z","gdop":3.20,"hdop":1.16,"pdop":2.74,"tdop":1.66,"xdop":0.59,"ydop":0.67,"vdop":2.48,"uSat":10}
{"class":"TPV","device":"/dev/ttyACM0","mode":3,"time":"2024-06-05T06:49:12.249Z","leapseconds":18,"ept":0.005,"lat":52.315586295,"lon":10.561723340,"altHAE":148.0234,"altMSL":104.1243,"alt":104.1243,"epx":8.920,"epy":10.061,"epv":39.330,"track":127.8125,"magtrack":131.0320,"magvar":3.2,"speed":0.008,"climb":0.029,"eps":81.14,"epc":317.18,"ecefx":3841122.50,"ecefy":716190.92,"ecefz":5024463.37,"ecefvx":0.02,"ecefvy":0.01,"ecefvz":0.02,"ecefpAcc":5.70,"ecefvAcc":0.22,"velN":-0.005,"velE":0.006,"velD":-0.029,"geoidSep":43.899,"eph":18.240,"sep":52.060}
{"class":"SKY","device":"/dev/ttyACM0","time":"2024-06-05T06:49:12.249Z","gdop":3.20,"hdop":1.16,"pdop":2.74,"tdop":1.66,"xdop":0.59,"ydop":0.67,"vdop":2.48,"nSat":14,"uSat":8,"satellites":[{"PRN":26,"gnssid":0,"svid":26,"az":293.0,"el":48.0,"ss":40.0,"used":true,"health":1},{"PRN":5,"gnssid":0,"svid":5,"az":84.0,"el":20.0,"ss":45.0,"used":true,"health":1},{"PRN":29,"gnssid":0,"svid":29,"az":67.0,"el":69.0,"ss":47.0,"used":true,"health":1},{"PRN":9,"gnssid":0,"svid":9,"az":354.0,"el":3.0,"ss":27.0,"used":false,"health":1},{"PRN":18,"gnssid":0,"svid":18,"az":176.0,"el":40.0,"ss":47.0,"used":true,"health":1},{"PRN":39,"gnssid":1,"svid":126,"az":0.0,"el":-9.0,"ss":0.0,"used":false,"health":1},{"PRN":16,"gnssid":0,"svid":16,"az":296.0,"el":10.0,"ss":27.0,"used":false,"health":1},{"PRN":25,"gnssid":0,"svid":25,"az":124.0,"el":31.0,"ss":41.0,"used":true,"health":1},{"PRN":28,"gnssid":0,"svid":28,"az":217.0,"el":41.0,"ss":47.0,"used":true,"health":1},{"PRN":20,"gnssid":0,"svid":20,"az":54.0,"el":21.0,"ss":40.0,"used":true,"health":1},{"PRN":11,"gnssid":0,"svid":11,"az":36.0,"el":7.0,"ss":30.0,"used":false,"health":1},{"PRN":31,"gnssid":0,"svid":31,"az":262.0,"el":50.0,"ss":45.0,"used":true,"health":1},{"PRN":12,"gnssid":0,"svid":12,"az":118.0,"el":4.0,"ss":29.0,"used":false,"health":1},{"PRN":4,"gnssid":0,"svid":4,"az":319.0,"el":10.0,"ss":30.0,"used":false,"health":1}]}
{"class":"TPV","device":"/dev/ttyACM0","mode":3,"time":"2024-06-05T06:49:12.501Z","leapseconds":18,"ept":0.005,"lat":52.315586478,"lon":10.561723303,"altHAE":147.9824,"altMSL":104.0833,"alt":104.0833,"epx":8.920,"epy":10.061,"epv":57.040,"track":337.5971,"magtrack":340.8165,"magvar":3.2,"speed":0.005,"climb":0.022,"eps":0.22,"epc":382.42,"ecefx":3841122.46,"ecefy":716190.91,"ecefz":5024463.35,"ecefvx":0.01,"ecefvy":0.00,"ecefvz":0.02,"ecefpAcc":5.70,"ecefvAcc":0.22,"velN":0.004,"velE":-0.002,"velD":-0.022,"geoidSep":43.899,"eph":22.040,"sep":52.060}
{"class":"SKY","device":"/dev/ttyACM0","time":"2024-06-05T06:49:12.249Z","gdop":3.20,"hdop":1.16,"pdop":2.74,"tdop":1.66,"xdop":0.59,"ydop":0.67,"vdop":2.48,"uSat":10}
