{"class":"VERSION","release":"3.25","rev":"3.25","proto_major":3,"proto_minor":15}
{"class":"DEVICES","devices":[{"class":"DEVICE","path":"/dev/ttyACM0","driver":"u-blox","subtype":"SW 5.00    May 11 2006 14:40:17,HW 00040001","subtype1":"M4T1.2  May 11 2006 14:40:17","activated":"2024-06-05T06:51:45.691Z","flags":1,"native":1,"bps":57600,"parity":"N","stopbits":1,"cycle":1.00,"mincycle":0.02}]}
{"class":"WATCH","enable":true,"json":true,"nmea":false,"raw":0,"scaled":false,"timing":false,"split24":false,"pps":false}
{"class":"TPV","device":"/dev/ttyACM0","mode":3,"time":"2024-06-05T06:51:45.750Z","leapseconds":18,"ept":0.005,"lat":52.315831608,"lon":10.562816722,"altHAE":135.8838,"altMSL":91.9861,"alt":91.9861,"epx":8.920,"epy":10.061,"epv":33.580,"track":77.8345,"magtrack":81.0542,"magvar":3.2,"speed":0.006,"climb":0.037,"eps":0.37,"epc":266.51,"ecefx":3841080.30,"ecefy":716258.90,"ecefz":5024470.45,"ecefvx":0.02,"ecefvy":0.01,"ecefvz":0.03,"ecefpAcc":5.02,"ecefvAcc":0.37,"velN":0.001,"velE":0.006,"velD":-0.037,"geoidSep":43.898,"eph":16.720,"sep":32.300}
{"class":"SKY","device":"/dev/ttyACM0","time":"2024-06-05T06:51:45.498Z","gdop":1.89,"hdop":0.88,"pdop":1.70,"tdop":0.83,"xdop":0.59,"ydop":0.67,"vdop":1.46,"uSat":10}
{"class":"SKY","device":"/dev/ttyACM0","time":"2024-06-05T06:51:45.498Z","gdop":1.89,"hdop":0.88,"pdop":1.70,"tdop":0.83,"xdop":0.59,"ydop":0.67,"vdop":1.46,"uSat":10}
{"class":"TPV","device":"/dev/ttyACM0","mode":3,"time":"2024-06-05T06:51:45.750Z","leapseconds":18,"ept":0.005,"lat":52.315831608,"lon":10.562816722,"altHAE":135.8838,"altMSL":91.9861,"alt":91.9861,"epx":8.920,"epy":10.061,"epv":33.580,"track":77.8345,"magtrack":81.0542,"magvar":3.2,"speed":0.006,"climb":0.037,"eps":79.85,"epc":266.51,"ecefx":3841080.30,"ecefy":716258.90,"ecefz":5024470.45,"ecefvx":0.02,"ecefvy":0.01,"ecefvz":0.03,"ecefpAcc":5.02,"ecefvAcc":0.37,"velN":0.001,"velE":0.006,"velD":-0.037,"geoidSep":43.898,"eph":16.720,"sep":32.300}
{"class":"SKY","device":"/dev/ttyACM0","time":"2024-06-05T06:51:45.750Z","gdop":1.89,"hdop":0.88,"pdop":1.70,"tdop":0.83,"xdop":0.59,"ydop":0.67,"vdop":1.46,"nSat":14,"uSat":11,"satellites":[{"PRN":26,"gnssid":0,"svid":26,"az":293.0,"el":49.0,"ss":46.0,"used":true,"health":1},{"PRN":5,"gnssid":0,"svid":5,"az":83.0,"el":21.0,"ss":44.0,"used":true,"health":1},{"PRN":29,"gnssid":0,"svid":29,"az":67.0,"el":68.0,"ss":48.0,"used":true,"health":1},{"PRN":9,"gnssid":0,"svid":9,"az":353.0,"el":3.0,"ss":25.0,"used":false,"health":1},{"PRN":18,"gnssid":0,"svid":18,"az":176.0,"el":42.0,"ss":45.0,"used":true,"health":1},{"PRN":12,"gnssid":0,"svid":12,"az":118.0,"el":3.0,"ss":0.0,"used":false,"health":1},{"PRN":16,"gnssid":0,"svid":16,"az":296.0,"el":11.0,"ss":29.0,"used":true,"health":1},{"PRN":25,"gnssid":0,"svid":25,"az":125.0,"el":30.0,"ss":41.0,"used":true,"health":1},{"PRN":28,"gnssid":0,"svid":28,"az":216.0,"el":40.0,"ss":39.0,"used":true,"health":1},{"PRN":20,"gnssid":0,"svid":20,"az":53.0,"el":21.0,"ss":45.0,"used":true,"health":1},{"PRN":11,"gnssid":0,"svid":11,"az":36.0,"el":6.0,"ss":39.0,"used":true,"health":1},{"PRN":31,"gnssid":0,"svid":31,"az":260.0,"el":50.0,"ss":41.0,"used":true,"health":1},{"PRN":39,"gnssid":1,"svid":126,"az":0.0,"el":-9.0,"ss":0.0,"used":false,"health":1},{"PRN":4,"gnssid":0,"svid":4,"az":318.0,"el":10.0,"ss":36.0,"used":true,"health":1}]}
{"class":"TPV","device":"/dev/ttyACM0","mode":3,"time":"2024-06-05T06:51:45.998Z","leapseconds":18,"ept":0.005,"lat":52.315831222,"lon":10.562817597,"altHAE":135.9296,"altMSL":92.0319,"alt":92.0319,"epx":8.920,"epy":10.061,"epv":33.580,"track":268.9390,"magtrack":272.1588,"magvar":3.2,"speed":0.012,"climb":0.013,"eps":0.38,"epc":270.81,"ecefx":3841080.35,"ecefy":716258.97,"ecefz":5024470.46,"ecefvx":0.01,"ecefvy":-0.01,"ecefvz":0.01,"ecefpAcc":5.02,"ecefvAcc":0.38,"velN":0.000,"velE":-0.012,"velD":-0.013,"geoidSep":43.898,"eph":16.720,"sep":32.300}
{"class":"SKY","device":"/dev/ttyACM0","time":"2024-06-05T06:51:45.750Z","gdop":1.89,"hdop":0.88,"pdop":1.70,"tdop":0.83,"xdop":0.59,"ydop":0.67,"vdop":1.46,"uSat":10}
{"class":"SKY","device":"/dev/ttyACM0","time":"2024-06-05T06:51:45.750Z","gdop":1.89,"hdop":0.88,"pdop":1.70,"tdop":0.83,"xdop":0.59,"ydop":0.67,"vdop":1.46,"uSat":10}
{"class":"TPV","device":"/dev/ttyACM0","mode":3,"time":"2024-06-05T06:51:45.998Z","leapseconds":18,"ept":0.005,"lat":52.315831222,"lon":10.562817597,"altHAE":135.9296,"altMSL":92.0319,"alt":92.0319,"epx":8.920,"epy":10.061,"epv":33.580,"track":268.9390,"magtrack":272.1588,"magvar":3.2,"speed":0.012,"climb":0.013,"eps":81.14,"epc":270.81,"ecefx":3841080.35,"ecefy":716258.97,"ecefz":5024470.46,"ecefvx":0.01,"ecefvy":-0.01,"ecefvz":0.01,"ecefpAcc":5.02,"ecefvAcc":0.38,"velN":0.000,"velE":-0.012,"velD":-0.013,"geoidSep":43.898,"eph":16.720,"sep":32.300}
{"class":"SKY","device":"/dev/ttyACM0","time":"2024-06-05T06:51:45.998Z","gdop":1.89,"hdop":0.88,"pdop":1.70,"tdop":0.83,"xdop":0.59,"ydop":0.67,"vdop":1.46,"nSat":14,"uSat":11,"satellites":[{"PRN":26,"gnssid":0,"svid":26,"az":293.0,"el":49.0,"ss":46.0,"used":true,"health":1},{"PRN":5,"gnssid":0,"svid":5,"az":83.0,"el":21.0,"ss":44.0,"used":true,"health":1},{"PRN":29,"gnssid":0,"svid":29,"az":67.0,"el":68.0,"ss":48.0,"used":true,"health":1},{"PRN":9,"gnssid":0,"svid":9,"az":353.0,"el":3.0,"ss":25.0,"used":false,"health":1},{"PRN":18,"gnssid":0,"svid":18,"az":176.0,"el":42.0,"ss":45.0,"used":true,"health":1},{"PRN":12,"gnssid":0,"svid":12,"az":118.0,"el":3.0,"ss":0.0,"used":false,"health":1},{"PRN":16,"gnssid":0,"svid":16,"az":296.0,"el":11.0,"ss":30.0,"used":true,"health":1},{"PRN":25,"gnssid":0,"svid":25,"az":125.0,"el":30.0,"ss":41.0,"used":true,"health":1},{"PRN":28,"gnssid":0,"svid":28,"az":216.0,"el":40.0,"ss":39.0,"used":true,"health":1},{"PRN":20,"gnssid":0,"svid":20,"az":53.0,"el":21.0,"ss":45.0,"used":true,"health":1},{"PRN":11,"gnssid":0,"svid":11,"az":36.0,"el":6.0,"ss":39.0,"used":true,"health":1},{"PRN":31,"gnssid":0,"svid":31,"az":260.0,"el":50.0,"ss":41.0,"used":true,"health":1},{"PRN":39,"gnssid":1,"svid":126,"az":0.0,"el":-9.0,"ss":0.0,"used":false,"health":1},{"PRN":4,"gnssid":0,"svid":4,"az":318.0,"el":10.0,"ss":37.0,"used":true,"health":1}]}
{"class":"TPV","device":"/dev/ttyACM0","mode":3,"time":"2024-06-05T06:51:46.250Z","leapseconds":18,"ept":0.005,"lat":52.315830724,"lon":10.562818301,"altHAE":135.9724,"altMSL":92.0747,"alt":92.0747,"epx":8.920,"epy":10.061,"epv":33.580,"track":193.2586,"magtrack":196.4784,"magvar":3.2,"speed":0.008,"climb":0.006,"eps":0.37,"epc":266.51,"ecefx":3841080.41,"ecefy":716259.03,"ecefz":5024470.46,"ecefvx":0.01,"ecefvy":0.00,"ecefvz":0.00,"ecefpAcc":5.02,"ecefvAcc":0.37,"velN":-0.008,"velE":-0.002,"velD":-0.006,"geoidSep":43.898,"eph":16.720,"sep":32.300}
{"class":"SKY","device":"/dev/ttyACM0","time":"2024-06-05T06:51:45.998Z","gdop":1.89,"hdop":0.88,"pdop":1.70,"tdop":0.83,"xdop":0.59,"ydop":0.67,"vdop":1.46,"uSat":10}
{"class":"SKY","device":"/dev/ttyACM0","time":"2024-06-05T06:51:45.998Z","gdop":1.89,"hdop":0.88,"pdop":1.70,"tdop":0.83,"xdop":0.59,"ydop":0.67,"vdop":1.46,"uSat":10}
{"class":"TPV","device":"/dev/ttyACM0","mode":3,"time":"2024-06-05T06:51:46.250Z","leapseconds":18,"ept":0.005,"lat":52.315830724,"lon":10.562818301,"altHAE":135.9724,"altMSL":92.0747,"alt":92.0747,"epx":8.920,"epy":10.061,"epv":33.580,"track":193.2586,"magtrack":196.4784,"magvar":3.2,"speed":0.008,"climb":0.006,"eps":79.85,"epc":266.51,"ecefx":3841080.41,"ecefy":716259.03,"ecefz":5024470.46,"ecefvx":0.01,"ecefvy":0.00,"ecefvz":0.00,"ecefpAcc":5.02,"ecefvAcc":0.37,"velN":-0.008,"velE":-0.002,"velD":-0.006,"geoidSep":43.898,"eph":16.720,"sep":32.300}
{"class":"SKY","device":"/dev/ttyACM0","time":"2024-06-05T06:51:46.250Z","gdop":1.89,"hdop":0.88,"pdop":1.70,"tdop":0.83,"xdop":0.59,"ydop":0.67,"vdop":1.46,"nSat":14,"uSat":11,"satellites":[{"PRN":26,"gnssid":0,"svid":26,"az":293.0,"el":49.0,"ss":46.0,"used":true,"health":1},{"PRN":5,"gnssid":0,"svid":5,"az":83.0,"el":21.0,"ss":44.0,"used":true,"health":1},{"PRN":29,"gnssid":0,"svid":29,"az":67.0,"el":68.0,"ss":48.0,"used":true,"health":1},{"PRN":9,"gnssid":0,"svid":9,"az":353.0,"el":3.0,"ss":25.0,"used":false,"health":1},{"PRN":18,"gnssid":0,"svid":18,"az":176.0,"el":42.0,"ss":45.0,"used":true,"health":1},{"PRN":12,"gnssid":0,"svid":12,"az":118.0,"el":3.0,"ss":0.0,"used":false,"health":1},{"PRN":16,"gnssid":0,"svid":16,"az":296.0,"el":11.0,"ss":29.0,"used":true,"health":1},{"PRN":25,"gnssid":0,"svid":25,"az":125.0,"el":30.0,"ss":40.0,"used":true,"health":1},{"PRN":28,"gnssid":0,"svid":28,"az":216.0,"el":40.0,"ss":39.0,"used":true,"health":1},{"PRN":20,"gnssid":0,"svid":20,"az":53.0,"el":21.0,"ss":45.0,"used":true,"health":1},{"PRN":11,"gnssid":0,"svid":11,"az":36.0,"el":6.0,"ss":39.0,"used":true,"health":1},{"PRN":31,"gnssid":0,"svid":31,"az":260.0,"el":50.0,"ss":41.0,"used":true,"health":1},{"PRN":39,"gnssid":1,"svid":126,"az":0.0,"el":-9.0,"ss":0.0,"used":false,"health":1},{"PRN":4,"gnssid":0,"svid":4,"az":318.0,"el":10.0,"ss":37.0,"used":true,"health":1}]}
{"class":"TPV","device":"/dev/ttyACM0","mode":3,"time":"2024-06-05T06:51:46.498Z","leapseconds":18,"ept":0.005,"lat":52.315830310,"lon":10.562818887,"altHAE":136.0080,"altMSL":92.1104,"alt":92.1104,"epx":8.920,"epy":10.061,"epv":33.580,"track":324.2925,"magtrack":327.5123,"magvar":3.2,"speed":0.017,"climb":0.015,"eps":0.37,"epc":270.81,"ecefx":3841080.46,"ecefy":716259.08,"ecefz":5024470.46,"ecefvx":0.00,"ecefvy":-0.01,"ecefvz":0.02,"ecefpAcc":5.02,"ecefvAcc":0.37,"velN":0.014,"velE":-0.010,"velD":-0.015,"geoidSep":43.898,"eph":16.720,"sep":32.300}
{"class":"SKY","device":"/dev/ttyACM0","time":"2024-06-05T06:51:46.250Z","gdop":1.89,"hdop":0.88,"pdop":1.70,"tdop":0.83,"xdop":0.59,"ydop":0.67,"vdop":1.46,"uSat":10}
{"class":"SKY","device":"/dev/ttyACM0","time":"2024-06-05T06:51:46.250Z","gdop":1.89,"hdop":0.88,"pdop":1.70,"tdop":0.83,"xdop":0.59,"ydop":0.67,"vdop":1.46,"uSat":10}
{"class":"TPV","device":"/dev/ttyACM0","mode":3,"time":"2024-06-05T06:51:46.498Z","leapseconds":18,"ept":0.005,"lat":52.315830310,"lon":10.562818887,"altHAE":136.0080,"altMSL":92.1104,"alt":92.1104,"epx":8.920,"epy":10.061,"epv":33.580,"track":324.2925,"magtrack":327.5123,"magvar":3.2,"speed":0.017,"climb":0.015,"eps":81.14,"epc":270.81,"ecefx":3841080.46,"ecefy":716259.08,"ecefz":5024470.46,"ecefvx":0.00,"ecefvy":-0.01,"ecefvz":0.02,"ecefpAcc":5.02,"ecefvAcc":0.37,"velN":0.014,"velE":-0.010,"velD":-0.015,"geoidSep":43.898,"eph":16.720,"sep":32.300}
{"class":"SKY","device":"/dev/ttyACM0","time":"2024-06-05T06:51:46.498Z","gdop":1.89,"hdop":0.88,"pdop":1.70,"tdop":0.83,"xdop":0.59,"ydop":0.67,"vdop":1.46,"nSat":14,"uSat":11,"satellites":[{"PRN":26,"gnssid":0,"svid":26,"az":293.0,"el":49.0,"ss":46.0,"used":true,"health":1},{"PRN":5,"gnssid":0,"svid":5,"az":83.0,"el":21.0,"ss":44.0,"used":true,"health":1},{"PRN":29,"gnssid":0,"svid":29,"az":67.0,"el":68.0,"ss":48.0,"used":true,"health":1},{"PRN":9,"gnssid":0,"svid":9,"az":353.0,"el":3.0,"ss":25.0,"used":false,"health":1},{"PRN":18,"gnssid":0,"svid":18,"az":176.0,"el":42.0,"ss":45.0,"used":true,"health":1},{"PRN":12,"gnssid":0,"svid":12,"az":118.0,"el":3.0,"ss":0.0,"used":false,"health":1},{"PRN":16,"gnssid":0,"svid":16,"az":296.0,"el":11.0,"ss":29.0,"used":true,"health":1},{"PRN":25,"gnssid":0,"svid":25,"az":125.0,"el":30.0,"ss":40.0,"used":true,"health":1},{"PRN":28,"gnssid":0,"svid":28,"az":216.0,"el":40.0,"ss":38.0,"used":true,"health":1},{"PRN":20,"gnssid":0,"svid":20,"az":53.0,"el":21.0,"ss":45.0,"used":true,"health":1},{"PRN":11,"gnssid":0,"svid":11,"az":36.0,"el":6.0,"ss":39.0,"used":true,"health":1},{"PRN":31,"gnssid":0,"svid":31,"az":260.0,"el":50.0,"ss":41.0,"used":true,"health":1},{"PRN":39,"gnssid":1,"svid":126,"az":0.0,"el":-9.0,"ss":0.0,"used":false,"health":1},{"PRN":4,"gnssid":0,"svid":4,"az":318.0,"el":10.0,"ss":37.0,"used":true,"health":1}]}
{"class":"TPV","device":"/dev/ttyACM0","mode":3,"time":"2024-06-05T06:51:46.750Z","leapseconds":18,"ept":0.005,"lat":52.315829910,"lon":10.562819500,"altHAE":136.0297,"altMSL":92.1321,"alt":92.1321,"epx":8.920,"epy":10.061,"epv":33.580,"track":139.0941,"magtrack":142.3139,"magvar":3.2,"speed":0.012,"climb":0.007,"eps":0.36,"epc":266.51,"ecefx":3841080.50,"ecefy":716259.13,"ecefz":5024470.45,"ecefvx":0.01,"ecefvy":0.01,"ecefvz":0.00,"ecefpAcc":5.02,"ecefvAcc":0.36,"velN":-0.009,"velE":0.008,"velD":-0.007,"geoidSep":43.898,"eph":16.720,"sep":35.340}
{"class":"SKY","device":"/dev/ttyACM0","time":"2024-06-05T06:51:46.498Z","gdop":1.89,"hdop":0.88,"pdop":1.86,"tdop":0.83,"xdop":0.59,"ydop":0.67,"vdop":1.46,"uSat":10}
{"class":"SKY","device":"/dev/ttyACM0","time":"2024-06-05T06:51:46.498Z","gdop":2.09,"hdop":0.93,"pdop":1.86,"tdop":0.95,"xdop":0.59,"ydop":0.67,"vdop":1.61,"uSat":10}
{"class":"TPV","device":"/dev/ttyACM0","mode":3,"time":"2024-06-05T06:51:46.750Z","leapseconds":18,"ept":0.005,"lat":52.315829910,"lon":10.562819500,"altHAE":136.0297,"altMSL":92.1321,"alt":92.1321,"epx":8.920,"epy":10.061,"epv":33.580,"track":139.0941,"magtrack":142.3139,"magvar":3.2,"speed":0.012,"climb":0.007,"eps":79.85,"epc":266.51,"ecefx":3841080.50,"ecefy":716259.13,"ecefz":5024470.45,"ecefvx":0.01,"ecefvy":0.01,"ecefvz":0.00,"ecefpAcc":5.02,"ecefvAcc":0.36,"velN":-0.009,"velE":0.008,"velD":-0.007,"geoidSep":43.898,"eph":16.720,"sep":35.340}
{"class":"SKY","device":"/dev/ttyACM0","time":"2024-06-05T06:51:46.750Z","gdop":2.09,"hdop":0.93,"pdop":1.86,"tdop":0.95,"xdop":0.59,"ydop":0.67,"vdop":1.61,"nSat":14,"uSat":10,"satellites":[{"PRN":26,"gnssid":0,"svid":26,"az":293.0,"el":49.0,"ss":46.0,"used":true,"health":1},{"PRN":5,"gnssid":0,"svid":5,"az":83.0,"el":21.0,"ss":44.0,"used":true,"health":1},{"PRN":29,"gnssid":0,"svid":29,"az":67.0,"el":68.0,"ss":48.0,"used":true,"health":1},{"PRN":9,"gnssid":0,"svid":9,"az":353.0,"el":3.0,"ss":25.0,"used":false,"health":1},{"PRN":18,"gnssid":0,"svid":18,"az":176.0,"el":42.0,"ss":45.0,"used":true,"health":1},{"PRN":12,"gnssid":0,"svid":12,"az":118.0,"el":3.0,"ss":0.0,"used":false,"health":1},{"PRN":16,"gnssid":0,"svid":16,"az":296.0,"el":11.0,"ss":29.0,"used":false,"health":1},{"PRN":25,"gnssid":0,"svid":25,"az":125.0,"el":30.0,"ss":40.0,"used":true,"health":1},{"PRN":28,"gnssid":0,"svid":28,"az":216.0,"el":40.0,"ss":38.0,"used":true,"health":1},{"PRN":20,"gnssid":0,"svid":20,"az":53.0,"el":21.0,"ss":45.0,"used":true,"health":1},{"PRN":11,"gnssid":0,"svid":11,"az":36.0,"el":6.0,"ss":39.0,"used":true,"health":1},{"PRN":31,"gnssid":0,"svid":31,"az":260.0,"el":50.0,"ss":40.0,"used":true,"health":1},{"PRN":39,"gnssid":1,"svid":126,"az":0.0,"el":-9.0,"ss":0.0,"used":false,"health":1},{"PRN":4,"gnssid":0,"svid":4,"az":318.0,"el":10.0,"ss":36.0,"used":true,"health":1}]}
{"class":"TPV","device":"/dev/ttyACM0","mode":3,"time":"2024-06-05T06:51:46.998Z","leapseconds":18,"ept":0.005,"lat":52.315829385,"lon":10.562820086,"altHAE":136.0496,"altMSL":92.1519,"alt":92.1519,"epx":8.920,"epy":10.061,"epv":37.030,"track":69.4654,"magtrack":72.6851,"magvar":3.2,"speed":0.009,"climb":0.023,"eps":0.36,"epc":284.72,"ecefx":3841080.55,"ecefy":716259.18,"ecefz":5024470.43,"ecefvx":0.01,"ecefvy":0.01,"ecefvz":0.02,"ecefpAcc":5.02,"ecefvAcc":0.36,"velN":0.003,"velE":0.008,"velD":-0.023,"geoidSep":43.898,"eph":17.670,"sep":35.340}
{"class":"SKY","device":"/dev/ttyACM0","time":"2024-06-05T06:51:46.750Z","gdop":2.09,"hdop":0.93,"pdop":1.86,"tdop":0.95,"xdop":0.59,"ydop":0.67,"vdop":1.61,"uSat":10}
{"class":"SKY","device":"/dev/ttyACM0","time":"2024-06-05T06:51:46.750Z","gdop":2.09,"hdop":0.93,"pdop":1.86,"tdop":0.95,"xdop":0.59,"ydop":0.67,"vdop":1.61,"uSat":10}
{"class":"TPV","device":"/dev/ttyACM0","mode":3,"time":"2024-06-05T06:51:46.998Z","leapseconds":18,"ept":0.005,"lat":52.315829385,"lon":10.562820086,"altHAE":136.0496,"altMSL":92.1519,"alt":92.1519,"epx":8.920,"epy":10.061,"epv":37.030,"track":69.4654,"magtrack":72.6851,"magvar":3.2,"speed":0.009,"climb":0.023,"eps":81.14,"epc":284.72,"ecefx":3841080.55,"ecefy":716259.18,"ecefz":5024470.43,"ecefvx":0.01,"ecefvy":0.01,"ecefvz":0.02,"ecefpAcc":5.02,"ecefvAcc":0.36,"velN":0.003,"velE":0.008,"velD":-0.023,"geoidSep":43.898,"eph":17.670,"sep":35.340}
{"class":"SKY","device":"/dev/ttyACM0","time":"2024-06-05T06:51:46.998Z","gdop":2.09,"hdop":0.93,"pdop":1.86,"tdop":0.95,"xdop":0.59,"ydop":0.67,"vdop":1.61,"nSat":14,"uSat":10,"satellites":[{"PRN":26,"gnssid":0,"svid":26,"az":293.0,"el":49.0,"ss":46.0,"used":true,"health":1},{"PRN":5,"gnssid":0,"svid":5,"az":83.0,"el":21.0,"ss":44.0,"used":true,"health":1},{"PRN":29,"gnssid":0,"svid":29,"az":67.0,"el":68.0,"ss":48.0,"used":true,"health":1},{"PRN":9,"gnssid":0,"svid":9,"az":353.0,"el":3.0,"ss":25.0,"used":false,"health":1},{"PRN":18,"gnssid":0,"svid":18,"az":176.0,"el":42.0,"ss":45.0,"used":true,"health":1},{"PRN":12,"gnssid":0,"svid":12,"az":118.0,"el":3.0,"ss":0.0,"used":false,"health":1},{"PRN":16,"gnssid":0,"svid":16,"az":296.0,"el":11.0,"ss":29.0,"used":false,"health":1},{"PRN":25,"gnssid":0,"svid":25,"az":125.0,"el":30.0,"ss":40.0,"used":true,"health":1},{"PRN":28,"gnssid":0,"svid":28,"az":216.0,"el":40.0,"ss":38.0,"used":true,"health":1},{"PRN":20,"gnssid":0,"svid":20,"az":53.0,"el":21.0,"ss":45.0,"used":true,"health":1},{"PRN":11,"gnssid":0,"svid":11,"az":36.0,"el":6.0,"ss":40.0,"used":true,"health":1},{"PRN":31,"gnssid":0,"svid":31,"az":260.0,"el":50.0,"ss":40.0,"used":true,"health":1},{"PRN":39,"gnssid":1,"svid":126,"az":0.0,"el":-9.0,"ss":0.0,"used":false,"health":1},{"PRN":4,"gnssid":0,"svid":4,"az":318.0,"el":10.0,"ss":36.0,"used":true,"health":1}]}
{"class":"TPV","device":"/dev/ttyACM0","mode":3,"time":"2024-06-05T06:51:47.250Z","leapseconds":18,"ept":0.005,"lat":52.315828931,"lon":10.562820700,"altHAE":136.0634,"altMSL":92.1657,"alt":92.1657,"epx":8.920,"epy":10.061,"epv":37.030,"track":66.7541,"magtrack":69.9739,"magvar":3.2,"speed":0.019,"climb":0.032,"eps":0.35,"epc":293.89,"ecefx":3841080.59,"ecefy":716259.23,"ecefz":5024470.41,"ecefvx":0.01,"ecefvy":0.02,"ecefvz":0.03,"ecefpAcc":5.02,"ecefvAcc":0.35,"velN":0.008,"velE":0.018,"velD":-0.032,"geoidSep":43.898,"eph":17.670,"sep":35.340}
{"class":"SKY","device":"/dev/ttyACM0","time":"2024-06-05T06:51:46.998Z","gdop":2.09,"hdop":0.93,"pdop":1.86,"tdop":0.95,"xdop":0.59,"ydop":0.67,"vdop":1.61,"uSat":10}
{"class":"SKY","device":"/dev/ttyACM0","time":"2024-06-05T06:51:46.998Z","gdop":2.09,"hdop":0.93,"pdop":1.86,"tdop":0.95,"xdop":0.59,"ydop":0.67,"vdop":1.61,"uSat":10}
{"class":"TPV","device":"/dev/ttyACM0","mode":3,"time":"2024-06-05T06:51:47.250Z","leapseconds":18,"ept":0.005,"lat":52.315828931,"lon":10.562820700,"altHAE":136.0634,"altMSL":92.1657,"alt":92.1657,"epx":8.920,"epy":10.061,"epv":37.030,"track":66.7541,"magtrack":69.9739,"magvar":3.2,"speed":0.019,"climb":0.032,"eps":79.85,"epc":293.89,"ecefx":3841080.59,"ecefy":716259.23,"ecefz":5024470.41,"ecefvx":0.01,"ecefvy":0.02,"ecefvz":0.03,"ecefpAcc":5.02,"ecefvAcc":0.35,"velN":0.008,"velE":0.018,"velD":-0.032,"geoidSep":43.898,"eph":17.670,"sep":35.340}
{"class":"SKY","device":"/dev/ttyACM0","time":"2024-06-05T06:51:47.250Z","gdop":2.09,"hdop":0.93,"pdop":1.86,"tdop":0.95,"xdop":0.59,"ydop":0.67,"vdop":1.61,"nSat":14,"uSat":10,"satellites":[{"PRN":26,"gnssid":0,"svid":26,"az":293.0,"el":49.0,"ss":46.0,"used":true,"health":1},{"PRN":5,"gnssid":0,"svid":5,"az":83.0,"el":21.0,"ss":44.0,"used":true,"health":1},{"PRN":29,"gnssid":0,"svid":29,"az":67.0,"el":68.0,"ss":48.0,"used":true,"health":1},{"PRN":9,"gnssid":0,"svid":9,"az":353.0,"el":3.0,"ss":26.0,"used":false,"health":1},{"PRN":18,"gnssid":0,"svid":18,"az":176.0,"el":42.0,"ss":45.0,"used":true,"health":1},{"PRN":12,"gnssid":0,"svid":12,"az":118.0,"el":3.0,"ss":0.0,"used":false,"health":1},{"PRN":16,"gnssid":0,"svid":16,"az":296.0,"el":11.0,"ss":29.0,"used":false,"health":1},{"PRN":25,"gnssid":0,"svid":25,"az":125.0,"el":30.0,"ss":40.0,"used":true,"health":1},{"PRN":28,"gnssid":0,"svid":28,"az":216.0,"el":40.0,"ss":38.0,"used":true,"health":1},{"PRN":20,"gnssid":0,"svid":20,"az":53.0,"el":21.0,"ss":45.0,"used":true,"health":1},{"PRN":11,"gnssid":0,"svid":11,"az":36.0,"el":6.0,"ss":40.0,"used":true,"health":1},{"PRN":31,"gnssid":0,"svid":31,"az":260.0,"el":50.0,"ss":40.0,"used":true,"health":1},{"PRN":39,"gnssid":1,"svid":126,"az":0.0,"el":-9.0,"ss":0.0,"used":false,"health":1},{"PRN":4,"gnssid":0,"svid":4,"az":318.0,"el":10.0,"ss":36.0,"used":true,"health":1}]}
{"class":"TPV","device":"/dev/ttyACM0","mode":3,"time":"2024-06-05T06:51:47.498Z","leapseconds":18,"ept":0.005,"lat":52.315828489,"lon":10.562821169,"altHAE":136.0761,"altMSL":92.1784,"alt":92.1784,"epx":8.920,"epy":10.061,"epv":37.030,"track":350.1515,"magtrack":353.3713,"magvar":3.2,"speed":0.011,"climb":0.030,"eps":0.35,"epc":298.63,"ecefx":3841080.63,"ecefy":716259.27,"ecefz":5024470.39,"ecefvx":0.01,"ecefvy":0.00,"ecefvz":0.03,"ecefpAcc":5.02,"ecefvAcc":0.35,"velN":0.011,"velE":-0.002,"velD":-0.030,"geoidSep":43.898,"eph":17.670,"sep":35.340}
{"class":"SKY","device":"/dev/ttyACM0","time":"2024-06-05T06:51:47.250Z","gdop":2.09,"hdop":0.93,"pdop":1.86,"tdop":0.95,"xdop":0.59,"ydop":0.67,"vdop":1.61,"uSat":10}
{"class":"SKY","device":"/dev/ttyACM0","time":"2024-06-05T06:51:47.250Z","gdop":2.09,"hdop":0.93,"pdop":1.86,"tdop":0.95,"xdop":0.59,"ydop":0.67,"vdop":1.61,"uSat":10}
{"class":"TPV","device":"/dev/ttyACM0","mode":3,"time":"2024-06-05T06:51:47.498Z","leapseconds":18,"ept":0.005,"lat":52.315828489,"lon":10.562821169,"altHAE":136.0761,"altMSL":92.1784,"alt":92.1784,"epx":8.920,"epy":10.061,"epv":37.030,"track":350.1515,"magtrack":353.3713,"magvar":3.2,"speed":0.011,"climb":0.030,"eps":81.14,"epc":298.63,"ecefx":3841080.63,"ecefy":716259.27,"ecefz":5024470.39,"ecefvx":0.01,"ecefvy":0.00,"ecefvz":0.03,"ecefpAcc":5.02,"ecefvAcc":0.35,"velN":0.011,"velE":-0.002,"velD":-0.030,"geoidSep":43.898,"eph":17.670,"sep":35.340}
{"class":"SKY","device":"/dev/ttyACM0","time":"2024-06-05T06:51:47.498Z","gdop":2.09,"hdop":0.93,"pdop":1.86,"tdop":0.95,"xdop":0.59,"ydop":0.67,"vdop":1.61,"nSat":14,"uSat":10,"satellites":[{"PRN":26,"gnssid":0,"svid":26,"az":293.0,"el":49.0,"ss":46.0,"used":true,"health":1},{"PRN":5,"gnssid":0,"svid":5,"az":83.0,"el":21.0,"ss":44.0,"used":true,"health":1},{"PRN":29,"gnssid":0,"svid":29,"az":67.0,"el":68.0,"ss":48.0,"used":true,"health":1},{"PRN":9,"gnssid":0,"svid":9,"az":353.0,"el":3.0,"ss":26.0,"used":false,"health":1},{"PRN":18,"gnssid":0,"svid":18,"az":176.0,"el":42.0,"ss":45.0,"used":true,"health":1},{"PRN":12,"gnssid":0,"svid":12,"az":118.0,"el":3.0,"ss":0.0,"used":false,"health":1},{"PRN":16,"gnssid":0,"svid":16,"az":296.0,"el":11.0,"ss":29.0,"used":false,"health":1},{"PRN":25,"gnssid":0,"svid":25,"az":125.0,"el":30.0,"ss":40.0,"used":true,"health":1},{"PRN":28,"gnssid":0,"svid":28,"az":216.0,"el":40.0,"ss":39.0,"used":true,"health":1},{"PRN":20,"gnssid":0,"svid":20,"az":53.0,"el":21.0,"ss":45.0,"used":true,"health":1},{"PRN":11,"gnssid":0,"svid":11,"az":36.0,"el":6.0,"ss":40.0,"used":true,"health":1},{"PRN":31,"gnssid":0,"svid":31,"az":260.0,"el":50.0,"ss":40.0,"used":true,"health":1},{"PRN":39,"gnssid":1,"svid":126,"az":0.0,"el":-9.0,"ss":0.0,"used":false,"health":1},{"PRN":4,"gnssid":0,"svid":4,"az":318.0,"el":10.0,"ss":36.0,"used":true,"health":1}]}
{"class":"TPV","device":"/dev/ttyACM0","mode":3,"time":"2024-06-05T06:51:47.750Z","leapseconds":18,"ept":0.005,"lat":52.315827964,"lon":10.562821755,"altHAE":136.0959,"altMSL":92.1982,"alt":92.1982,"epx":8.920,"epy":10.061,"epv":37.030,"track":69.4654,"magtrack":72.6851,"magvar":3.2,"speed":0.009,"climb":0.023,"eps":0.34,"epc":293.89,"ecefx":3841080.68,"ecefy":716259.32,"ecefz":5024470.37,"ecefvx":0.01,"ecefvy":0.01,"ecefvz":0.02,"ecefpAcc":5.02,"ecefvAcc":0.34,"velN":0.003,"velE":0.008,"velD":-0.023,"geoidSep":43.898,"eph":17.670,"sep":35.340}
{"class":"SKY","device":"/dev/ttyACM0","time":"2024-06-05T06:51:47.498Z","gdop":2.09,"hdop":0.93,"pdop":1.86,"tdop":0.95,"xdop":0.59,"ydop":0.67,"vdop":1.61,"uSat":10}
{"class":"SKY","device":"/dev/ttyACM0","time":"2024-06-05T06:51:47.498Z","gdop":2.09,"hdop":0.93,"pdop":1.86,"tdop":0.95,"xdop":0.59,"ydop":0.67,"vdop":1.61,"uSat":10}
{"class":"TPV","device":"/dev/ttyACM0","mode":3,"time":"2024-06-05T06:51:47.750Z","leapseconds":18,"ept":0.005,"lat":52.315827964,"lon":10.562821755,"altHAE":136.0959,"altMSL":92.1982,"alt":92.1982,"epx":8.920,"epy":10.061,"epv":37.030,"track":69.4654,"magtrack":72.6851,"magvar":3.2,"speed":0.009,"climb":0.023,"eps":79.85,"epc":293.89,"ecefx":3841080.68,"ecefy":716259.32,"ecefz":5024470.37,"ecefvx":0.01,"ecefvy":0.01,"ecefvz":0.02,"ecefpAcc":5.02,"ecefvAcc":0.34,"velN":0.003,"velE":0.008,"velD":-0.023,"geoidSep":43.898,"eph":17.670,"sep":35.340}
{"class":"SKY","device":"/dev/ttyACM0","time":"2024-06-05T06:51:47.750Z","gdop":2.09,"hdop":0.93,"pdop":1.86,"tdop":0.95,"xdop":0.59,"ydop":0.67,"vdop":1.61,"nSat":14,"uSat":10,"satellites":[{"PRN":26,"gnssid":0,"svid":26,"az":293.0,"el":49.0,"ss":46.0,"used":true,"health":1},{"PRN":5,"gnssid":0,"svid":5,"az":83.0,"el":21.0,"ss":43.0,"used":true,"health":1},{"PRN":29,"gnssid":0,"svid":29,"az":67.0,"el":68.0,"ss":48.0,"used":true,"health":1},{"PRN":9,"gnssid":0,"svid":9,"az":353.0,"el":3.0,"ss":26.0,"used":false,"health":1},{"PRN":18,"gnssid":0,"svid":18,"az":176.0,"el":42.0,"ss":45.0,"used":true,"health":1},{"PRN":12,"gnssid":0,"svid":12,"az":118.0,"el":3.0,"ss":0.0,"used":false,"health":1},{"PRN":16,"gnssid":0,"svid":16,"az":296.0,"el":11.0,"ss":29.0,"used":false,"health":1},{"PRN":25,"gnssid":0,"svid":25,"az":125.0,"el":30.0,"ss":40.0,"used":true,"health":1},{"PRN":28,"gnssid":0,"svid":28,"az":216.0,"el":40.0,"ss":38.0,"used":true,"health":1},{"PRN":20,"gnssid":0,"svid":20,"az":53.0,"el":21.0,"ss":45.0,"used":true,"health":1},{"PRN":11,"gnssid":0,"svid":11,"az":36.0,"el":6.0,"ss":40.0,"used":true,"health":1},{"PRN":31,"gnssid":0,"svid":31,"az":260.0,"el":50.0,"ss":40.0,"used":true,"health":1},{"PRN":39,"gnssid":1,"svid":126,"az":0.0,"el":-9.0,"ss":0.0,"used":false,"health":1},{"PRN":4,"gnssid":0,"svid":4,"az":318.0,"el":10.0,"ss":37.0,"used":true,"health":1}]}
{"class":"TPV","device":"/dev/ttyACM0","mode":3,"time":"2024-06-05T06:51:47.998Z","leapseconds":18,"ept":0.005,"lat":52.315827523,"lon":10.562822224,"altHAE":136.1086,"altMSL":92.2109,"alt":92.2109,"epx":8.920,"epy":10.061,"epv":37.030,"track":227.7221,"magtrack":230.9418,"magvar":3.2,"speed":0.002,"climb":0.014,"eps":0.34,"epc":298.63,"ecefx":3841080.72,"ecefy":716259.36,"ecefz":5024470.35,"ecefvx":0.01,"ecefvy":0.00,"ecefvz":0.01,"ecefpAcc":5.02,"ecefvAcc":0.34,"velN":-0.002,"velE":-0.002,"velD":-0.014,"geoidSep":43.898,"eph":17.670,"sep":35.340}
{"class":"SKY","device":"/dev/ttyACM0","time":"2024-06-05T06:51:47.750Z","gdop":2.09,"hdop":0.93,"pdop":1.86,"tdop":0.95,"xdop":0.59,"ydop":0.67,"vdop":1.61,"uSat":10}
{"class":"SKY","device":"/dev/ttyACM0","time":"2024-06-05T06:51:47.750Z","gdop":2.09,"hdop":0.93,"pdop":1.86,"tdop":0.95,"xdop":0.59,"ydop":0.67,"vdop":1.61,"uSat":10}
{"class":"TPV","device":"/dev/ttyACM0","mode":3,"time":"2024-06-05T06:51:47.998Z","leapseconds":18,"ept":0.005,"lat":52.315827523,"lon":10.562822224,"altHAE":136.1086,"altMSL":92.2109,"alt":92.2109,"epx":8.920,"epy":10.061,"epv":37.030,"track":227.7221,"magtrack":230.9418,"magvar":3.2,"speed":0.002,"climb":0.014,"eps":81.14,"epc":298.63,"ecefx":3841080.72,"ecefy":716259.36,"ecefz":5024470.35,"ecefvx":0.01,"ecefvy":0.00,"ecefvz":0.01,"ecefpAcc":5.02,"ecefvAcc":0.34,"velN":-0.002,"velE":-0.002,"velD":-0.014,"geoidSep":43.898,"eph":17.670,"sep":35.340}
{"class":"SKY","device":"/dev/ttyACM0","time":"2024-06-05T06:51:47.998Z","gdop":2.09,"hdop":0.93,"pdop":1.86,"tdop":0.95,"xdop":0.59,"ydop":0.67,"vdop":1.61,"nSat":14,"uSat":10,"satellites":[{"PRN":26,"gnssid":0,"svid":26,"az":293.0,"el":49.0,"ss":46.0,"used":true,"health":1},{"PRN":5,"gnssid":0,"svid":5,"az":83.0,"el":21.0,"ss":43.0,"used":true,"health":1},{"PRN":29,"gnssid":0,"svid":29,"az":67.0,"el":68.0,"ss":48.0,"used":true,"health":1},{"PRN":9,"gnssid":0,"svid":9,"az":353.0,"el":3.0,"ss":26.0,"used":false,"health":1},{"PRN":18,"gnssid":0,"svid":18,"az":176.0,"el":42.0,"ss":45.0,"used":true,"health":1},{"PRN":12,"gnssid":0,"svid":12,"az":118.0,"el":3.0,"ss":0.0,"used":false,"health":1},{"PRN":16,"gnssid":0,"svid":16,"az":296.0,"el":11.0,"ss":29.0,"used":false,"health":1},{"PRN":25,"gnssid":0,"svid":25,"az":125.0,"el":30.0,"ss":40.0,"used":true,"health":1},{"PRN":28,"gnssid":0,"svid":28,"az":216.0,"el":40.0,"ss":38.0,"used":true,"health":1},{"PRN":20,"gnssid":0,"svid":20,"az":53.0,"el":21.0,"ss":45.0,"used":true,"health":1},{"PRN":11,"gnssid":0,"svid":11,"az":36.0,"el":6.0,"ss":40.0,"used":true,"health":1},{"PRN":31,"gnssid":0,"svid":31,"az":260.0,"el":50.0,"ss":40.0,"used":true,"health":1},{"PRN":39,"gnssid":1,"svid":126,"az":0.0,"el":-9.0,"ss":0.0,"used":false,"health":1},{"PRN":4,"gnssid":0,"svid":4,"az":318.0,"el":10.0,"ss":37.0,"used":true,"health":1}]}
{"class":"TPV","device":"/dev/ttyACM0","mode":3,"time":"2024-06-05T06:51:48.250Z","leapseconds":18,"ept":0.005,"lat":52.315826956,"lon":10.562822666,"altHAE":136.1194,"altMSL":92.2217,"alt":92.2217,"epx":8.920,"epy":10.061,"epv":37.030,"track":0.0000,"magtrack":3.2198,"magvar":3.2,"speed":0.006,"climb":0.008,"eps":0.33,"epc":293.89,"ecefx":3841080.77,"ecefy":716259.40,"ecefz":5024470.32,"ecefvx":0.00,"ecefvy":0.00,"ecefvz":0.01,"ecefpAcc":5.02,"ecefvAcc":0.33,"velN":0.006,"velE":0.000,"velD":-0.008,"geoidSep":43.898,"eph":17.670,"sep":35.340}
{"class":"SKY","device":"/dev/ttyACM0","time":"2024-06-05T06:51:47.998Z","gdop":2.09,"hdop":0.93,"pdop":1.86,"tdop":0.95,"xdop":0.59,"ydop":0.67,"vdop":1.61,"uSat":10}
{"class":"SKY","device":"/dev/ttyACM0","time":"2024-06-05T06:51:47.998Z","gdop":2.09,"hdop":0.93,"pdop":1.86,"tdop":0.95,"xdop":0.59,"ydop":0.67,"vdop":1.61,"uSat":10}
{"class":"TPV","device":"/dev/ttyACM0","mode":3,"time":"2024-06-05T06:51:48.250Z","leapseconds":18,"ept":0.005,"lat":52.315826956,"lon":10.562822666,"altHAE":136.1194,"altMSL":92.2217,"alt":92.2217,"epx":8.920,"epy":10.061,"epv":37.030,"track":0.0000,"magtrack":3.2198,"magvar":3.2,"speed":0.006,"climb":0.008,"eps":79.85,"epc":293.89,"ecefx":3841080.77,"ecefy":716259.40,"ecefz":5024470.32,"ecefvx":0.00,"ecefvy":0.00,"ecefvz":0.01,"ecefpAcc":5.02,"ecefvAcc":0.33,"velN":0.006,"velE":0.000,"velD":-0.008,"geoidSep":43.898,"eph":17.670,"sep":35.340}
{"class":"SKY","device":"/dev/ttyACM0","time":"2024-06-05T06:51:48.250Z","gdop":2.09,"hdop":0.93,"pdop":1.86,"tdop":0.95,"xdop":0.59,"ydop":0.67,"vdop":1.61,"nSat":14,"uSat":10,"satellites":[{"PRN":26,"gnssid":0,"svid":26,"az":293.0,"el":49.0,"ss":46.0,"used":true,"health":1},{"PRN":5,"gnssid":0,"svid":5,"az":83.0,"el":21.0,"ss":43.0,"used":true,"health":1},{"PRN":29,"gnssid":0,"svid":29,"az":67.0,"el":68.0,"ss":48.0,"used":true,"health":1},{"PRN":9,"gnssid":0,"svid":9,"az":353.0,"el":3.0,"ss":26.0,"used":false,"health":1},{"PRN":18,"gnssid":0,"svid":18,"az":176.0,"el":42.0,"ss":45.0,"used":true,"health":1},{"PRN":12,"gnssid":0,"svid":12,"az":118.0,"el":3.0,"ss":0.0,"used":false,"health":1},{"PRN":16,"gnssid":0,"svid":16,"az":296.0,"el":11.0,"ss":29.0,"used":false,"health":1},{"PRN":25,"gnssid":0,"svid":25,"az":125.0,"el":30.0,"ss":40.0,"used":true,"health":1},{"PRN":28,"gnssid":0,"svid":28,"az":216.0,"el":40.0,"ss":38.0,"used":true,"health":1},{"PRN":20,"gnssid":0,"svid":20,"az":53.0,"el":21.0,"ss":45.0,"used":true,"health":1},{"PRN":11,"gnssid":0,"svid":11,"az":36.0,"el":6.0,"ss":40.0,"used":true,"health":1},{"PRN":31,"gnssid":0,"svid":31,"az":260.0,"el":50.0,"ss":40.0,"used":true,"health":1},{"PRN":39,"gnssid":1,"svid":126,"az":0.0,"el":-9.0,"ss":0.0,"used":false,"health":1},{"PRN":4,"gnssid":0,"svid":4,"az":318.0,"el":10.0,"ss":37.0,"used":true,"health":1}]}
{"class":"TPV","device":"/dev/ttyACM0","mode":3,"time":"2024-06-05T06:51:48.498Z","leapseconds":18,"ept":0.005,"lat":52.315826514,"lon":10.562823136,"altHAE":136.1321,"altMSL":92.2344,"alt":92.2344,"epx":8.920,"epy":10.061,"epv":37.030,"track":69.4654,"magtrack":72.6851,"magvar":3.2,"speed":0.009,"climb":0.023,"eps":0.33,"epc":298.63,"ecefx":3841080.81,"ecefy":716259.44,"ecefz":5024470.30,"ecefvx":0.01,"ecefvy":0.01,"ecefvz":0.02,"ecefpAcc":5.02,"ecefvAcc":0.33,"velN":0.003,"velE":0.008,"velD":-0.023,"geoidSep":43.898,"eph":17.670,"sep":35.340}
{"class":"SKY","device":"/dev/ttyACM0","time":"2024-06-05T06:51:48.250Z","gdop":2.09,"hdop":0.93,"pdop":1.86,"tdop":0.95,"xdop":0.59,"ydop":0.67,"vdop":1.61,"uSat":10}
{"class":"SKY","device":"/dev/ttyACM0","time":"2024-06-05T06:51:48.250Z","gdop":2.09,"hdop":0.93,"pdop":1.86,"tdop":0.95,"xdop":0.59,"ydop":0.67,"vdop":1.61,"uSat":10}
{"class":"TPV","device":"/dev/ttyACM0","mode":3,"time":"2024-06-05T06:51:48.498Z","leapseconds":18,"ept":0.005,"lat":52.315826514,"lon":10.562823136,"altHAE":136.1321,"altMSL":92.2344,"alt":92.2344,"epx":8.920,"epy":10.061,"epv":37.030,"track":69.4654,"magtrack":72.6851,"magvar":3.2,"speed":0.009,"climb":0.023,"eps":81.14,"epc":298.63,"ecefx":3841080.81,"ecefy":716259.44,"ecefz":5024470.30,"ecefvx":0.01,"ecefvy":0.01,"ecefvz":0.02,"ecefpAcc":5.02,"ecefvAcc":0.33,"velN":0.003,"velE":0.008,"velD":-0.023,"geoidSep":43.898,"eph":17.670,"sep":35.340}
{"class":"SKY","device":"/dev/ttyACM0","time":"2024-06-05T06:51:48.498Z","gdop":2.09,"hdop":0.93,"pdop":1.86,"tdop":0.95,"xdop":0.59,"ydop":0.67,"vdop":1.61,"nSat":14,"uSat":10,"satellites":[{"PRN":26,"gnssid":0,"svid":26,"az":293.0,"el":49.0,"ss":46.0,"used":true,"health":1},{"PRN":5,"gnssid":0,"svid":5,"az":83.0,"el":21.0,"ss":43.0,"used":true,"health":1},{"PRN":29,"gnssid":0,"svid":29,"az":67.0,"el":68.0,"ss":48.0,"used":true,"health":1},{"PRN":9,"gnssid":0,"svid":9,"az":353.0,"el":3.0,"ss":25.0,"used":false,"health":1},{"PRN":18,"gnssid":0,"svid":18,"az":176.0,"el":42.0,"ss":45.0,"used":true,"health":1},{"PRN":12,"gnssid":0,"svid":12,"az":118.0,"el":3.0,"ss":0.0,"used":false,"health":1},{"PRN":16,"gnssid":0,"svid":16,"az":296.0,"el":11.0,"ss":29.0,"used":false,"health":1},{"PRN":25,"gnssid":0,"svid":25,"az":125.0,"el":30.0,"ss":40.0,"used":true,"health":1},{"PRN":28,"gnssid":0,"svid":28,"az":216.0,"el":40.0,"ss":38.0,"used":true,"health":1},{"PRN":20,"gnssid":0,"svid":20,"az":53.0,"el":21.0,"ss":45.0,"used":true,"health":1},{"PRN":11,"gnssid":0,"svid":11,"az":36.0,"el":6.0,"ss":40.0,"used":true,"health":1},{"PRN":31,"gnssid":0,"svid":31,"az":260.0,"el":50.0,"ss":40.0,"used":true,"health":1},{"PRN":39,"gnssid":1,"svid":126,"az":0.0,"el":-9.0,"ss":0.0,"used":false,"health":1},{"PRN":4,"gnssid":0,"svid":4,"az":318.0,"el":10.0,"ss":37.0,"used":true,"health":1}]}
{"class":"TPV","device":"/dev/ttyACM0","mode":3,"time":"2024-06-05T06:51:48.750Z","leapseconds":18,"ept":0.005,"lat":52.315825990,"lon":10.562823722,"altHAE":136.1519,"altMSL":92.2542,"alt":92.2542,"epx":8.920,"epy":10.061,"epv":37.030,"track":278.3948,"magtrack":281.6145,"magvar":3.2,"speed":0.010,"climb":-0.001,"eps":0.33,"epc":293.89,"ecefx":3841080.86,"ecefy":716259.49,"ecefz":5024470.28,"ecefvx":0.00,"ecefvy":-0.01,"ecefvz":0.00,"ecefpAcc":5.02,"ecefvAcc":0.33,"velN":0.001,"velE":-0.010,"velD":0.001,"geoidSep":43.898,"eph":17.670,"sep":35.340}
{"class":"SKY","device":"/dev/ttyACM0","time":"2024-06-05T06:51:48.498Z","gdop":2.09,"hdop":0.93,"pdop":1.86,"tdop":0.95,"xdop":0.59,"ydop":0.67,"vdop":1.61,"uSat":10}
{"class":"SKY","device":"/dev/ttyACM0","time":"2024-06-05T06:51:48.498Z","gdop":2.09,"hdop":0.93,"pdop":1.86,"tdop":0.95,"xdop":0.59,"ydop":0.67,"vdop":1.61,"uSat":10}
{"class":"TPV","device":"/dev/ttyACM0","mode":3,"time":"2024-06-05T06:51:48.750Z","leapseconds":18,"ept":0.005,"lat":52.315825990,"lon":10.562823722,"altHAE":136.1519,"altMSL":92.2542,"alt":92.2542,"epx":8.920,"epy":10.061,"epv":37.030,"track":278.3948,"magtrack":281.6145,"magvar":3.2,"speed":0.010,"climb":-0.001,"eps":79.85,"epc":293.89,"ecefx":3841080.86,"ecefy":716259.49,"ecefz":5024470.28,"ecefvx":0.00,"ecefvy":-0.01,"ecefvz":0.00,"ecefpAcc":5.02,"ecefvAcc":0.33,"velN":0.001,"velE":-0.010,"velD":0.001,"geoidSep":43.898,"eph":17.670,"sep":35.340}
{"class":"SKY","device":"/dev/ttyACM0","time":"2024-06-05T06:51:48.750Z","gdop":2.09,"hdop":0.93,"pdop":1.86,"tdop":0.95,"xdop":0.59,"ydop":0.67,"vdop":1.61,"nSat":14,"uSat":10,"satellites":[{"PRN":26,"gnssid":0,"svid":26,"az":293.0,"el":49.0,"ss":46.0,"used":true,"health":1},{"PRN":5,"gnssid":0,"svid":5,"az":83.0,"el":21.0,"ss":43.0,"used":true,"health":1},{"PRN":29,"gnssid":0,"svid":29,"az":67.0,"el":68.0,"ss":48.0,"used":true,"health":1},{"PRN":9,"gnssid":0,"svid":9,"az":353.0,"el":3.0,"ss":25.0,"used":false,"health":1},{"PRN":18,"gnssid":0,"svid":18,"az":176.0,"el":42.0,"ss":44.0,"used":true,"health":1},{"PRN":12,"gnssid":0,"svid":12,"az":118.0,"el":3.0,"ss":0.0,"used":false,"health":1},{"PRN":16,"gnssid":0,"svid":16,"az":296.0,"el":11.0,"ss":29.0,"used":false,"health":1},{"PRN":25,"gnssid":0,"svid":25,"az":125.0,"el":30.0,"ss":40.0,"used":true,"health":1},{"PRN":28,"gnssid":0,"svid":28,"az":216.0,"el":40.0,"ss":38.0,"used":true,"health":1},{"PRN":20,"gnssid":0,"svid":20,"az":53.0,"el":21.0,"ss":45.0,"used":true,"health":1},{"PRN":11,"gnssid":0,"svid":11,"az":36.0,"el":6.0,"ss":40.0,"used":true,"health":1},{"PRN":31,"gnssid":0,"svid":31,"az":260.0,"el":50.0,"ss":40.0,"used":true,"health":1},{"PRN":39,"gnssid":1,"svid":126,"az":0.0,"el":-9.0,"ss":0.0,"used":false,"health":1},{"PRN":4,"gnssid":0,"svid":4,"az":318.0,"el":10.0,"ss":37.0,"used":true,"health":1}]}
{"class":"TPV","device":"/dev/ttyACM0","mode":3,"time":"2024-06-05T06:51:48.998Z","leapseconds":18,"ept":0.005,"lat":52.315825478,"lon":10.562824164,"altHAE":136.1706,"altMSL":92.2729,"alt":92.2729,"epx":8.920,"epy":10.061,"epv":37.030,"track":47.7221,"magtrack":50.9419,"magvar":3.2,"speed":0.002,"climb":-0.014,"eps":0.33,"epc":298.63,"ecefx":3841080.91,"ecefy":716259.53,"ecefz":5024470.26,"ecefvx":-0.01,"ecefvy":0.00,"ecefvz":-0.01,"ecefpAcc":5.02,"ecefvAcc":0.33,"velN":0.002,"velE":0.002,"velD":0.014,"geoidSep":43.898,"eph":17.670,"sep":35.340}
{"class":"SKY","device":"/dev/ttyACM0","time":"2024-06-05T06:51:48.750Z","gdop":2.09,"hdop":0.93,"pdop":1.86,"tdop":0.95,"xdop":0.59,"ydop":0.67,"vdop":1.61,"uSat":10}
{"class":"SKY","device":"/dev/ttyACM0","time":"2024-06-05T06:51:48.750Z","gdop":2.09,"hdop":0.93,"pdop":1.86,"tdop":0.95,"xdop":0.59,"ydop":0.67,"vdop":1.61,"uSat":10}
{"class":"TPV","device":"/dev/ttyACM0","mode":3,"time":"2024-06-05T06:51:48.998Z","leapseconds":18,"ept":0.005,"lat":52.315825478,"lon":10.562824164,"altHAE":136.1706,"altMSL":92.2729,"alt":92.2729,"epx":8.920,"epy":10.061,"epv":37.030,"track":47.7221,"magtrack":50.9419,"magvar":3.2,"speed":0.002,"climb":-0.014,"eps":81.14,"epc":298.63,"ecefx":3841080.91,"ecefy":716259.53,"ecefz":5024470.26,"ecefvx":-0.01,"ecefvy":0.00,"ecefvz":-0.01,"ecefpAcc":5.02,"ecefvAcc":0.33,"velN":0.002,"velE":0.002,"velD":0.014,"geoidSep":43.898,"eph":17.670,"sep":35.340}
{"class":"SKY","device":"/dev/ttyACM0","time":"2024-06-05T06:51:48.998Z","gdop":2.09,"hdop":0.93,"pdop":1.86,"tdop":0.95,"xdop":0.59,"ydop":0.67,"vdop":1.61,"nSat":14,"uSat":10,"satellites":[{"PRN":26,"gnssid":0,"svid":26,"az":293.0,"el":49.0,"ss":46.0,"used":true,"health":1},{"PRN":5,"gnssid":0,"svid":5,"az":83.0,"el":21.0,"ss":43.0,"used":true,"health":1},{"PRN":29,"gnssid":0,"svid":29,"az":67.0,"el":68.0,"ss":48.0,"used":true,"health":1},{"PRN":9,"gnssid":0,"svid":9,"az":353.0,"el":3.0,"ss":26.0,"used":false,"health":1},{"PRN":18,"gnssid":0,"svid":18,"az":176.0,"el":42.0,"ss":44.0,"used":true,"health":1},{"PRN":12,"gnssid":0,"svid":12,"az":118.0,"el":3.0,"ss":0.0,"used":false,"health":1},{"PRN":16,"gnssid":0,"svid":16,"az":296.0,"el":11.0,"ss":29.0,"used":false,"health":1},{"PRN":25,"gnssid":0,"svid":25,"az":125.0,"el":30.0,"ss":40.0,"used":true,"health":1},{"PRN":28,"gnssid":0,"svid":28,"az":216.0,"el":40.0,"ss":38.0,"used":true,"health":1},{"PRN":20,"gnssid":0,"svid":20,"az":53.0,"el":21.0,"ss":45.0,"used":true,"health":1},{"PRN":11,"gnssid":0,"svid":11,"az":36.0,"el":6.0,"ss":40.0,"used":true,"health":1},{"PRN":31,"gnssid":0,"svid":31,"az":260.0,"el":50.0,"ss":40.0,"used":true,"health":1},{"PRN":39,"gnssid":1,"svid":126,"az":0.0,"el":-9.0,"ss":0.0,"used":false,"health":1},{"PRN":4,"gnssid":0,"svid":4,"az":318.0,"el":10.0,"ss":37.0,"used":true,"health":1}]}
{"class":"TPV","device":"/dev/ttyACM0","mode":3,"time":"2024-06-05T06:51:49.250Z","leapseconds":18,"ept":0.005,"lat":52.315824884,"lon":10.562824724,"altHAE":136.1964,"altMSL":92.2988,"alt":92.2988,"epx":8.920,"epy":10.061,"epv":37.030,"track":152.4706,"magtrack":155.6903,"magvar":3.2,"speed":0.017,"climb":-0.001,"eps":0.32,"epc":293.89,"ecefx":3841080.97,"ecefy":716259.58,"ecefz":5024470.24,"ecefvx":0.01,"ecefvy":0.01,"ecefvz":-0.01,"ecefpAcc":5.02,"ecefvAcc":0.32,"velN":-0.015,"velE":0.008,"velD":0.001,"geoidSep":43.898,"eph":17.670,"sep":35.340}
{"class":"SKY","device":"/dev/ttyACM0","time":"2024-06-05T06:51:48.998Z","gdop":2.09,"hdop":0.93,"pdop":1.86,"tdop":0.95,"xdop":0.59,"ydop":0.67,"vdop":1.61,"uSat":10}
{"class":"SKY","device":"/dev/ttyACM0","time":"2024-06-05T06:51:48.998Z","gdop":2.09,"hdop":0.93,"pdop":1.86,"tdop":0.95,"xdop":0.59,"ydop":0.67,"vdop":1.61,"uSat":10}
{"class":"TPV","device":"/dev/ttyACM0","mode":3,"time":"2024-06-05T06:51:49.250Z","leapseconds":18,"ept":0.005,"lat":52.315824884,"lon":10.562824724,"altHAE":136.1964,"altMSL":92.2988,"alt":92.2988,"epx":8.920,"epy":10.061,"epv":37.030,"track":152.4706,"magtrack":155.6903,"magvar":3.2,"speed":0.017,"climb":-0.001,"eps":79.85,"epc":293.89,"ecefx":3841080.97,"ecefy":716259.58,"ecefz":5024470.24,"ecefvx":0.01,"ecefvy":0.01,"ecefvz":-0.01,"ecefpAcc":5.02,"ecefvAcc":0.32,"velN":-0.015,"velE":0.008,"velD":0.001,"geoidSep":43.898,"eph":17.670,"sep":35.340}
{"class":"SKY","device":"/dev/ttyACM0","time":"2024-06-05T06:51:49.250Z","gdop":2.09,"hdop":0.93,"pdop":1.86,"tdop":0.95,"xdop":0.59,"ydop":0.67,"vdop":1.61,"nSat":14,"uSat":10,"satellites":[{"PRN":26,"gnssid":0,"svid":26,"az":293.0,"el":49.0,"ss":46.0,"used":true,"health":1},{"PRN":5,"gnssid":0,"svid":5,"az":83.0,"el":21.0,"ss":43.0,"used":true,"health":1},{"PRN":29,"gnssid":0,"svid":29,"az":67.0,"el":68.0,"ss":48.0,"used":true,"health":1},{"PRN":9,"gnssid":0,"svid":9,"az":353.0,"el":3.0,"ss":26.0,"used":false,"health":1},{"PRN":18,"gnssid":0,"svid":18,"az":176.0,"el":42.0,"ss":45.0,"used":true,"health":1},{"PRN":12,"gnssid":0,"svid":12,"az":118.0,"el":3.0,"ss":0.0,"used":false,"health":1},{"PRN":16,"gnssid":0,"svid":16,"az":296.0,"el":11.0,"ss":28.0,"used":false,"health":1},{"PRN":25,"gnssid":0,"svid":25,"az":125.0,"el":30.0,"ss":40.0,"used":true,"health":1},{"PRN":28,"gnssid":0,"svid":28,"az":216.0,"el":40.0,"ss":38.0,"used":true,"health":1},{"PRN":20,"gnssid":0,"svid":20,"az":53.0,"el":21.0,"ss":45.0,"used":true,"health":1},{"PRN":11,"gnssid":0,"svid":11,"az":36.0,"el":6.0,"ss":40.0,"used":true,"health":1},{"PRN":31,"gnssid":0,"svid":31,"az":260.0,"el":50.0,"ss":40.0,"used":true,"health":1},{"PRN":44,"gnssid":1,"svid":131,"az":0.0,"el":-9.0,"ss":0.0,"used":false,"health":1},{"PRN":4,"gnssid":0,"svid":4,"az":318.0,"el":10.0,"ss":37.0,"used":true,"health":1}]}
{"class":"TPV","device":"/dev/ttyACM0","mode":3,"time":"2024-06-05T06:51:49.498Z","leapseconds":18,"ept":0.005,"lat":52.315824372,"lon":10.562825166,"altHAE":136.2151,"altMSL":92.3175,"alt":92.3175,"epx":8.920,"epy":10.061,"epv":37.030,"track":332.4706,"magtrack":335.6903,"magvar":3.2,"speed":0.017,"climb":0.001,"eps":0.32,"epc":298.63,"ecefx":3841081.02,"ecefy":716259.62,"ecefz":5024470.22,"ecefvx":-0.01,"ecefvy":-0.01,"ecefvz":0.01,"ecefpAcc":5.02,"ecefvAcc":0.32,"velN":0.015,"velE":-0.008,"velD":-0.001,"geoidSep":43.898,"eph":17.670,"sep":35.340}
{"class":"SKY","device":"/dev/ttyACM0","time":"2024-06-05T06:51:49.250Z","gdop":2.09,"hdop":0.93,"pdop":1.86,"tdop":0.95,"xdop":0.59,"ydop":0.67,"vdop":1.61,"uSat":10}
{"class":"SKY","device":"/dev/ttyACM0","time":"2024-06-05T06:51:49.250Z","gdop":2.09,"hdop":0.93,"pdop":1.86,"tdop":0.95,"xdop":0.59,"ydop":0.67,"vdop":1.61,"uSat":10}
{"class":"TPV","device":"/dev/ttyACM0","mode":3,"time":"2024-06-05T06:51:49.498Z","leapseconds":18,"ept":0.005,"lat":52.315824372,"lon":10.562825166,"altHAE":136.2151,"altMSL":92.3175,"alt":92.3175,"epx":8.920,"epy":10.061,"epv":37.030,"track":332.4706,"magtrack":335.6903,"magvar":3.2,"speed":0.017,"climb":0.001,"eps":81.14,"epc":298.63,"ecefx":3841081.02,"ecefy":716259.62,"ecefz":5024470.22,"ecefvx":-0.01,"ecefvy":-0.01,"ecefvz":0.01,"ecefpAcc":5.02,"ecefvAcc":0.32,"velN":0.015,"velE":-0.008,"velD":-0.001,"geoidSep":43.898,"eph":17.670,"sep":35.340}
{"class":"SKY","device":"/dev/ttyACM0","time":"2024-06-05T06:51:49.498Z","gdop":2.09,"hdop":0.93,"pdop":1.86,"tdop":0.95,"xdop":0.59,"ydop":0.67,"vdop":1.61,"nSat":14,"uSat":10,"satellites":[{"PRN":26,"gnssid":0,"svid":26,"az":293.0,"el":49.0,"ss":46.0,"used":true,"health":1},{"PRN":5,"gnssid":0,"svid":5,"az":83.0,"el":21.0,"ss":43.0,"used":true,"health":1},{"PRN":29,"gnssid":0,"svid":29,"az":67.0,"el":68.0,"ss":48.0,"used":true,"health":1},{"PRN":9,"gnssid":0,"svid":9,"az":353.0,"el":3.0,"ss":26.0,"used":false,"health":1},{"PRN":18,"gnssid":0,"svid":18,"az":176.0,"el":42.0,"ss":44.0,"used":true,"health":1},{"PRN":12,"gnssid":0,"svid":12,"az":118.0,"el":3.0,"ss":0.0,"used":false,"health":1},{"PRN":16,"gnssid":0,"svid":16,"az":296.0,"el":11.0,"ss":29.0,"used":false,"health":1},{"PRN":25,"gnssid":0,"svid":25,"az":125.0,"el":30.0,"ss":40.0,"used":true,"health":1},{"PRN":28,"gnssid":0,"svid":28,"az":216.0,"el":40.0,"ss":38.0,"used":true,"health":1},{"PRN":20,"gnssid":0,"svid":20,"az":53.0,"el":21.0,"ss":45.0,"used":true,"health":1},{"PRN":11,"gnssid":0,"svid":11,"az":36.0,"el":6.0,"ss":40.0,"used":true,"health":1},{"PRN":31,"gnssid":0,"svid":31,"az":260.0,"el":50.0,"ss":40.0,"used":true,"health":1},{"PRN":44,"gnssid":1,"svid":131,"az":0.0,"el":-9.0,"ss":0.0,"used":false,"health":1},{"PRN":4,"gnssid":0,"svid":4,"az":318.0,"el":10.0,"ss":37.0,"used":true,"health":1}]}
{"class":"TPV","device":"/dev/ttyACM0","mode":3,"time":"2024-06-05T06:51:49.750Z","leapseconds":18,"ept":0.005,"lat":52.315823818,"lon":10.562825464,"altHAE":136.2248,"altMSL":92.3271,"alt":92.3271,"epx":8.920,"epy":10.061,"epv":37.030,"track":258.3050,"magtrack":261.5248,"magvar":3.2,"speed":0.064,"climb":-0.003,"eps":0.32,"epc":293.89,"ecefx":3841081.07,"ecefy":716259.65,"ecefz":5024470.19,"ecefvx":0.02,"ecefvy":-0.06,"ecefvz":-0.01,"ecefpAcc":5.02,"ecefvAcc":0.32,"velN":-0.013,"velE":-0.063,"velD":0.003,"geoidSep":43.898,"eph":17.670,"sep":35.340}
{"class":"SKY","device":"/dev/ttyACM0","time":"2024-06-05T06:51:49.498Z","gdop":2.09,"hdop":0.93,"pdop":1.86,"tdop":0.95,"xdop":0.59,"ydop":0.67,"vdop":1.61,"uSat":10}
{"class":"SKY","device":"/dev/ttyACM0","time":"2024-06-05T06:51:49.498Z","gdop":2.09,"hdop":0.93,"pdop":1.86,"tdop":0.95,"xdop":0.59,"ydop":0.67,"vdop":1.61,"uSat":10}
{"class":"TPV","device":"/dev/ttyACM0","mode":3,"time":"2024-06-05T06:51:49.750Z","leapseconds":18,"ept":0.005,"lat":52.315823818,"lon":10.562825464,"altHAE":136.2248,"altMSL":92.3271,"alt":92.3271,"epx":8.920,"epy":10.061,"epv":37.030,"track":258.3050,"magtrack":261.5248,"magvar":3.2,"speed":0.064,"climb":-0.003,"eps":79.85,"epc":293.89,"ecefx":3841081.07,"ecefy":716259.65,"ecefz":5024470.19,"ecefvx":0.02,"ecefvy":-0.06,"ecefvz":-0.01,"ecefpAcc":5.02,"ecefvAcc":0.32,"velN":-0.013,"velE":-0.063,"velD":0.003,"geoidSep":43.898,"eph":17.670,"sep":35.340}
{"class":"SKY","device":"/dev/ttyACM0","time":"2024-06-05T06:51:49.750Z","gdop":2.09,"hdop":0.93,"pdop":1.86,"tdop":0.95,"xdop":0.59,"ydop":0.67,"vdop":1.61,"nSat":14,"uSat":10,"satellites":[{"PRN":26,"gnssid":0,"svid":26,"az":293.0,"el":49.0,"ss":46.0,"used":true,"health":1},{"PRN":5,"gnssid":0,"svid":5,"az":83.0,"el":21.0,"ss":43.0,"used":true,"health":1},{"PRN":29,"gnssid":0,"svid":29,"az":67.0,"el":68.0,"ss":48.0,"used":true,"health":1},{"PRN":9,"gnssid":0,"svid":9,"az":353.0,"el":3.0,"ss":26.0,"used":false,"health":1},{"PRN":18,"gnssid":0,"svid":18,"az":176.0,"el":42.0,"ss":44.0,"used":true,"health":1},{"PRN":12,"gnssid":0,"svid":12,"az":118.0,"el":3.0,"ss":0.0,"used":false,"health":1},{"PRN":16,"gnssid":0,"svid":16,"az":296.0,"el":11.0,"ss":28.0,"used":false,"health":1},{"PRN":25,"gnssid":0,"svid":25,"az":125.0,"el":30.0,"ss":40.0,"used":true,"health":1},{"PRN":28,"gnssid":0,"svid":28,"az":216.0,"el":40.0,"ss":39.0,"used":true,"health":1},{"PRN":20,"gnssid":0,"svid":20,"az":53.0,"el":21.0,"ss":45.0,"used":true,"health":1},{"PRN":11,"gnssid":0,"svid":11,"az":36.0,"el":6.0,"ss":40.0,"used":true,"health":1},{"PRN":31,"gnssid":0,"svid":31,"az":260.0,"el":50.0,"ss":40.0,"used":true,"health":1},{"PRN":44,"gnssid":1,"svid":131,"az":0.0,"el":-9.0,"ss":0.0,"used":false,"health":1},{"PRN":4,"gnssid":0,"svid":4,"az":318.0,"el":10.0,"ss":38.0,"used":true,"health":1}]}
{"class":"TPV","device":"/dev/ttyACM0","mode":3,"time":"2024-06-05T06:51:49.998Z","leapseconds":18,"ept":0.005,"lat":52.315823303,"lon":10.562825564,"altHAE":136.2691,"altMSL":92.3714,"alt":92.3714,"epx":8.920,"epy":10.061,"epv":37.030,"track":272.4667,"magtrack":275.6864,"magvar":3.2,"speed":0.173,"climb":0.007,"eps":0.32,"epc":298.63,"ecefx":3841081.14,"ecefy":716259.67,"ecefz":5024470.19,"ecefvx":0.03,"ecefvy":-0.17,"ecefvz":0.01,"ecefpAcc":5.02,"ecefvAcc":0.32,"velN":0.007,"velE":-0.173,"velD":-0.007,"geoidSep":43.898,"eph":17.670,"sep":35.340}
{"class":"SKY","device":"/dev/ttyACM0","time":"2024-06-05T06:51:49.750Z","gdop":2.09,"hdop":0.93,"pdop":1.86,"tdop":0.95,"xdop":0.59,"ydop":0.67,"vdop":1.61,"uSat":10}
{"class":"SKY","device":"/dev/ttyACM0","time":"2024-06-05T06:51:49.750Z","gdop":2.09,"hdop":0.93,"pdop":1.86,"tdop":0.95,"xdop":0.59,"ydop":0.67,"vdop":1.61,"uSat":10}
{"class":"TPV","device":"/dev/ttyACM0","mode":3,"time":"2024-06-05T06:51:49.998Z","leapseconds":18,"ept":0.005,"lat":52.315823303,"lon":10.562825564,"altHAE":136.2691,"altMSL":92.3714,"alt":92.3714,"epx":8.920,"epy":10.061,"epv":37.030,"track":272.4667,"magtrack":275.6864,"magvar":3.2,"speed":0.173,"climb":0.007,"eps":81.14,"epc":298.63,"ecefx":3841081.14,"ecefy":716259.67,"ecefz":5024470.19,"ecefvx":0.03,"ecefvy":-0.17,"ecefvz":0.01,"ecefpAcc":5.02,"ecefvAcc":0.32,"velN":0.007,"velE":-0.173,"velD":-0.007,"geoidSep":43.898,"eph":17.670,"sep":35.340}
{"class":"SKY","device":"/dev/ttyACM0","time":"2024-06-05T06:51:49.998Z","gdop":2.09,"hdop":0.93,"pdop":1.86,"tdop":0.95,"xdop":0.59,"ydop":0.67,"vdop":1.61,"nSat":14,"uSat":10,"satellites":[{"PRN":26,"gnssid":0,"svid":26,"az":293.0,"el":49.0,"ss":46.0,"used":true,"health":1},{"PRN":5,"gnssid":0,"svid":5,"az":83.0,"el":21.0,"ss":42.0,"used":true,"health":1},{"PRN":29,"gnssid":0,"svid":29,"az":67.0,"el":68.0,"ss":48.0,"used":true,"health":1},{"PRN":9,"gnssid":0,"svid":9,"az":353.0,"el":3.0,"ss":29.0,"used":false,"health":1},{"PRN":18,"gnssid":0,"svid":18,"az":176.0,"el":42.0,"ss":44.0,"used":true,"health":1},{"PRN":12,"gnssid":0,"svid":12,"az":118.0,"el":3.0,"ss":0.0,"used":false,"health":1},{"PRN":16,"gnssid":0,"svid":16,"az":296.0,"el":11.0,"ss":27.0,"used":false,"health":1},{"PRN":25,"gnssid":0,"svid":25,"az":125.0,"el":30.0,"ss":41.0,"used":true,"health":1},{"PRN":28,"gnssid":0,"svid":28,"az":216.0,"el":40.0,"ss":41.0,"used":true,"health":1},{"PRN":20,"gnssid":0,"svid":20,"az":53.0,"el":21.0,"ss":45.0,"used":true,"health":1},{"PRN":11,"gnssid":0,"svid":11,"az":36.0,"el":6.0,"ss":42.0,"used":true,"health":1},{"PRN":31,"gnssid":0,"svid":31,"az":260.0,"el":50.0,"ss":39.0,"used":true,"health":1},{"PRN":44,"gnssid":1,"svid":131,"az":0.0,"el":-9.0,"ss":0.0,"used":false,"health":1},{"PRN":4,"gnssid":0,"svid":4,"az":318.0,"el":10.0,"ss":37.0,"used":true,"health":1}]}
{"class":"TPV","device":"/dev/ttyACM0","mode":3,"time":"2024-06-05T06:51:50.250Z","leapseconds":18,"ept":0.005,"lat":52.315822893,"lon":10.562824917,"altHAE":136.3296,"altMSL":92.4320,"alt":92.4320,"epx":8.920,"epy":10.061,"epv":37.030,"track":270.5557,"magtrack":273.7755,"magvar":3.2,"speed":0.451,"climb":0.035,"eps":0.31,"epc":293.89,"ecefx":3841081.22,"ecefy":716259.64,"ecefz":5024470.21,"ecefvx":0.10,"ecefvy":-0.44,"ecefvz":0.03,"ecefpAcc":5.01,"ecefvAcc":0.31,"velN":0.004,"velE":-0.451,"velD":-0.035,"geoidSep":43.898,"eph":17.670,"sep":35.340}
{"class":"SKY","device":"/dev/ttyACM0","time":"2024-06-05T06:51:49.998Z","gdop":2.09,"hdop":0.93,"pdop":1.86,"tdop":0.95,"xdop":0.59,"ydop":0.67,"vdop":1.61,"uSat":10}
{"class":"SKY","device":"/dev/ttyACM0","time":"2024-06-05T06:51:49.998Z","gdop":2.09,"hdop":0.93,"pdop":1.86,"tdop":0.95,"xdop":0.59,"ydop":0.67,"vdop":1.61,"uSat":10}
{"class":"TPV","device":"/dev/ttyACM0","mode":3,"time":"2024-06-05T06:51:50.250Z","leapseconds":18,"ept":0.005,"lat":52.315822893,"lon":10.562824917,"altHAE":136.3296,"altMSL":92.4320,"alt":92.4320,"epx":8.920,"epy":10.061,"epv":37.030,"track":270.5557,"magtrack":273.7755,"magvar":3.2,"speed":0.451,"climb":0.035,"eps":79.85,"epc":293.89,"ecefx":3841081.22,"ecefy":716259.64,"ecefz":5024470.21,"ecefvx":0.10,"ecefvy":-0.44,"ecefvz":0.03,"ecefpAcc":5.01,"ecefvAcc":0.31,"velN":0.004,"velE":-0.451,"velD":-0.035,"geoidSep":43.898,"eph":17.670,"sep":35.340}
{"class":"SKY","device":"/dev/ttyACM0","time":"2024-06-05T06:51:50.250Z","gdop":2.09,"hdop":0.93,"pdop":1.86,"tdop":0.95,"xdop":0.59,"ydop":0.67,"vdop":1.61,"nSat":14,"uSat":10,"satellites":[{"PRN":26,"gnssid":0,"svid":26,"az":293.0,"el":49.0,"ss":46.0,"used":true,"health":1},{"PRN":5,"gnssid":0,"svid":5,"az":83.0,"el":21.0,"ss":43.0,"used":true,"health":1},{"PRN":29,"gnssid":0,"svid":29,"az":67.0,"el":68.0,"ss":48.0,"used":true,"health":1},{"PRN":9,"gnssid":0,"svid":9,"az":353.0,"el":3.0,"ss":28.0,"used":false,"health":1},{"PRN":18,"gnssid":0,"svid":18,"az":176.0,"el":42.0,"ss":45.0,"used":true,"health":1},{"PRN":12,"gnssid":0,"svid":12,"az":118.0,"el":3.0,"ss":0.0,"used":false,"health":1},{"PRN":16,"gnssid":0,"svid":16,"az":296.0,"el":11.0,"ss":29.0,"used":false,"health":1},{"PRN":25,"gnssid":0,"svid":25,"az":125.0,"el":30.0,"ss":41.0,"used":true,"health":1},{"PRN":28,"gnssid":0,"svid":28,"az":216.0,"el":40.0,"ss":40.0,"used":true,"health":1},{"PRN":20,"gnssid":0,"svid":20,"az":53.0,"el":21.0,"ss":46.0,"used":true,"health":1},{"PRN":11,"gnssid":0,"svid":11,"az":36.0,"el":6.0,"ss":39.0,"used":true,"health":1},{"PRN":31,"gnssid":0,"svid":31,"az":260.0,"el":50.0,"ss":38.0,"used":true,"health":1},{"PRN":44,"gnssid":1,"svid":131,"az":0.0,"el":-9.0,"ss":0.0,"used":false,"health":1},{"PRN":4,"gnssid":0,"svid":4,"az":318.0,"el":10.0,"ss":37.0,"used":true,"health":1}]}
{"class":"TPV","device":"/dev/ttyACM0","mode":3,"time":"2024-06-05T06:51:50.498Z","leapseconds":18,"ept":0.005,"lat":52.315822503,"lon":10.562822827,"altHAE":136.3631,"altMSL":92.4655,"alt":92.4655,"epx":8.920,"epy":10.061,"epv":37.030,"track":274.0740,"magtrack":277.2938,"magvar":3.2,"speed":0.812,"climb":0.044,"eps":0.31,"epc":298.63,"ecefx":3841081.30,"ecefy":716259.51,"ecefz":5024470.21,"ecefvx":0.13,"ecefvy":-0.80,"ecefvz":0.07,"ecefpAcc":5.01,"ecefvAcc":0.31,"velN":0.058,"velE":-0.810,"velD":-0.044,"geoidSep":43.898,"eph":17.670,"sep":35.340}
{"class":"SKY","device":"/dev/ttyACM0","time":"2024-06-05T06:51:50.250Z","gdop":2.09,"hdop":0.93,"pdop":1.86,"tdop":0.95,"xdop":0.59,"ydop":0.67,"vdop":1.61,"uSat":10}
{"class":"SKY","device":"/dev/ttyACM0","time":"2024-06-05T06:51:50.250Z","gdop":2.09,"hdop":0.93,"pdop":1.86,"tdop":0.95,"xdop":0.59,"ydop":0.67,"vdop":1.61,"uSat":10}
{"class":"TPV","device":"/dev/ttyACM0","mode":3,"time":"2024-06-05T06:51:50.498Z","leapseconds":18,"ept":0.005,"lat":52.315822503,"lon":10.562822827,"altHAE":136.3631,"altMSL":92.4655,"alt":92.4655,"epx":8.920,"epy":10.061,"epv":37.030,"track":274.0740,"magtrack":277.2938,"magvar":3.2,"speed":0.812,"climb":0.044,"eps":81.14,"epc":298.63,"ecefx":3841081.30,"ecefy":716259.51,"ecefz":5024470.21,"ecefvx":0.13,"ecefvy":-0.80,"ecefvz":0.07,"ecefpAcc":5.01,"ecefvAcc":0.31,"velN":0.058,"velE":-0.810,"velD":-0.044,"geoidSep":43.898,"eph":17.670,"sep":35.340}
{"class":"SKY","device":"/dev/ttyACM0","time":"2024-06-05T06:51:50.498Z","gdop":2.09,"hdop":0.93,"pdop":1.86,"tdop":0.95,"xdop":0.59,"ydop":0.67,"vdop":1.61,"nSat":14,"uSat":10,"satellites":[{"PRN":26,"gnssid":0,"svid":26,"az":293.0,"el":49.0,"ss":46.0,"used":true,"health":1},{"PRN":5,"gnssid":0,"svid":5,"az":83.0,"el":21.0,"ss":43.0,"used":true,"health":1},{"PRN":29,"gnssid":0,"svid":29,"az":67.0,"el":68.0,"ss":48.0,"used":true,"health":1},{"PRN":9,"gnssid":0,"svid":9,"az":353.0,"el":3.0,"ss":28.0,"used":false,"health":1},{"PRN":18,"gnssid":0,"svid":18,"az":176.0,"el":42.0,"ss":45.0,"used":true,"health":1},{"PRN":12,"gnssid":0,"svid":12,"az":118.0,"el":3.0,"ss":0.0,"used":false,"health":1},{"PRN":16,"gnssid":0,"svid":16,"az":296.0,"el":11.0,"ss":31.0,"used":false,"health":1},{"PRN":25,"gnssid":0,"svid":25,"az":125.0,"el":30.0,"ss":42.0,"used":true,"health":1},{"PRN":28,"gnssid":0,"svid":28,"az":216.0,"el":40.0,"ss":39.0,"used":true,"health":1},{"PRN":20,"gnssid":0,"svid":20,"az":53.0,"el":21.0,"ss":45.0,"used":true,"health":1},{"PRN":11,"gnssid":0,"svid":11,"az":36.0,"el":6.0,"ss":42.0,"used":true,"health":1},{"PRN":31,"gnssid":0,"svid":31,"az":260.0,"el":50.0,"ss":37.0,"used":true,"health":1},{"PRN":44,"gnssid":1,"svid":131,"az":0.0,"el":-9.0,"ss":0.0,"used":false,"health":1},{"PRN":4,"gnssid":0,"svid":4,"az":318.0,"el":10.0,"ss":38.0,"used":true,"health":1}]}
{"class":"TPV","device":"/dev/ttyACM0","mode":3,"time":"2024-06-05T06:51:50.750Z","leapseconds":18,"ept":0.005,"lat":52.315822335,"lon":10.562819334,"altHAE":136.4660,"altMSL":92.5683,"alt":92.5683,"epx":8.920,"epy":10.061,"epv":37.030,"track":270.6749,"magtrack":273.8947,"magvar":3.2,"speed":1.300,"climb":0.089,"eps":0.31,"epc":293.89,"ecefx":3841081.42,"ecefy":716259.29,"ecefz":5024470.28,"ecefvx":0.28,"ecefvy":-1.27,"ecefvz":0.08,"ecefpAcc":5.01,"ecefvAcc":0.31,"velN":0.015,"velE":-1.300,"velD":-0.089,"geoidSep":43.898,"eph":17.670,"sep":35.340}
{"class":"SKY","device":"/dev/ttyACM0","time":"2024-06-05T06:51:50.498Z","gdop":2.09,"hdop":0.93,"pdop":1.86,"tdop":0.95,"xdop":0.59,"ydop":0.67,"vdop":1.61,"uSat":10}
{"class":"SKY","device":"/dev/ttyACM0","time":"2024-06-05T06:51:50.498Z","gdop":2.09,"hdop":0.93,"pdop":1.86,"tdop":0.95,"xdop":0.59,"ydop":0.67,"vdop":1.61,"uSat":10}
{"class":"TPV","device":"/dev/ttyACM0","mode":3,"time":"2024-06-05T06:51:50.750Z","leapseconds":18,"ept":0.005,"lat":52.315822335,"lon":10.562819334,"altHAE":136.4660,"altMSL":92.5683,"alt":92.5683,"epx":8.920,"epy":10.061,"epv":37.030,"track":270.6749,"magtrack":273.8947,"magvar":3.2,"speed":1.300,"climb":0.089,"eps":79.85,"epc":293.89,"ecefx":3841081.42,"ecefy":716259.29,"ecefz":5024470.28,"ecefvx":0.28,"ecefvy":-1.27,"ecefvz":0.08,"ecefpAcc":5.01,"ecefvAcc":0.31,"velN":0.015,"velE":-1.300,"velD":-0.089,"geoidSep":43.898,"eph":17.670,"sep":35.340}
