{"class":"VERSION","release":"3.25","rev":"3.25","proto_major":3,"proto_minor":15}
{"class":"DEVICES","devices":[{"class":"DEVICE","path":"/dev/ttyACM0","driver":"u-blox","subtype":"SW 5.00    May 11 2006 14:40:17,HW 00040001","subtype1":"M4T1.2  May 11 2006 14:40:17","activated":"2024-06-05T06:45:39.438Z","flags":1,"native":1,"bps":57600,"parity":"N","stopbits":1,"cycle":1.00,"mincycle":0.02}]}
{"class":"WATCH","enable":true,"json":true,"nmea":false,"raw":0,"scaled":false,"timing":false,"split24":false,"pps":false}
{"class":"TPV","device":"/dev/ttyACM0","mode":3,"time":"2024-06-05T06:45:39.501Z","leapseconds":18,"ept":0.005,"lat":52.315811823,"lon":10.562955155,"altHAE":138.0267,"altMSL":94.1291,"alt":94.1291,"epx":8.920,"epy":10.061,"epv":31.740,"track":249.4654,"magtrack":252.6852,"magvar":3.2,"speed":0.009,"climb":-0.023,"eps":0.28,"epc":251.90,"ecefx":3841081.57,"ecefy":716268.74,"ecefz":5024470.80,"ecefvx":-0.01,"ecefvy":-0.01,"ecefvz":-0.02,"ecefpAcc":5.13,"ecefvAcc":0.28,"velN":-0.003,"velE":-0.008,"velD":0.023,"geoidSep":43.898,"eph":16.150,"sep":30.780}
{"class":"SKY","device":"/dev/ttyACM0","time":"2024-06-05T06:45:39.249Z","gdop":1.80,"hdop":0.85,"pdop":1.62,"tdop":0.79,"xdop":0.59,"ydop":0.67,"vdop":1.38,"uSat":10}
{"class":"SKY","device":"/dev/ttyACM0","time":"2024-06-05T06:45:39.249Z","gdop":1.80,"hdop":0.85,"pdop":1.62,"tdop":0.79,"xdop":0.59,"ydop":0.67,"vdop":1.38,"uSat":10}
{"class":"TPV","device":"/dev/ttyACM0","mode":3,"time":"2024-06-05T06:45:39.501Z","leapseconds":18,"ept":0.005,"lat":52.315811823,"lon":10.562955155,"altHAE":138.0267,"altMSL":94.1291,"alt":94.1291,"epx":8.920,"epy":10.061,"epv":31.740,"track":249.4654,"magtrack":252.6852,"magvar":3.2,"speed":0.009,"climb":-0.023,"eps":79.85,"epc":251.90,"ecefx":3841081.57,"ecefy":716268.74,"ecefz":5024470.80,"ecefvx":-0.01,"ecefvy":-0.01,"ecefvz":-0.02,"ecefpAcc":5.13,"ecefvAcc":0.28,"velN":-0.003,"velE":-0.008,"velD":0.023,"geoidSep":43.898,"eph":16.150,"sep":30.780}
{"class":"SKY","device":"/dev/ttyACM0","time":"2024-06-05T06:45:39.501Z","gdop":1.80,"hdop":0.85,"pdop":1.62,"tdop":0.79,"xdop":0.59,"ydop":0.67,"vdop":1.38,"nSat":14,"uSat":11,"satellites":[{"PRN":26,"gnssid":0,"svid":26,"az":293.0,"el":46.0,"ss":43.0,"used":true,"health":1},{"PRN":5,"gnssid":0,"svid":5,"az":86.0,"el":19.0,"ss":44.0,"used":true,"health":1},{"PRN":29,"gnssid":0,"svid":29,"az":67.0,"el":71.0,"ss":49.0,"used":true,"health":1},{"PRN":9,"gnssid":0,"svid":9,"az":355.0,"el":3.0,"ss":35.0,"used":false,"health":1},{"PRN":18,"gnssid":0,"svid":18,"az":176.0,"el":39.0,"ss":43.0,"used":true,"health":1},{"PRN":33,"gnssid":1,"svid":120,"az":0.0,"el":-9.0,"ss":0.0,"used":false,"health":1},{"PRN":16,"gnssid":0,"svid":16,"az":295.0,"el":9.0,"ss":29.0,"used":false,"health":1},{"PRN":25,"gnssid":0,"svid":25,"az":123.0,"el":32.0,"ss":44.0,"used":true,"health":1},{"PRN":28,"gnssid":0,"svid":28,"az":218.0,"el":43.0,"ss":36.0,"used":true,"health":1},{"PRN":20,"gnssid":0,"svid":20,"az":56.0,"el":21.0,"ss":42.0,"used":true,"health":1},{"PRN":11,"gnssid":0,"svid":11,"az":36.0,"el":9.0,"ss":46.0,"used":true,"health":1},{"PRN":31,"gnssid":0,"svid":31,"az":265.0,"el":50.0,"ss":33.0,"used":true,"health":1},{"PRN":12,"gnssid":0,"svid":12,"az":117.0,"el":5.0,"ss":33.0,"used":true,"health":1},{"PRN":4,"gnssid":0,"svid":4,"az":321.0,"el":11.0,"ss":35.0,"used":true,"health":1}]}
{"class":"TPV","device":"/dev/ttyACM0","mode":3,"time":"2024-06-05T06:45:39.749Z","leapseconds":18,"ept":0.005,"lat":52.315811909,"lon":10.562954974,"altHAE":137.9687,"altMSL":94.0712,"alt":94.0712,"epx":8.920,"epy":10.061,"epv":31.740,"track":249.4654,"magtrack":252.6852,"magvar":3.2,"speed":0.009,"climb":-0.023,"eps":0.28,"epc":255.97,"ecefx":3841081.53,"ecefy":716268.72,"ecefz":5024470.76,"ecefvx":-0.01,"ecefvy":-0.01,"ecefvz":-0.02,"ecefpAcc":5.13,"ecefvAcc":0.28,"velN":-0.003,"velE":-0.008,"velD":0.023,"geoidSep":43.898,"eph":16.150,"sep":30.780}
{"class":"SKY","device":"/dev/ttyACM0","time":"2024-06-05T06:45:39.501Z","gdop":1.80,"hdop":0.85,"pdop":1.62,"tdop":0.79,"xdop":0.59,"ydop":0.67,"vdop":1.38,"uSat":10}
{"class":"SKY","device":"/dev/ttyACM0","time":"2024-06-05T06:45:39.501Z","gdop":1.80,"hdop":0.85,"pdop":1.62,"tdop":0.79,"xdop":0.59,"ydop":0.67,"vdop":1.38,"uSat":10}
{"class":"TPV","device":"/dev/ttyACM0","mode":3,"time":"2024-06-05T06:45:39.749Z","leapseconds":18,"ept":0.005,"lat":52.315811909,"lon":10.562954974,"altHAE":137.9687,"altMSL":94.0712,"alt":94.0712,"epx":8.920,"epy":10.061,"epv":31.740,"track":249.4654,"magtrack":252.6852,"magvar":3.2,"speed":0.009,"climb":-0.023,"eps":81.14,"epc":255.97,"ecefx":3841081.53,"ecefy":716268.72,"ecefz":5024470.76,"ecefvx":-0.01,"ecefvy":-0.01,"ecefvz":-0.02,"ecefpAcc":5.13,"ecefvAcc":0.28,"velN":-0.003,"velE":-0.008,"velD":0.023,"geoidSep":43.898,"eph":16.150,"sep":30.780}
{"class":"SKY","device":"/dev/ttyACM0","time":"2024-06-05T06:45:39.749Z","gdop":1.80,"hdop":0.85,"pdop":1.62,"tdop":0.79,"xdop":0.59,"ydop":0.67,"vdop":1.38,"nSat":14,"uSat":11,"satellites":[{"PRN":26,"gnssid":0,"svid":26,"az":293.0,"el":46.0,"ss":43.0,"used":true,"health":1},{"PRN":5,"gnssid":0,"svid":5,"az":86.0,"el":19.0,"ss":44.0,"used":true,"health":1},{"PRN":29,"gnssid":0,"svid":29,"az":67.0,"el":71.0,"ss":49.0,"used":true,"health":1},{"PRN":9,"gnssid":0,"svid":9,"az":355.0,"el":3.0,"ss":35.0,"used":false,"health":1},{"PRN":18,"gnssid":0,"svid":18,"az":176.0,"el":39.0,"ss":43.0,"used":true,"health":1},{"PRN":33,"gnssid":1,"svid":120,"az":0.0,"el":-9.0,"ss":0.0,"used":false,"health":1},{"PRN":16,"gnssid":0,"svid":16,"az":295.0,"el":9.0,"ss":29.0,"used":false,"health":1},{"PRN":25,"gnssid":0,"svid":25,"az":123.0,"el":32.0,"ss":44.0,"used":true,"health":1},{"PRN":28,"gnssid":0,"svid":28,"az":218.0,"el":43.0,"ss":37.0,"used":true,"health":1},{"PRN":20,"gnssid":0,"svid":20,"az":56.0,"el":21.0,"ss":42.0,"used":true,"health":1},{"PRN":11,"gnssid":0,"svid":11,"az":36.0,"el":9.0,"ss":46.0,"used":true,"health":1},{"PRN":31,"gnssid":0,"svid":31,"az":265.0,"el":50.0,"ss":34.0,"used":true,"health":1},{"PRN":12,"gnssid":0,"svid":12,"az":117.0,"el":5.0,"ss":33.0,"used":true,"health":1},{"PRN":4,"gnssid":0,"svid":4,"az":321.0,"el":11.0,"ss":35.0,"used":true,"health":1}]}
{"class":"TPV","device":"/dev/ttyACM0","mode":3,"time":"2024-06-05T06:45:40.001Z","leapseconds":18,"ept":0.005,"lat":52.315811927,"lon":10.562954938,"altHAE":137.9040,"altMSL":94.0064,"alt":94.0064,"epx":8.920,"epy":10.061,"epv":31.740,"track":47.7225,"magtrack":50.9424,"magvar":3.2,"speed":0.002,"climb":-0.014,"eps":0.28,"epc":251.90,"ecefx":3841081.49,"ecefy":716268.71,"ecefz":5024470.71,"ecefvx":-0.01,"ecefvy":0.00,"ecefvz":-0.01,"ecefpAcc":5.13,"ecefvAcc":0.28,"velN":0.002,"velE":0.002,"velD":0.014,"geoidSep":43.898,"eph":16.150,"sep":30.780}
{"class":"SKY","device":"/dev/ttyACM0","time":"2024-06-05T06:45:39.749Z","gdop":1.80,"hdop":0.85,"pdop":1.62,"tdop":0.79,"xdop":0.59,"ydop":0.67,"vdop":1.38,"uSat":10}
{"class":"SKY","device":"/dev/ttyACM0","time":"2024-06-05T06:45:39.749Z","gdop":1.80,"hdop":0.85,"pdop":1.62,"tdop":0.79,"xdop":0.59,"ydop":0.67,"vdop":1.38,"uSat":10}
{"class":"TPV","device":"/dev/ttyACM0","mode":3,"time":"2024-06-05T06:45:40.001Z","leapseconds":18,"ept":0.005,"lat":52.315811927,"lon":10.562954938,"altHAE":137.9040,"altMSL":94.0064,"alt":94.0064,"epx":8.920,"epy":10.061,"epv":31.740,"track":47.7225,"magtrack":50.9424,"magvar":3.2,"speed":0.002,"climb":-0.014,"eps":79.85,"epc":251.90,"ecefx":3841081.49,"ecefy":716268.71,"ecefz":5024470.71,"ecefvx":-0.01,"ecefvy":0.00,"ecefvz":-0.01,"ecefpAcc":5.13,"ecefvAcc":0.28,"velN":0.002,"velE":0.002,"velD":0.014,"geoidSep":43.898,"eph":16.150,"sep":30.780}
{"class":"SKY","device":"/dev/ttyACM0","time":"2024-06-05T06:45:40.001Z","gdop":1.80,"hdop":0.85,"pdop":1.62,"tdop":0.79,"xdop":0.59,"ydop":0.67,"vdop":1.38,"nSat":14,"uSat":11,"satellites":[{"PRN":26,"gnssid":0,"svid":26,"az":293.0,"el":46.0,"ss":43.0,"used":true,"health":1},{"PRN":5,"gnssid":0,"svid":5,"az":86.0,"el":19.0,"ss":44.0,"used":true,"health":1},{"PRN":29,"gnssid":0,"svid":29,"az":67.0,"el":71.0,"ss":49.0,"used":true,"health":1},{"PRN":9,"gnssid":0,"svid":9,"az":355.0,"el":3.0,"ss":35.0,"used":false,"health":1},{"PRN":18,"gnssid":0,"svid":18,"az":176.0,"el":39.0,"ss":43.0,"used":true,"health":1},{"PRN":33,"gnssid":1,"svid":120,"az":0.0,"el":-9.0,"ss":0.0,"used":false,"health":1},{"PRN":16,"gnssid":0,"svid":16,"az":295.0,"el":9.0,"ss":29.0,"used":false,"health":1},{"PRN":25,"gnssid":0,"svid":25,"az":123.0,"el":32.0,"ss":44.0,"used":true,"health":1},{"PRN":28,"gnssid":0,"svid":28,"az":218.0,"el":43.0,"ss":37.0,"used":true,"health":1},{"PRN":20,"gnssid":0,"svid":20,"az":56.0,"el":21.0,"ss":42.0,"used":true,"health":1},{"PRN":11,"gnssid":0,"svid":11,"az":36.0,"el":9.0,"ss":46.0,"used":true,"health":1},{"PRN":31,"gnssid":0,"svid":31,"az":265.0,"el":50.0,"ss":33.0,"used":true,"health":1},{"PRN":12,"gnssid":0,"svid":12,"az":117.0,"el":5.0,"ss":34.0,"used":true,"health":1},{"PRN":4,"gnssid":0,"svid":4,"az":321.0,"el":11.0,"ss":36.0,"used":true,"health":1}]}
{"class":"TPV","device":"/dev/ttyACM0","mode":3,"time":"2024-06-05T06:45:40.249Z","leapseconds":18,"ept":0.005,"lat":52.315811930,"lon":10.562954874,"altHAE":137.8532,"altMSL":93.9556,"alt":93.9556,"epx":8.920,"epy":10.061,"epv":31.740,"track":157.5945,"magtrack":160.8143,"magvar":3.2,"speed":0.005,"climb":-0.022,"eps":0.27,"epc":255.97,"ecefx":3841081.46,"ecefy":716268.70,"ecefz":5024470.67,"ecefvx":-0.01,"ecefvy":0.00,"ecefvz":-0.02,"ecefpAcc":5.13,"ecefvAcc":0.27,"velN":-0.004,"velE":0.002,"velD":0.022,"geoidSep":43.898,"eph":16.150,"sep":30.780}
{"class":"SKY","device":"/dev/ttyACM0","time":"2024-06-05T06:45:40.001Z","gdop":1.80,"hdop":0.85,"pdop":1.62,"tdop":0.79,"xdop":0.59,"ydop":0.67,"vdop":1.38,"uSat":10}
{"class":"SKY","device":"/dev/ttyACM0","time":"2024-06-05T06:45:40.001Z","gdop":1.80,"hdop":0.85,"pdop":1.62,"tdop":0.79,"xdop":0.59,"ydop":0.67,"vdop":1.38,"uSat":10}
{"class":"TPV","device":"/dev/ttyACM0","mode":3,"time":"2024-06-05T06:45:40.249Z","leapseconds":18,"ept":0.005,"lat":52.315811930,"lon":10.562954874,"altHAE":137.8532,"altMSL":93.9556,"alt":93.9556,"epx":8.920,"epy":10.061,"epv":31.740,"track":157.5945,"magtrack":160.8143,"magvar":3.2,"speed":0.005,"climb":-0.022,"eps":81.14,"epc":255.97,"ecefx":3841081.46,"ecefy":716268.70,"ecefz":5024470.67,"ecefvx":-0.01,"ecefvy":0.00,"ecefvz":-0.02,"ecefpAcc":5.13,"ecefvAcc":0.27,"velN":-0.004,"velE":0.002,"velD":0.022,"geoidSep":43.898,"eph":16.150,"sep":30.780}
{"class":"SKY","device":"/dev/ttyACM0","time":"2024-06-05T06:45:40.249Z","gdop":1.80,"hdop":0.85,"pdop":1.62,"tdop":0.79,"xdop":0.59,"ydop":0.67,"vdop":1.38,"nSat":14,"uSat":11,"satellites":[{"PRN":26,"gnssid":0,"svid":26,"az":293.0,"el":46.0,"ss":43.0,"used":true,"health":1},{"PRN":5,"gnssid":0,"svid":5,"az":86.0,"el":19.0,"ss":44.0,"used":true,"health":1},{"PRN":29,"gnssid":0,"svid":29,"az":67.0,"el":71.0,"ss":49.0,"used":true,"health":1},{"PRN":9,"gnssid":0,"svid":9,"az":355.0,"el":3.0,"ss":35.0,"used":false,"health":1},{"PRN":18,"gnssid":0,"svid":18,"az":176.0,"el":39.0,"ss":43.0,"used":true,"health":1},{"PRN":33,"gnssid":1,"svid":120,"az":0.0,"el":-9.0,"ss":0.0,"used":false,"health":1},{"PRN":16,"gnssid":0,"svid":16,"az":295.0,"el":9.0,"ss":29.0,"used":false,"health":1},{"PRN":25,"gnssid":0,"svid":25,"az":123.0,"el":32.0,"ss":44.0,"used":true,"health":1},{"PRN":28,"gnssid":0,"svid":28,"az":218.0,"el":43.0,"ss":36.0,"used":true,"health":1},{"PRN":20,"gnssid":0,"svid":20,"az":56.0,"el":21.0,"ss":43.0,"used":true,"health":1},{"PRN":11,"gnssid":0,"svid":11,"az":36.0,"el":9.0,"ss":47.0,"used":true,"health":1},{"PRN":31,"gnssid":0,"svid":31,"az":265.0,"el":50.0,"ss":33.0,"used":true,"health":1},{"PRN":12,"gnssid":0,"svid":12,"az":117.0,"el":5.0,"ss":35.0,"used":true,"health":1},{"PRN":4,"gnssid":0,"svid":4,"az":321.0,"el":11.0,"ss":36.0,"used":true,"health":1}]}
{"class":"TPV","device":"/dev/ttyACM0","mode":3,"time":"2024-06-05T06:45:40.501Z","leapseconds":18,"ept":0.005,"lat":52.315811878,"lon":10.562954811,"altHAE":137.7945,"altMSL":93.8969,"alt":93.8969,"epx":8.920,"epy":10.061,"epv":31.740,"track":231.8612,"magtrack":235.0810,"magvar":3.2,"speed":0.025,"climb":-0.026,"eps":0.27,"epc":251.90,"ecefx":3841081.43,"ecefy":716268.69,"ecefz":5024470.62,"ecefvx":0.00,"ecefvy":-0.02,"ecefvz":-0.03,"ecefpAcc":5.13,"ecefvAcc":0.27,"velN":-0.015,"velE":-0.020,"velD":0.026,"geoidSep":43.898,"eph":16.150,"sep":30.780}
{"class":"SKY","device":"/dev/ttyACM0","time":"2024-06-05T06:45:40.249Z","gdop":1.80,"hdop":0.85,"pdop":1.62,"tdop":0.79,"xdop":0.59,"ydop":0.67,"vdop":1.38,"uSat":10}
{"class":"SKY","device":"/dev/ttyACM0","time":"2024-06-05T06:45:40.249Z","gdop":1.80,"hdop":0.85,"pdop":1.62,"tdop":0.79,"xdop":0.59,"ydop":0.67,"vdop":1.38,"uSat":10}
{"class":"TPV","device":"/dev/ttyACM0","mode":3,"time":"2024-06-05T06:45:40.501Z","leapseconds":18,"ept":0.005,"lat":52.315811878,"lon":10.562954811,"altHAE":137.7945,"altMSL":93.8969,"alt":93.8969,"epx":8.920,"epy":10.061,"epv":31.740,"track":231.8612,"magtrack":235.0810,"magvar":3.2,"speed":0.025,"climb":-0.026,"eps":79.85,"epc":251.90,"ecefx":3841081.43,"ecefy":716268.69,"ecefz":5024470.62,"ecefvx":0.00,"ecefvy":-0.02,"ecefvz":-0.03,"ecefpAcc":5.13,"ecefvAcc":0.27,"velN":-0.015,"velE":-0.020,"velD":0.026,"geoidSep":43.898,"eph":16.150,"sep":30.780}
{"class":"SKY","device":"/dev/ttyACM0","time":"2024-06-05T06:45:40.501Z","gdop":1.80,"hdop":0.85,"pdop":1.62,"tdop":0.79,"xdop":0.59,"ydop":0.67,"vdop":1.38,"nSat":14,"uSat":11,"satellites":[{"PRN":26,"gnssid":0,"svid":26,"az":293.0,"el":46.0,"ss":43.0,"used":true,"health":1},{"PRN":5,"gnssid":0,"svid":5,"az":86.0,"el":19.0,"ss":44.0,"used":true,"health":1},{"PRN":29,"gnssid":0,"svid":29,"az":67.0,"el":71.0,"ss":49.0,"used":true,"health":1},{"PRN":9,"gnssid":0,"svid":9,"az":355.0,"el":3.0,"ss":35.0,"used":false,"health":1},{"PRN":18,"gnssid":0,"svid":18,"az":176.0,"el":39.0,"ss":43.0,"used":true,"health":1},{"PRN":33,"gnssid":1,"svid":120,"az":0.0,"el":-9.0,"ss":0.0,"used":false,"health":1},{"PRN":16,"gnssid":0,"svid":16,"az":295.0,"el":9.0,"ss":29.0,"used":false,"health":1},{"PRN":25,"gnssid":0,"svid":25,"az":123.0,"el":32.0,"ss":44.0,"used":true,"health":1},{"PRN":28,"gnssid":0,"svid":28,"az":218.0,"el":43.0,"ss":36.0,"used":true,"health":1},{"PRN":20,"gnssid":0,"svid":20,"az":56.0,"el":21.0,"ss":43.0,"used":true,"health":1},{"PRN":11,"gnssid":0,"svid":11,"az":36.0,"el":9.0,"ss":47.0,"used":true,"health":1},{"PRN":31,"gnssid":0,"svid":31,"az":265.0,"el":50.0,"ss":33.0,"used":true,"health":1},{"PRN":12,"gnssid":0,"svid":12,"az":117.0,"el":5.0,"ss":35.0,"used":true,"health":1},{"PRN":4,"gnssid":0,"svid":4,"az":321.0,"el":11.0,"ss":36.0,"used":true,"health":1}]}
{"class":"TPV","device":"/dev/ttyACM0","mode":3,"time":"2024-06-05T06:45:40.749Z","leapseconds":18,"ept":0.005,"lat":52.315811879,"lon":10.562954576,"altHAE":137.7565,"altMSL":93.8589,"alt":93.8589,"epx":8.920,"epy":10.061,"epv":31.740,"track":127.5755,"magtrack":130.7953,"magvar":3.2,"speed":0.012,"climb":-0.007,"eps":0.28,"epc":255.97,"ecefx":3841081.41,"ecefy":716268.67,"ecefz":5024470.59,"ecefvx":0.00,"ecefvy":0.01,"ecefvz":-0.01,"ecefpAcc":5.13,"ecefvAcc":0.28,"velN":-0.008,"velE":0.010,"velD":0.007,"geoidSep":43.898,"eph":16.150,"sep":30.780}
{"class":"SKY","device":"/dev/ttyACM0","time":"2024-06-05T06:45:40.501Z","gdop":1.80,"hdop":0.85,"pdop":1.62,"tdop":0.79,"xdop":0.59,"ydop":0.67,"vdop":1.38,"uSat":10}
{"class":"SKY","device":"/dev/ttyACM0","time":"2024-06-05T06:45:40.501Z","gdop":1.80,"hdop":0.85,"pdop":1.62,"tdop":0.79,"xdop":0.59,"ydop":0.67,"vdop":1.38,"uSat":10}
{"class":"TPV","device":"/dev/ttyACM0","mode":3,"time":"2024-06-05T06:45:40.749Z","leapseconds":18,"ept":0.005,"lat":52.315811879,"lon":10.562954576,"altHAE":137.7565,"altMSL":93.8589,"alt":93.8589,"epx":8.920,"epy":10.061,"epv":31.740,"track":127.5755,"magtrack":130.7953,"magvar":3.2,"speed":0.012,"climb":-0.007,"eps":81.14,"epc":255.97,"ecefx":3841081.41,"ecefy":716268.67,"ecefz":5024470.59,"ecefvx":0.00,"ecefvy":0.01,"ecefvz":-0.01,"ecefpAcc":5.13,"ecefvAcc":0.28,"velN":-0.008,"velE":0.010,"velD":0.007,"geoidSep":43.898,"eph":16.150,"sep":30.780}
{"class":"SKY","device":"/dev/ttyACM0","time":"2024-06-05T06:45:40.749Z","gdop":1.80,"hdop":0.85,"pdop":1.62,"tdop":0.79,"xdop":0.59,"ydop":0.67,"vdop":1.38,"nSat":14,"uSat":11,"satellites":[{"PRN":26,"gnssid":0,"svid":26,"az":293.0,"el":46.0,"ss":43.0,"used":true,"health":1},{"PRN":5,"gnssid":0,"svid":5,"az":86.0,"el":19.0,"ss":45.0,"used":true,"health":1},{"PRN":29,"gnssid":0,"svid":29,"az":67.0,"el":71.0,"ss":49.0,"used":true,"health":1},{"PRN":9,"gnssid":0,"svid":9,"az":355.0,"el":3.0,"ss":34.0,"used":false,"health":1},{"PRN":18,"gnssid":0,"svid":18,"az":176.0,"el":39.0,"ss":43.0,"used":true,"health":1},{"PRN":33,"gnssid":1,"svid":120,"az":0.0,"el":-9.0,"ss":0.0,"used":false,"health":1},{"PRN":16,"gnssid":0,"svid":16,"az":295.0,"el":9.0,"ss":30.0,"used":false,"health":1},{"PRN":25,"gnssid":0,"svid":25,"az":123.0,"el":32.0,"ss":44.0,"used":true,"health":1},{"PRN":28,"gnssid":0,"svid":28,"az":218.0,"el":43.0,"ss":36.0,"used":true,"health":1},{"PRN":20,"gnssid":0,"svid":20,"az":56.0,"el":21.0,"ss":43.0,"used":true,"health":1},{"PRN":11,"gnssid":0,"svid":11,"az":36.0,"el":9.0,"ss":47.0,"used":true,"health":1},{"PRN":31,"gnssid":0,"svid":31,"az":265.0,"el":50.0,"ss":34.0,"used":true,"health":1},{"PRN":12,"gnssid":0,"svid":12,"az":117.0,"el":5.0,"ss":34.0,"used":true,"health":1},{"PRN":4,"gnssid":0,"svid":4,"az":321.0,"el":11.0,"ss":35.0,"used":true,"health":1}]}
{"class":"TPV","device":"/dev/ttyACM0","mode":3,"time":"2024-06-05T06:45:41.001Z","leapseconds":18,"ept":0.005,"lat":52.315811825,"lon":10.562954342,"altHAE":137.7105,"altMSL":93.8130,"alt":93.8130,"epx":8.920,"epy":10.061,"epv":31.740,"track":43.1504,"magtrack":46.3702,"magvar":3.2,"speed":0.017,"climb":0.003,"eps":0.28,"epc":251.90,"ecefx":3841081.39,"ecefy":716268.65,"ecefz":5024470.55,"ecefvx":-0.01,"ecefvy":0.01,"ecefvz":0.01,"ecefpAcc":5.13,"ecefvAcc":0.28,"velN":0.012,"velE":0.012,"velD":-0.003,"geoidSep":43.898,"eph":16.150,"sep":30.780}
{"class":"SKY","device":"/dev/ttyACM0","time":"2024-06-05T06:45:40.749Z","gdop":1.80,"hdop":0.85,"pdop":1.62,"tdop":0.79,"xdop":0.59,"ydop":0.67,"vdop":1.38,"uSat":10}
{"class":"SKY","device":"/dev/ttyACM0","time":"2024-06-05T06:45:40.749Z","gdop":1.80,"hdop":0.85,"pdop":1.62,"tdop":0.79,"xdop":0.59,"ydop":0.67,"vdop":1.38,"uSat":10}
{"class":"TPV","device":"/dev/ttyACM0","mode":3,"time":"2024-06-05T06:45:41.001Z","leapseconds":18,"ept":0.005,"lat":52.315811825,"lon":10.562954342,"altHAE":137.7105,"altMSL":93.8130,"alt":93.8130,"epx":8.920,"epy":10.061,"epv":31.740,"track":43.1504,"magtrack":46.3702,"magvar":3.2,"speed":0.017,"climb":0.003,"eps":79.85,"epc":251.90,"ecefx":3841081.39,"ecefy":716268.65,"ecefz":5024470.55,"ecefvx":-0.01,"ecefvy":0.01,"ecefvz":0.01,"ecefpAcc":5.13,"ecefvAcc":0.28,"velN":0.012,"velE":0.012,"velD":-0.003,"geoidSep":43.898,"eph":16.150,"sep":30.780}
{"class":"SKY","device":"/dev/ttyACM0","time":"2024-06-05T06:45:41.001Z","gdop":1.80,"hdop":0.85,"pdop":1.62,"tdop":0.79,"xdop":0.59,"ydop":0.67,"vdop":1.38,"nSat":14,"uSat":11,"satellites":[{"PRN":26,"gnssid":0,"svid":26,"az":293.0,"el":46.0,"ss":43.0,"used":true,"health":1},{"PRN":5,"gnssid":0,"svid":5,"az":86.0,"el":19.0,"ss":45.0,"used":true,"health":1},{"PRN":29,"gnssid":0,"svid":29,"az":67.0,"el":71.0,"ss":49.0,"used":true,"health":1},{"PRN":9,"gnssid":0,"svid":9,"az":355.0,"el":3.0,"ss":33.0,"used":false,"health":1},{"PRN":18,"gnssid":0,"svid":18,"az":176.0,"el":39.0,"ss":43.0,"used":true,"health":1},{"PRN":33,"gnssid":1,"svid":120,"az":0.0,"el":-9.0,"ss":0.0,"used":false,"health":1},{"PRN":16,"gnssid":0,"svid":16,"az":295.0,"el":9.0,"ss":30.0,"used":false,"health":1},{"PRN":25,"gnssid":0,"svid":25,"az":123.0,"el":32.0,"ss":44.0,"used":true,"health":1},{"PRN":28,"gnssid":0,"svid":28,"az":218.0,"el":43.0,"ss":35.0,"used":true,"health":1},{"PRN":20,"gnssid":0,"svid":20,"az":56.0,"el":21.0,"ss":43.0,"used":true,"health":1},{"PRN":11,"gnssid":0,"svid":11,"az":36.0,"el":9.0,"ss":47.0,"used":true,"health":1},{"PRN":31,"gnssid":0,"svid":31,"az":265.0,"el":50.0,"ss":34.0,"used":true,"health":1},{"PRN":12,"gnssid":0,"svid":12,"az":117.0,"el":5.0,"ss":33.0,"used":true,"health":1},{"PRN":4,"gnssid":0,"svid":4,"az":321.0,"el":11.0,"ss":35.0,"used":true,"health":1}]}
{"class":"TPV","device":"/dev/ttyACM0","mode":3,"time":"2024-06-05T06:45:41.249Z","leapseconds":18,"ept":0.005,"lat":52.315811811,"lon":10.562954080,"altHAE":137.6865,"altMSL":93.7889,"alt":93.7889,"epx":8.920,"epy":10.061,"epv":31.740,"track":42.3745,"magtrack":45.5944,"magvar":3.2,"speed":0.015,"climb":0.017,"eps":0.28,"epc":255.97,"ecefx":3841081.38,"ecefy":716268.63,"ecefz":5024470.53,"ecefvx":0.00,"ecefvy":0.01,"ecefvz":0.02,"ecefpAcc":5.13,"ecefvAcc":0.28,"velN":0.011,"velE":0.010,"velD":-0.017,"geoidSep":43.898,"eph":16.150,"sep":30.780}
{"class":"SKY","device":"/dev/ttyACM0","time":"2024-06-05T06:45:41.001Z","gdop":1.80,"hdop":0.85,"pdop":1.62,"tdop":0.79,"xdop":0.59,"ydop":0.67,"vdop":1.38,"uSat":10}
{"class":"SKY","device":"/dev/ttyACM0","time":"2024-06-05T06:45:41.001Z","gdop":1.80,"hdop":0.85,"pdop":1.62,"tdop":0.79,"xdop":0.59,"ydop":0.67,"vdop":1.38,"uSat":10}
{"class":"TPV","device":"/dev/ttyACM0","mode":3,"time":"2024-06-05T06:45:41.249Z","leapseconds":18,"ept":0.005,"lat":52.315811811,"lon":10.562954080,"altHAE":137.6865,"altMSL":93.7889,"alt":93.7889,"epx":8.920,"epy":10.061,"epv":31.740,"track":42.3745,"magtrack":45.5944,"magvar":3.2,"speed":0.015,"climb":0.017,"eps":81.14,"epc":255.97,"ecefx":3841081.38,"ecefy":716268.63,"ecefz":5024470.53,"ecefvx":0.00,"ecefvy":0.01,"ecefvz":0.02,"ecefpAcc":5.13,"ecefvAcc":0.28,"velN":0.011,"velE":0.010,"velD":-0.017,"geoidSep":43.898,"eph":16.150,"sep":30.780}
{"class":"SKY","device":"/dev/ttyACM0","time":"2024-06-05T06:45:41.249Z","gdop":1.80,"hdop":0.85,"pdop":1.62,"tdop":0.79,"xdop":0.59,"ydop":0.67,"vdop":1.38,"nSat":14,"uSat":11,"satellites":[{"PRN":26,"gnssid":0,"svid":26,"az":293.0,"el":46.0,"ss":43.0,"used":true,"health":1},{"PRN":5,"gnssid":0,"svid":5,"az":86.0,"el":19.0,"ss":45.0,"used":true,"health":1},{"PRN":29,"gnssid":0,"svid":29,"az":67.0,"el":71.0,"ss":49.0,"used":true,"health":1},{"PRN":9,"gnssid":0,"svid":9,"az":355.0,"el":3.0,"ss":33.0,"used":false,"health":1},{"PRN":18,"gnssid":0,"svid":18,"az":176.0,"el":39.0,"ss":43.0,"used":true,"health":1},{"PRN":33,"gnssid":1,"svid":120,"az":0.0,"el":-9.0,"ss":0.0,"used":false,"health":1},{"PRN":16,"gnssid":0,"svid":16,"az":295.0,"el":9.0,"ss":30.0,"used":false,"health":1},{"PRN":25,"gnssid":0,"svid":25,"az":123.0,"el":32.0,"ss":44.0,"used":true,"health":1},{"PRN":28,"gnssid":0,"svid":28,"az":218.0,"el":43.0,"ss":35.0,"used":true,"health":1},{"PRN":20,"gnssid":0,"svid":20,"az":56.0,"el":21.0,"ss":43.0,"used":true,"health":1},{"PRN":11,"gnssid":0,"svid":11,"az":36.0,"el":9.0,"ss":47.0,"used":true,"health":1},{"PRN":31,"gnssid":0,"svid":31,"az":265.0,"el":50.0,"ss":35.0,"used":true,"health":1},{"PRN":12,"gnssid":0,"svid":12,"az":117.0,"el":5.0,"ss":33.0,"used":true,"health":1},{"PRN":4,"gnssid":0,"svid":4,"az":321.0,"el":11.0,"ss":35.0,"used":true,"health":1}]}
{"class":"TPV","device":"/dev/ttyACM0","mode":3,"time":"2024-06-05T06:45:41.501Z","leapseconds":18,"ept":0.005,"lat":52.315811824,"lon":10.562953530,"altHAE":137.6602,"altMSL":93.7626,"alt":93.7626,"epx":8.920,"epy":10.061,"epv":31.740,"track":102.2772,"magtrack":105.4970,"magvar":3.2,"speed":0.028,"climb":0.017,"eps":0.28,"epc":251.90,"ecefx":3841081.37,"ecefy":716268.59,"ecefz":5024470.51,"ecefvx":0.01,"ecefvy":0.03,"ecefvz":0.01,"ecefpAcc":5.13,"ecefvAcc":0.28,"velN":-0.006,"velE":0.028,"velD":-0.017,"geoidSep":43.898,"eph":16.150,"sep":30.780}
{"class":"SKY","device":"/dev/ttyACM0","time":"2024-06-05T06:45:41.249Z","gdop":1.80,"hdop":0.85,"pdop":1.62,"tdop":0.79,"xdop":0.59,"ydop":0.67,"vdop":1.38,"uSat":10}
{"class":"SKY","device":"/dev/ttyACM0","time":"2024-06-05T06:45:41.249Z","gdop":1.80,"hdop":0.85,"pdop":1.62,"tdop":0.79,"xdop":0.59,"ydop":0.67,"vdop":1.38,"uSat":10}
{"class":"TPV","device":"/dev/ttyACM0","mode":3,"time":"2024-06-05T06:45:41.501Z","leapseconds":18,"ept":0.005,"lat":52.315811824,"lon":10.562953530,"altHAE":137.6602,"altMSL":93.7626,"alt":93.7626,"epx":8.920,"epy":10.061,"epv":31.740,"track":102.2772,"magtrack":105.4970,"magvar":3.2,"speed":0.028,"climb":0.017,"eps":79.85,"epc":251.90,"ecefx":3841081.37,"ecefy":716268.59,"ecefz":5024470.51,"ecefvx":0.01,"ecefvy":0.03,"ecefvz":0.01,"ecefpAcc":5.13,"ecefvAcc":0.28,"velN":-0.006,"velE":0.028,"velD":-0.017,"geoidSep":43.898,"eph":16.150,"sep":30.780}
{"class":"SKY","device":"/dev/ttyACM0","time":"2024-06-05T06:45:41.501Z","gdop":1.80,"hdop":0.85,"pdop":1.62,"tdop":0.79,"xdop":0.59,"ydop":0.67,"vdop":1.38,"nSat":14,"uSat":11,"satellites":[{"PRN":26,"gnssid":0,"svid":26,"az":293.0,"el":46.0,"ss":43.0,"used":true,"health":1},{"PRN":5,"gnssid":0,"svid":5,"az":86.0,"el":19.0,"ss":45.0,"used":true,"health":1},{"PRN":29,"gnssid":0,"svid":29,"az":67.0,"el":71.0,"ss":49.0,"used":true,"health":1},{"PRN":9,"gnssid":0,"svid":9,"az":355.0,"el":3.0,"ss":33.0,"used":false,"health":1},{"PRN":18,"gnssid":0,"svid":18,"az":176.0,"el":39.0,"ss":43.0,"used":true,"health":1},{"PRN":33,"gnssid":1,"svid":120,"az":0.0,"el":-9.0,"ss":0.0,"used":false,"health":1},{"PRN":16,"gnssid":0,"svid":16,"az":295.0,"el":9.0,"ss":29.0,"used":false,"health":1},{"PRN":25,"gnssid":0,"svid":25,"az":123.0,"el":32.0,"ss":44.0,"used":true,"health":1},{"PRN":28,"gnssid":0,"svid":28,"az":218.0,"el":43.0,"ss":35.0,"used":true,"health":1},{"PRN":20,"gnssid":0,"svid":20,"az":56.0,"el":21.0,"ss":43.0,"used":true,"health":1},{"PRN":11,"gnssid":0,"svid":11,"az":36.0,"el":9.0,"ss":47.0,"used":true,"health":1},{"PRN":31,"gnssid":0,"svid":31,"az":265.0,"el":50.0,"ss":35.0,"used":true,"health":1},{"PRN":12,"gnssid":0,"svid":12,"az":117.0,"el":5.0,"ss":33.0,"used":true,"health":1},{"PRN":4,"gnssid":0,"svid":4,"az":321.0,"el":11.0,"ss":35.0,"used":true,"health":1}]}
{"class":"TPV","device":"/dev/ttyACM0","mode":3,"time":"2024-06-05T06:45:41.749Z","leapseconds":18,"ept":0.005,"lat":52.315811766,"lon":10.562952954,"altHAE":137.6398,"altMSL":93.7423,"alt":93.7423,"epx":8.920,"epy":10.061,"epv":31.740,"track":278.3949,"magtrack":281.6147,"magvar":3.2,"speed":0.020,"climb":-0.002,"eps":0.28,"epc":255.97,"ecefx":3841081.37,"ecefy":716268.55,"ecefz":5024470.49,"ecefvx":0.00,"ecefvy":-0.02,"ecefvz":0.00,"ecefpAcc":5.13,"ecefvAcc":0.28,"velN":0.003,"velE":-0.020,"velD":0.002,"geoidSep":43.898,"eph":16.150,"sep":30.780}
{"class":"SKY","device":"/dev/ttyACM0","time":"2024-06-05T06:45:41.501Z","gdop":1.80,"hdop":0.85,"pdop":1.62,"tdop":0.79,"xdop":0.59,"ydop":0.67,"vdop":1.38,"uSat":10}
{"class":"SKY","device":"/dev/ttyACM0","time":"2024-06-05T06:45:41.501Z","gdop":1.80,"hdop":0.85,"pdop":1.62,"tdop":0.79,"xdop":0.59,"ydop":0.67,"vdop":1.38,"uSat":10}
{"class":"TPV","device":"/dev/ttyACM0","mode":3,"time":"2024-06-05T06:45:41.749Z","leapseconds":18,"ept":0.005,"lat":52.315811766,"lon":10.562952954,"altHAE":137.6398,"altMSL":93.7423,"alt":93.7423,"epx":8.920,"epy":10.061,"epv":31.740,"track":278.3949,"magtrack":281.6147,"magvar":3.2,"speed":0.020,"climb":-0.002,"eps":81.14,"epc":255.97,"ecefx":3841081.37,"ecefy":716268.55,"ecefz":5024470.49,"ecefvx":0.00,"ecefvy":-0.02,"ecefvz":0.00,"ecefpAcc":5.13,"ecefvAcc":0.28,"velN":0.003,"velE":-0.020,"velD":0.002,"geoidSep":43.898,"eph":16.150,"sep":30.780}
{"class":"SKY","device":"/dev/ttyACM0","time":"2024-06-05T06:45:41.749Z","gdop":1.80,"hdop":0.85,"pdop":1.62,"tdop":0.79,"xdop":0.59,"ydop":0.67,"vdop":1.38,"nSat":14,"uSat":11,"satellites":[{"PRN":26,"gnssid":0,"svid":26,"az":293.0,"el":46.0,"ss":43.0,"used":true,"health":1},{"PRN":5,"gnssid":0,"svid":5,"az":86.0,"el":19.0,"ss":45.0,"used":true,"health":1},{"PRN":29,"gnssid":0,"svid":29,"az":67.0,"el":71.0,"ss":49.0,"used":true,"health":1},{"PRN":9,"gnssid":0,"svid":9,"az":355.0,"el":3.0,"ss":34.0,"used":false,"health":1},{"PRN":18,"gnssid":0,"svid":18,"az":176.0,"el":39.0,"ss":43.0,"used":true,"health":1},{"PRN":33,"gnssid":1,"svid":120,"az":0.0,"el":-9.0,"ss":0.0,"used":false,"health":1},{"PRN":16,"gnssid":0,"svid":16,"az":295.0,"el":9.0,"ss":29.0,"used":false,"health":1},{"PRN":25,"gnssid":0,"svid":25,"az":124.0,"el":32.0,"ss":44.0,"used":true,"health":1},{"PRN":28,"gnssid":0,"svid":28,"az":218.0,"el":43.0,"ss":36.0,"used":true,"health":1},{"PRN":20,"gnssid":0,"svid":20,"az":56.0,"el":21.0,"ss":42.0,"used":true,"health":1},{"PRN":11,"gnssid":0,"svid":11,"az":36.0,"el":9.0,"ss":47.0,"used":true,"health":1},{"PRN":31,"gnssid":0,"svid":31,"az":265.0,"el":50.0,"ss":35.0,"used":true,"health":1},{"PRN":12,"gnssid":0,"svid":12,"az":117.0,"el":5.0,"ss":32.0,"used":true,"health":1},{"PRN":4,"gnssid":0,"svid":4,"az":321.0,"el":11.0,"ss":35.0,"used":true,"health":1}]}
{"class":"TPV","device":"/dev/ttyACM0","mode":3,"time":"2024-06-05T06:45:42.001Z","leapseconds":18,"ept":0.005,"lat":52.315811653,"lon":10.562952377,"altHAE":137.6116,"altMSL":93.7141,"alt":93.7141,"epx":8.920,"epy":10.061,"epv":31.740,"track":98.3949,"magtrack":101.6147,"magvar":3.2,"speed":0.010,"climb":0.001,"eps":0.28,"epc":251.90,"ecefx":3841081.37,"ecefy":716268.51,"ecefz":5024470.46,"ecefvx":0.00,"ecefvy":0.01,"ecefvz":0.00,"ecefpAcc":5.13,"ecefvAcc":0.28,"velN":-0.001,"velE":0.010,"velD":-0.001,"geoidSep":43.898,"eph":16.150,"sep":30.780}
{"class":"SKY","device":"/dev/ttyACM0","time":"2024-06-05T06:45:41.749Z","gdop":1.80,"hdop":0.85,"pdop":1.62,"tdop":0.79,"xdop":0.59,"ydop":0.67,"vdop":1.38,"uSat":10}
{"class":"SKY","device":"/dev/ttyACM0","time":"2024-06-05T06:45:41.749Z","gdop":1.80,"hdop":0.85,"pdop":1.62,"tdop":0.79,"xdop":0.59,"ydop":0.67,"vdop":1.38,"uSat":10}
{"class":"TPV","device":"/dev/ttyACM0","mode":3,"time":"2024-06-05T06:45:42.001Z","leapseconds":18,"ept":0.005,"lat":52.315811653,"lon":10.562952377,"altHAE":137.6116,"altMSL":93.7141,"alt":93.7141,"epx":8.920,"epy":10.061,"epv":31.740,"track":98.3949,"magtrack":101.6147,"magvar":3.2,"speed":0.010,"climb":0.001,"eps":79.85,"epc":251.90,"ecefx":3841081.37,"ecefy":716268.51,"ecefz":5024470.46,"ecefvx":0.00,"ecefvy":0.01,"ecefvz":0.00,"ecefpAcc":5.13,"ecefvAcc":0.28,"velN":-0.001,"velE":0.010,"velD":-0.001,"geoidSep":43.898,"eph":16.150,"sep":30.780}
{"class":"SKY","device":"/dev/ttyACM0","time":"2024-06-05T06:45:42.001Z","gdop":1.80,"hdop":0.85,"pdop":1.62,"tdop":0.79,"xdop":0.59,"ydop":0.67,"vdop":1.38,"nSat":14,"uSat":11,"satellites":[{"PRN":26,"gnssid":0,"svid":26,"az":293.0,"el":46.0,"ss":43.0,"used":true,"health":1},{"PRN":5,"gnssid":0,"svid":5,"az":86.0,"el":19.0,"ss":45.0,"used":true,"health":1},{"PRN":29,"gnssid":0,"svid":29,"az":67.0,"el":71.0,"ss":49.0,"used":true,"health":1},{"PRN":9,"gnssid":0,"svid":9,"az":355.0,"el":3.0,"ss":34.0,"used":false,"health":1},{"PRN":18,"gnssid":0,"svid":18,"az":176.0,"el":39.0,"ss":43.0,"used":true,"health":1},{"PRN":33,"gnssid":1,"svid":120,"az":0.0,"el":-9.0,"ss":0.0,"used":false,"health":1},{"PRN":16,"gnssid":0,"svid":16,"az":295.0,"el":9.0,"ss":29.0,"used":false,"health":1},{"PRN":25,"gnssid":0,"svid":25,"az":124.0,"el":32.0,"ss":44.0,"used":true,"health":1},{"PRN":28,"gnssid":0,"svid":28,"az":218.0,"el":43.0,"ss":37.0,"used":true,"health":1},{"PRN":20,"gnssid":0,"svid":20,"az":56.0,"el":21.0,"ss":42.0,"used":true,"health":1},{"PRN":11,"gnssid":0,"svid":11,"az":36.0,"el":9.0,"ss":47.0,"used":true,"health":1},{"PRN":31,"gnssid":0,"svid":31,"az":265.0,"el":50.0,"ss":35.0,"used":true,"health":1},{"PRN":12,"gnssid":0,"svid":12,"az":117.0,"el":5.0,"ss":32.0,"used":true,"health":1},{"PRN":4,"gnssid":0,"svid":4,"az":321.0,"el":11.0,"ss":35.0,"used":true,"health":1}]}
{"class":"TPV","device":"/dev/ttyACM0","mode":3,"time":"2024-06-05T06:45:42.249Z","leapseconds":18,"ept":0.005,"lat":52.315811650,"lon":10.562951801,"altHAE":137.5992,"altMSL":93.7017,"alt":93.7017,"epx":8.920,"epy":10.061,"epv":31.740,"track":0.0000,"magtrack":3.2198,"magvar":3.2,"speed":0.006,"climb":0.008,"eps":0.29,"epc":255.97,"ecefx":3841081.37,"ecefy":716268.47,"ecefz":5024470.45,"ecefvx":0.00,"ecefvy":0.00,"ecefvz":0.01,"ecefpAcc":5.13,"ecefvAcc":0.29,"velN":0.006,"velE":0.000,"velD":-0.008,"geoidSep":43.898,"eph":16.150,"sep":30.780}
{"class":"SKY","device":"/dev/ttyACM0","time":"2024-06-05T06:45:42.001Z","gdop":1.80,"hdop":0.85,"pdop":1.62,"tdop":0.79,"xdop":0.59,"ydop":0.67,"vdop":1.38,"uSat":10}
{"class":"SKY","device":"/dev/ttyACM0","time":"2024-06-05T06:45:42.001Z","gdop":1.80,"hdop":0.85,"pdop":1.62,"tdop":0.79,"xdop":0.59,"ydop":0.67,"vdop":1.38,"uSat":10}
{"class":"TPV","device":"/dev/ttyACM0","mode":3,"time":"2024-06-05T06:45:42.249Z","leapseconds":18,"ept":0.005,"lat":52.315811650,"lon":10.562951801,"altHAE":137.5992,"altMSL":93.7017,"alt":93.7017,"epx":8.920,"epy":10.061,"epv":31.740,"track":0.0000,"magtrack":3.2198,"magvar":3.2,"speed":0.006,"climb":0.008,"eps":81.14,"epc":255.97,"ecefx":3841081.37,"ecefy":716268.47,"ecefz":5024470.45,"ecefvx":0.00,"ecefvy":0.00,"ecefvz":0.01,"ecefpAcc":5.13,"ecefvAcc":0.29,"velN":0.006,"velE":0.000,"velD":-0.008,"geoidSep":43.898,"eph":16.150,"sep":30.780}
{"class":"SKY","device":"/dev/ttyACM0","time":"2024-06-05T06:45:42.249Z","gdop":1.80,"hdop":0.85,"pdop":1.62,"tdop":0.79,"xdop":0.59,"ydop":0.67,"vdop":1.38,"nSat":14,"uSat":11,"satellites":[{"PRN":26,"gnssid":0,"svid":26,"az":293.0,"el":46.0,"ss":43.0,"used":true,"health":1},{"PRN":5,"gnssid":0,"svid":5,"az":86.0,"el":19.0,"ss":45.0,"used":true,"health":1},{"PRN":29,"gnssid":0,"svid":29,"az":67.0,"el":71.0,"ss":49.0,"used":true,"health":1},{"PRN":9,"gnssid":0,"svid":9,"az":355.0,"el":3.0,"ss":34.0,"used":false,"health":1},{"PRN":18,"gnssid":0,"svid":18,"az":176.0,"el":39.0,"ss":43.0,"used":true,"health":1},{"PRN":33,"gnssid":1,"svid":120,"az":0.0,"el":-9.0,"ss":0.0,"used":false,"health":1},{"PRN":16,"gnssid":0,"svid":16,"az":295.0,"el":9.0,"ss":29.0,"used":false,"health":1},{"PRN":25,"gnssid":0,"svid":25,"az":124.0,"el":32.0,"ss":44.0,"used":true,"health":1},{"PRN":28,"gnssid":0,"svid":28,"az":218.0,"el":43.0,"ss":38.0,"used":true,"health":1},{"PRN":20,"gnssid":0,"svid":20,"az":56.0,"el":21.0,"ss":42.0,"used":true,"health":1},{"PRN":11,"gnssid":0,"svid":11,"az":36.0,"el":9.0,"ss":47.0,"used":true,"health":1},{"PRN":31,"gnssid":0,"svid":31,"az":265.0,"el":50.0,"ss":35.0,"used":true,"health":1},{"PRN":12,"gnssid":0,"svid":12,"az":117.0,"el":5.0,"ss":32.0,"used":true,"health":1},{"PRN":4,"gnssid":0,"svid":4,"az":321.0,"el":11.0,"ss":34.0,"used":true,"health":1}]}
{"class":"TPV","device":"/dev/ttyACM0","mode":3,"time":"2024-06-05T06:45:42.501Z","leapseconds":18,"ept":0.005,"lat":52.315811523,"lon":10.562951197,"altHAE":137.5849,"altMSL":93.6874,"alt":93.6874,"epx":8.920,"epy":10.061,"epv":31.740,"track":307.5755,"magtrack":310.7953,"magvar":3.2,"speed":0.012,"climb":0.007,"eps":0.29,"epc":251.90,"ecefx":3841081.38,"ecefy":716268.43,"ecefz":5024470.43,"ecefvx":0.00,"ecefvy":-0.01,"ecefvz":0.01,"ecefpAcc":5.13,"ecefvAcc":0.29,"velN":0.008,"velE":-0.010,"velD":-0.007,"geoidSep":43.898,"eph":16.150,"sep":30.780}
{"class":"SKY","device":"/dev/ttyACM0","time":"2024-06-05T06:45:42.249Z","gdop":1.80,"hdop":0.85,"pdop":1.62,"tdop":0.79,"xdop":0.59,"ydop":0.67,"vdop":1.38,"uSat":10}
{"class":"SKY","device":"/dev/ttyACM0","time":"2024-06-05T06:45:42.249Z","gdop":1.80,"hdop":0.85,"pdop":1.62,"tdop":0.79,"xdop":0.59,"ydop":0.67,"vdop":1.38,"uSat":10}
{"class":"TPV","device":"/dev/ttyACM0","mode":3,"time":"2024-06-05T06:45:42.501Z","leapseconds":18,"ept":0.005,"lat":52.315811523,"lon":10.562951197,"altHAE":137.5849,"altMSL":93.6874,"alt":93.6874,"epx":8.920,"epy":10.061,"epv":31.740,"track":307.5755,"magtrack":310.7953,"magvar":3.2,"speed":0.012,"climb":0.007,"eps":79.85,"epc":251.90,"ecefx":3841081.38,"ecefy":716268.43,"ecefz":5024470.43,"ecefvx":0.00,"ecefvy":-0.01,"ecefvz":0.01,"ecefpAcc":5.13,"ecefvAcc":0.29,"velN":0.008,"velE":-0.010,"velD":-0.007,"geoidSep":43.898,"eph":16.150,"sep":30.780}
{"class":"SKY","device":"/dev/ttyACM0","time":"2024-06-05T06:45:42.501Z","gdop":1.80,"hdop":0.85,"pdop":1.62,"tdop":0.79,"xdop":0.59,"ydop":0.67,"vdop":1.38,"nSat":14,"uSat":11,"satellites":[{"PRN":26,"gnssid":0,"svid":26,"az":293.0,"el":46.0,"ss":43.0,"used":true,"health":1},{"PRN":5,"gnssid":0,"svid":5,"az":86.0,"el":19.0,"ss":44.0,"used":true,"health":1},{"PRN":29,"gnssid":0,"svid":29,"az":67.0,"el":71.0,"ss":49.0,"used":true,"health":1},{"PRN":9,"gnssid":0,"svid":9,"az":355.0,"el":3.0,"ss":33.0,"used":false,"health":1},{"PRN":18,"gnssid":0,"svid":18,"az":176.0,"el":39.0,"ss":44.0,"used":true,"health":1},{"PRN":33,"gnssid":1,"svid":120,"az":0.0,"el":-9.0,"ss":0.0,"used":false,"health":1},{"PRN":16,"gnssid":0,"svid":16,"az":295.0,"el":9.0,"ss":29.0,"used":false,"health":1},{"PRN":25,"gnssid":0,"svid":25,"az":124.0,"el":32.0,"ss":44.0,"used":true,"health":1},{"PRN":28,"gnssid":0,"svid":28,"az":218.0,"el":43.0,"ss":38.0,"used":true,"health":1},{"PRN":20,"gnssid":0,"svid":20,"az":56.0,"el":21.0,"ss":42.0,"used":true,"health":1},{"PRN":11,"gnssid":0,"svid":11,"az":36.0,"el":9.0,"ss":47.0,"used":true,"health":1},{"PRN":31,"gnssid":0,"svid":31,"az":265.0,"el":50.0,"ss":35.0,"used":true,"health":1},{"PRN":12,"gnssid":0,"svid":12,"az":117.0,"el":5.0,"ss":32.0,"used":true,"health":1},{"PRN":4,"gnssid":0,"svid":4,"az":321.0,"el":11.0,"ss":34.0,"used":true,"health":1}]}
{"class":"TPV","device":"/dev/ttyACM0","mode":3,"time":"2024-06-05T06:45:42.749Z","leapseconds":18,"ept":0.005,"lat":52.315811489,"lon":10.562950161,"altHAE":137.5752,"altMSL":93.6776,"alt":93.6776,"epx":8.920,"epy":10.061,"epv":31.740,"track":64.6264,"magtrack":67.8462,"magvar":3.2,"speed":0.011,"climb":0.009,"eps":0.29,"epc":255.97,"ecefx":3841081.39,"ecefy":716268.36,"ecefz":5024470.42,"ecefvx":0.00,"ecefvy":0.01,"ecefvz":0.01,"ecefpAcc":5.13,"ecefvAcc":0.29,"velN":0.005,"velE":0.010,"velD":-0.009,"geoidSep":43.898,"eph":16.150,"sep":30.780}
{"class":"SKY","device":"/dev/ttyACM0","time":"2024-06-05T06:45:42.501Z","gdop":1.80,"hdop":0.85,"pdop":1.62,"tdop":0.79,"xdop":0.59,"ydop":0.67,"vdop":1.38,"uSat":10}
{"class":"SKY","device":"/dev/ttyACM0","time":"2024-06-05T06:45:42.501Z","gdop":1.80,"hdop":0.85,"pdop":1.62,"tdop":0.79,"xdop":0.59,"ydop":0.67,"vdop":1.38,"uSat":10}
{"class":"TPV","device":"/dev/ttyACM0","mode":3,"time":"2024-06-05T06:45:42.749Z","leapseconds":18,"ept":0.005,"lat":52.315811489,"lon":10.562950161,"altHAE":137.5752,"altMSL":93.6776,"alt":93.6776,"epx":8.920,"epy":10.061,"epv":31.740,"track":64.6264,"magtrack":67.8462,"magvar":3.2,"speed":0.011,"climb":0.009,"eps":81.14,"epc":255.97,"ecefx":3841081.39,"ecefy":716268.36,"ecefz":5024470.42,"ecefvx":0.00,"ecefvy":0.01,"ecefvz":0.01,"ecefpAcc":5.13,"ecefvAcc":0.29,"velN":0.005,"velE":0.010,"velD":-0.009,"geoidSep":43.898,"eph":16.150,"sep":30.780}
{"class":"SKY","device":"/dev/ttyACM0","time":"2024-06-05T06:45:42.749Z","gdop":1.80,"hdop":0.85,"pdop":1.62,"tdop":0.79,"xdop":0.59,"ydop":0.67,"vdop":1.38,"nSat":14,"uSat":11,"satellites":[{"PRN":26,"gnssid":0,"svid":26,"az":293.0,"el":46.0,"ss":43.0,"used":true,"health":1},{"PRN":5,"gnssid":0,"svid":5,"az":86.0,"el":19.0,"ss":44.0,"used":true,"health":1},{"PRN":29,"gnssid":0,"svid":29,"az":67.0,"el":71.0,"ss":48.0,"used":true,"health":1},{"PRN":9,"gnssid":0,"svid":9,"az":355.0,"el":3.0,"ss":32.0,"used":false,"health":1},{"PRN":18,"gnssid":0,"svid":18,"az":176.0,"el":39.0,"ss":44.0,"used":true,"health":1},{"PRN":33,"gnssid":1,"svid":120,"az":0.0,"el":-9.0,"ss":0.0,"used":false,"health":1},{"PRN":16,"gnssid":0,"svid":16,"az":295.0,"el":9.0,"ss":29.0,"used":false,"health":1},{"PRN":25,"gnssid":0,"svid":25,"az":124.0,"el":32.0,"ss":44.0,"used":true,"health":1},{"PRN":28,"gnssid":0,"svid":28,"az":218.0,"el":43.0,"ss":38.0,"used":true,"health":1},{"PRN":20,"gnssid":0,"svid":20,"az":56.0,"el":21.0,"ss":42.0,"used":true,"health":1},{"PRN":11,"gnssid":0,"svid":11,"az":36.0,"el":9.0,"ss":46.0,"used":true,"health":1},{"PRN":31,"gnssid":0,"svid":31,"az":265.0,"el":50.0,"ss":35.0,"used":true,"health":1},{"PRN":12,"gnssid":0,"svid":12,"az":117.0,"el":5.0,"ss":32.0,"used":true,"health":1},{"PRN":4,"gnssid":0,"svid":4,"az":321.0,"el":11.0,"ss":34.0,"used":true,"health":1}]}
{"class":"TPV","device":"/dev/ttyACM0","mode":3,"time":"2024-06-05T06:45:43.001Z","leapseconds":18,"ept":0.005,"lat":52.315811405,"lon":10.562949873,"altHAE":137.5571,"altMSL":93.6595,"alt":93.6595,"epx":8.920,"epy":10.061,"epv":31.740,"track":193.2587,"magtrack":196.4786,"magvar":3.2,"speed":0.008,"climb":0.006,"eps":0.29,"epc":251.90,"ecefx":3841081.39,"ecefy":716268.34,"ecefz":5024470.40,"ecefvx":0.01,"ecefvy":0.00,"ecefvz":0.00,"ecefpAcc":5.13,"ecefvAcc":0.29,"velN":-0.008,"velE":-0.002,"velD":-0.006,"geoidSep":43.898,"eph":16.150,"sep":30.780}
{"class":"SKY","device":"/dev/ttyACM0","time":"2024-06-05T06:45:42.749Z","gdop":1.80,"hdop":0.85,"pdop":1.62,"tdop":0.79,"xdop":0.59,"ydop":0.67,"vdop":1.38,"uSat":10}
{"class":"SKY","device":"/dev/ttyACM0","time":"2024-06-05T06:45:42.749Z","gdop":1.80,"hdop":0.85,"pdop":1.62,"tdop":0.79,"xdop":0.59,"ydop":0.67,"vdop":1.38,"uSat":10}
{"class":"TPV","device":"/dev/ttyACM0","mode":3,"time":"2024-06-05T06:45:43.001Z","leapseconds":18,"ept":0.005,"lat":52.315811405,"lon":10.562949873,"altHAE":137.5571,"altMSL":93.6595,"alt":93.6595,"epx":8.920,"epy":10.061,"epv":31.740,"track":193.2587,"magtrack":196.4786,"magvar":3.2,"speed":0.008,"climb":0.006,"eps":79.85,"epc":251.90,"ecefx":3841081.39,"ecefy":716268.34,"ecefz":5024470.40,"ecefvx":0.01,"ecefvy":0.00,"ecefvz":0.00,"ecefpAcc":5.13,"ecefvAcc":0.29,"velN":-0.008,"velE":-0.002,"velD":-0.006,"geoidSep":43.898,"eph":16.150,"sep":30.780}
{"class":"SKY","device":"/dev/ttyACM0","time":"2024-06-05T06:45:43.001Z","gdop":1.80,"hdop":0.85,"pdop":1.62,"tdop":0.79,"xdop":0.59,"ydop":0.67,"vdop":1.38,"nSat":14,"uSat":11,"satellites":[{"PRN":26,"gnssid":0,"svid":26,"az":293.0,"el":46.0,"ss":43.0,"used":true,"health":1},{"PRN":5,"gnssid":0,"svid":5,"az":86.0,"el":19.0,"ss":44.0,"used":true,"health":1},{"PRN":29,"gnssid":0,"svid":29,"az":67.0,"el":71.0,"ss":48.0,"used":true,"health":1},{"PRN":9,"gnssid":0,"svid":9,"az":355.0,"el":3.0,"ss":32.0,"used":false,"health":1},{"PRN":18,"gnssid":0,"svid":18,"az":176.0,"el":39.0,"ss":44.0,"used":true,"health":1},{"PRN":33,"gnssid":1,"svid":120,"az":0.0,"el":-9.0,"ss":0.0,"used":false,"health":1},{"PRN":16,"gnssid":0,"svid":16,"az":295.0,"el":9.0,"ss":30.0,"used":false,"health":1},{"PRN":25,"gnssid":0,"svid":25,"az":124.0,"el":32.0,"ss":44.0,"used":true,"health":1},{"PRN":28,"gnssid":0,"svid":28,"az":218.0,"el":43.0,"ss":37.0,"used":true,"health":1},{"PRN":20,"gnssid":0,"svid":20,"az":56.0,"el":21.0,"ss":42.0,"used":true,"health":1},{"PRN":11,"gnssid":0,"svid":11,"az":36.0,"el":9.0,"ss":46.0,"used":true,"health":1},{"PRN":31,"gnssid":0,"svid":31,"az":265.0,"el":50.0,"ss":34.0,"used":true,"health":1},{"PRN":12,"gnssid":0,"svid":12,"az":117.0,"el":5.0,"ss":32.0,"used":true,"health":1},{"PRN":4,"gnssid":0,"svid":4,"az":321.0,"el":11.0,"ss":34.0,"used":true,"health":1}]}
{"class":"TPV","device":"/dev/ttyACM0","mode":3,"time":"2024-06-05T06:45:43.249Z","leapseconds":18,"ept":0.005,"lat":52.315811335,"lon":10.562949440,"altHAE":137.5379,"altMSL":93.6403,"alt":93.6403,"epx":8.920,"epy":10.061,"epv":31.740,"track":0.0000,"magtrack":3.2198,"magvar":3.2,"speed":0.000,"climb":0.000,"eps":0.29,"epc":255.97,"ecefx":3841081.39,"ecefy":716268.31,"ecefz":5024470.38,"ecefvx":0.00,"ecefvy":0.00,"ecefvz":0.00,"ecefpAcc":5.13,"ecefvAcc":0.29,"velN":0.000,"velE":0.000,"velD":0.000,"geoidSep":43.898,"eph":16.150,"sep":30.780}
{"class":"SKY","device":"/dev/ttyACM0","time":"2024-06-05T06:45:43.001Z","gdop":1.80,"hdop":0.85,"pdop":1.62,"tdop":0.79,"xdop":0.59,"ydop":0.67,"vdop":1.38,"uSat":10}
{"class":"SKY","device":"/dev/ttyACM0","time":"2024-06-05T06:45:43.001Z","gdop":1.80,"hdop":0.85,"pdop":1.62,"tdop":0.79,"xdop":0.59,"ydop":0.67,"vdop":1.38,"uSat":10}
{"class":"TPV","device":"/dev/ttyACM0","mode":3,"time":"2024-06-05T06:45:43.249Z","leapseconds":18,"ept":0.005,"lat":52.315811335,"lon":10.562949440,"altHAE":137.5379,"altMSL":93.6403,"alt":93.6403,"epx":8.920,"epy":10.061,"epv":31.740,"track":0.0000,"magtrack":3.2198,"magvar":3.2,"speed":0.000,"climb":0.000,"eps":81.14,"epc":255.97,"ecefx":3841081.39,"ecefy":716268.31,"ecefz":5024470.38,"ecefvx":0.00,"ecefvy":0.00,"ecefvz":0.00,"ecefpAcc":5.13,"ecefvAcc":0.29,"velN":0.000,"velE":0.000,"velD":0.000,"geoidSep":43.898,"eph":16.150,"sep":30.780}
{"class":"SKY","device":"/dev/ttyACM0","time":"2024-06-05T06:45:43.249Z","gdop":1.80,"hdop":0.85,"pdop":1.62,"tdop":0.79,"xdop":0.59,"ydop":0.67,"vdop":1.38,"nSat":14,"uSat":11,"satellites":[{"PRN":26,"gnssid":0,"svid":26,"az":293.0,"el":46.0,"ss":44.0,"used":true,"health":1},{"PRN":5,"gnssid":0,"svid":5,"az":86.0,"el":19.0,"ss":45.0,"used":true,"health":1},{"PRN":29,"gnssid":0,"svid":29,"az":67.0,"el":71.0,"ss":48.0,"used":true,"health":1},{"PRN":9,"gnssid":0,"svid":9,"az":355.0,"el":3.0,"ss":32.0,"used":false,"health":1},{"PRN":18,"gnssid":0,"svid":18,"az":176.0,"el":39.0,"ss":43.0,"used":true,"health":1},{"PRN":33,"gnssid":1,"svid":120,"az":0.0,"el":-9.0,"ss":0.0,"used":false,"health":1},{"PRN":16,"gnssid":0,"svid":16,"az":295.0,"el":9.0,"ss":30.0,"used":false,"health":1},{"PRN":25,"gnssid":0,"svid":25,"az":124.0,"el":32.0,"ss":44.0,"used":true,"health":1},{"PRN":28,"gnssid":0,"svid":28,"az":218.0,"el":43.0,"ss":37.0,"used":true,"health":1},{"PRN":20,"gnssid":0,"svid":20,"az":56.0,"el":21.0,"ss":43.0,"used":true,"health":1},{"PRN":11,"gnssid":0,"svid":11,"az":36.0,"el":9.0,"ss":46.0,"used":true,"health":1},{"PRN":31,"gnssid":0,"svid":31,"az":265.0,"el":50.0,"ss":34.0,"used":true,"health":1},{"PRN":12,"gnssid":0,"svid":12,"az":117.0,"el":5.0,"ss":32.0,"used":true,"health":1},{"PRN":4,"gnssid":0,"svid":4,"az":321.0,"el":11.0,"ss":34.0,"used":true,"health":1}]}
{"class":"TPV","device":"/dev/ttyACM0","mode":3,"time":"2024-06-05T06:45:43.501Z","leapseconds":18,"ept":0.005,"lat":52.315811376,"lon":10.562949179,"altHAE":137.5217,"altMSL":93.6242,"alt":93.6242,"epx":8.920,"epy":10.061,"epv":31.740,"track":278.3949,"magtrack":281.6147,"magvar":3.2,"speed":0.010,"climb":-0.001,"eps":0.28,"epc":251.90,"ecefx":3841081.38,"ecefy":716268.29,"ecefz":5024470.37,"ecefvx":0.00,"ecefvy":-0.01,"ecefvz":0.00,"ecefpAcc":5.13,"ecefvAcc":0.28,"velN":0.001,"velE":-0.010,"velD":0.001,"geoidSep":43.898,"eph":16.150,"sep":30.780}
{"class":"SKY","device":"/dev/ttyACM0","time":"2024-06-05T06:45:43.249Z","gdop":1.80,"hdop":0.85,"pdop":1.62,"tdop":0.79,"xdop":0.59,"ydop":0.67,"vdop":1.38,"uSat":10}
{"class":"SKY","device":"/dev/ttyACM0","time":"2024-06-05T06:45:43.249Z","gdop":1.80,"hdop":0.85,"pdop":1.62,"tdop":0.79,"xdop":0.59,"ydop":0.67,"vdop":1.38,"uSat":10}
{"class":"TPV","device":"/dev/ttyACM0","mode":3,"time":"2024-06-05T06:45:43.501Z","leapseconds":18,"ept":0.005,"lat":52.315811376,"lon":10.562949179,"altHAE":137.5217,"altMSL":93.6242,"alt":93.6242,"epx":8.920,"epy":10.061,"epv":31.740,"track":278.3949,"magtrack":281.6147,"magvar":3.2,"speed":0.010,"climb":-0.001,"eps":79.85,"epc":251.90,"ecefx":3841081.38,"ecefy":716268.29,"ecefz":5024470.37,"ecefvx":0.00,"ecefvy":-0.01,"ecefvz":0.00,"ecefpAcc":5.13,"ecefvAcc":0.28,"velN":0.001,"velE":-0.010,"velD":0.001,"geoidSep":43.898,"eph":16.150,"sep":30.780}
{"class":"SKY","device":"/dev/ttyACM0","time":"2024-06-05T06:45:43.501Z","gdop":1.80,"hdop":0.85,"pdop":1.62,"tdop":0.79,"xdop":0.59,"ydop":0.67,"vdop":1.38,"nSat":14,"uSat":11,"satellites":[{"PRN":26,"gnssid":0,"svid":26,"az":293.0,"el":46.0,"ss":43.0,"used":true,"health":1},{"PRN":5,"gnssid":0,"svid":5,"az":86.0,"el":19.0,"ss":45.0,"used":true,"health":1},{"PRN":29,"gnssid":0,"svid":29,"az":67.0,"el":71.0,"ss":48.0,"used":true,"health":1},{"PRN":9,"gnssid":0,"svid":9,"az":355.0,"el":3.0,"ss":33.0,"used":false,"health":1},{"PRN":18,"gnssid":0,"svid":18,"az":176.0,"el":39.0,"ss":43.0,"used":true,"health":1},{"PRN":33,"gnssid":1,"svid":120,"az":0.0,"el":-9.0,"ss":0.0,"used":false,"health":1},{"PRN":16,"gnssid":0,"svid":16,"az":295.0,"el":9.0,"ss":30.0,"used":false,"health":1},{"PRN":25,"gnssid":0,"svid":25,"az":124.0,"el":32.0,"ss":44.0,"used":true,"health":1},{"PRN":28,"gnssid":0,"svid":28,"az":218.0,"el":43.0,"ss":36.0,"used":true,"health":1},{"PRN":20,"gnssid":0,"svid":20,"az":56.0,"el":21.0,"ss":43.0,"used":true,"health":1},{"PRN":11,"gnssid":0,"svid":11,"az":36.0,"el":9.0,"ss":46.0,"used":true,"health":1},{"PRN":31,"gnssid":0,"svid":31,"az":265.0,"el":50.0,"ss":34.0,"used":true,"health":1},{"PRN":12,"gnssid":0,"svid":12,"az":117.0,"el":5.0,"ss":33.0,"used":true,"health":1},{"PRN":4,"gnssid":0,"svid":4,"az":321.0,"el":11.0,"ss":35.0,"used":true,"health":1}]}
{"class":"TPV","device":"/dev/ttyACM0","mode":3,"time":"2024-06-05T06:45:43.749Z","leapseconds":18,"ept":0.005,"lat":52.315811248,"lon":10.562948575,"altHAE":137.5074,"altMSL":93.6099,"alt":93.6099,"epx":8.920,"epy":10.061,"epv":31.740,"track":268.3723,"magtrack":271.5921,"magvar":3.2,"speed":0.081,"climb":-0.011,"eps":0.28,"epc":255.97,"ecefx":3841081.39,"ecefy":716268.25,"ecefz":5024470.35,"ecefvx":0.01,"ecefvy":-0.08,"ecefvz":-0.01,"ecefpAcc":5.13,"ecefvAcc":0.28,"velN":-0.002,"velE":-0.080,"velD":0.011,"geoidSep":43.898,"eph":16.150,"sep":30.780}
{"class":"SKY","device":"/dev/ttyACM0","time":"2024-06-05T06:45:43.501Z","gdop":1.80,"hdop":0.85,"pdop":1.62,"tdop":0.79,"xdop":0.59,"ydop":0.67,"vdop":1.38,"uSat":10}
{"class":"SKY","device":"/dev/ttyACM0","time":"2024-06-05T06:45:43.501Z","gdop":1.80,"hdop":0.85,"pdop":1.62,"tdop":0.79,"xdop":0.59,"ydop":0.67,"vdop":1.38,"uSat":10}
{"class":"TPV","device":"/dev/ttyACM0","mode":3,"time":"2024-06-05T06:45:43.749Z","leapseconds":18,"ept":0.005,"lat":52.315811248,"lon":10.562948575,"altHAE":137.5074,"altMSL":93.6099,"alt":93.6099,"epx":8.920,"epy":10.061,"epv":31.740,"track":268.3723,"magtrack":271.5921,"magvar":3.2,"speed":0.081,"climb":-0.011,"eps":81.14,"epc":255.97,"ecefx":3841081.39,"ecefy":716268.25,"ecefz":5024470.35,"ecefvx":0.01,"ecefvy":-0.08,"ecefvz":-0.01,"ecefpAcc":5.13,"ecefvAcc":0.28,"velN":-0.002,"velE":-0.080,"velD":0.011,"geoidSep":43.898,"eph":16.150,"sep":30.780}
{"class":"SKY","device":"/dev/ttyACM0","time":"2024-06-05T06:45:43.749Z","gdop":1.80,"hdop":0.85,"pdop":1.62,"tdop":0.79,"xdop":0.59,"ydop":0.67,"vdop":1.38,"nSat":14,"uSat":11,"satellites":[{"PRN":26,"gnssid":0,"svid":26,"az":293.0,"el":46.0,"ss":43.0,"used":true,"health":1},{"PRN":5,"gnssid":0,"svid":5,"az":86.0,"el":19.0,"ss":45.0,"used":true,"health":1},{"PRN":29,"gnssid":0,"svid":29,"az":67.0,"el":71.0,"ss":48.0,"used":true,"health":1},{"PRN":9,"gnssid":0,"svid":9,"az":355.0,"el":3.0,"ss":32.0,"used":false,"health":1},{"PRN":18,"gnssid":0,"svid":18,"az":176.0,"el":39.0,"ss":42.0,"used":true,"health":1},{"PRN":37,"gnssid":1,"svid":124,"az":0.0,"el":-9.0,"ss":0.0,"used":false,"health":1},{"PRN":16,"gnssid":0,"svid":16,"az":295.0,"el":9.0,"ss":30.0,"used":false,"health":1},{"PRN":25,"gnssid":0,"svid":25,"az":124.0,"el":32.0,"ss":45.0,"used":true,"health":1},{"PRN":28,"gnssid":0,"svid":28,"az":218.0,"el":43.0,"ss":36.0,"used":true,"health":1},{"PRN":20,"gnssid":0,"svid":20,"az":56.0,"el":21.0,"ss":43.0,"used":true,"health":1},{"PRN":11,"gnssid":0,"svid":11,"az":36.0,"el":9.0,"ss":46.0,"used":true,"health":1},{"PRN":31,"gnssid":0,"svid":31,"az":265.0,"el":50.0,"ss":34.0,"used":true,"health":1},{"PRN":12,"gnssid":0,"svid":12,"az":117.0,"el":5.0,"ss":34.0,"used":true,"health":1},{"PRN":4,"gnssid":0,"svid":4,"az":321.0,"el":11.0,"ss":36.0,"used":true,"health":1}]}
{"class":"TPV","device":"/dev/ttyACM0","mode":3,"time":"2024-06-05T06:45:44.001Z","leapseconds":18,"ept":0.005,"lat":52.315811263,"lon":10.562946621,"altHAE":137.5188,"altMSL":93.6212,"alt":93.6212,"epx":8.920,"epy":10.061,"epv":31.740,"track":266.1935,"magtrack":269.4133,"magvar":3.2,"speed":0.246,"climb":-0.013,"eps":0.28,"epc":251.90,"ecefx":3841081.42,"ecefy":716268.12,"ecefz":5024470.36,"ecefvx":0.05,"ecefvy":-0.24,"ecefvz":-0.02,"ecefpAcc":5.14,"ecefvAcc":0.28,"velN":-0.016,"velE":-0.245,"velD":0.013,"geoidSep":43.898,"eph":16.150,"sep":30.780}
{"class":"SKY","device":"/dev/ttyACM0","time":"2024-06-05T06:45:43.749Z","gdop":1.80,"hdop":0.85,"pdop":1.62,"tdop":0.79,"xdop":0.59,"ydop":0.67,"vdop":1.38,"uSat":10}
{"class":"SKY","device":"/dev/ttyACM0","time":"2024-06-05T06:45:43.749Z","gdop":1.80,"hdop":0.85,"pdop":1.62,"tdop":0.79,"xdop":0.59,"ydop":0.67,"vdop":1.38,"uSat":10}
{"class":"TPV","device":"/dev/ttyACM0","mode":3,"time":"2024-06-05T06:45:44.001Z","leapseconds":18,"ept":0.005,"lat":52.315811263,"lon":10.562946621,"altHAE":137.5188,"altMSL":93.6212,"alt":93.6212,"epx":8.920,"epy":10.061,"epv":31.740,"track":266.1935,"magtrack":269.4133,"magvar":3.2,"speed":0.246,"climb":-0.013,"eps":79.85,"epc":251.90,"ecefx":3841081.42,"ecefy":716268.12,"ecefz":5024470.36,"ecefvx":0.05,"ecefvy":-0.24,"ecefvz":-0.02,"ecefpAcc":5.14,"ecefvAcc":0.28,"velN":-0.016,"velE":-0.245,"velD":0.013,"geoidSep":43.898,"eph":16.150,"sep":30.780}
{"class":"SKY","device":"/dev/ttyACM0","time":"2024-06-05T06:45:44.001Z","gdop":1.80,"hdop":0.85,"pdop":1.62,"tdop":0.79,"xdop":0.59,"ydop":0.67,"vdop":1.38,"nSat":14,"uSat":11,"satellites":[{"PRN":26,"gnssid":0,"svid":26,"az":293.0,"el":46.0,"ss":43.0,"used":true,"health":1},{"PRN":5,"gnssid":0,"svid":5,"az":86.0,"el":19.0,"ss":44.0,"used":true,"health":1},{"PRN":29,"gnssid":0,"svid":29,"az":67.0,"el":71.0,"ss":49.0,"used":true,"health":1},{"PRN":9,"gnssid":0,"svid":9,"az":355.0,"el":3.0,"ss":30.0,"used":false,"health":1},{"PRN":18,"gnssid":0,"svid":18,"az":176.0,"el":39.0,"ss":43.0,"used":true,"health":1},{"PRN":37,"gnssid":1,"svid":124,"az":0.0,"el":-9.0,"ss":0.0,"used":false,"health":1},{"PRN":16,"gnssid":0,"svid":16,"az":295.0,"el":9.0,"ss":30.0,"used":false,"health":1},{"PRN":25,"gnssid":0,"svid":25,"az":124.0,"el":32.0,"ss":45.0,"used":true,"health":1},{"PRN":28,"gnssid":0,"svid":28,"az":218.0,"el":43.0,"ss":37.0,"used":true,"health":1},{"PRN":20,"gnssid":0,"svid":20,"az":56.0,"el":21.0,"ss":43.0,"used":true,"health":1},{"PRN":11,"gnssid":0,"svid":11,"az":36.0,"el":9.0,"ss":44.0,"used":true,"health":1},{"PRN":31,"gnssid":0,"svid":31,"az":265.0,"el":50.0,"ss":38.0,"used":true,"health":1},{"PRN":12,"gnssid":0,"svid":12,"az":117.0,"el":5.0,"ss":33.0,"used":true,"health":1},{"PRN":4,"gnssid":0,"svid":4,"az":321.0,"el":11.0,"ss":37.0,"used":true,"health":1}]}
{"class":"TPV","device":"/dev/ttyACM0","mode":3,"time":"2024-06-05T06:45:44.249Z","leapseconds":18,"ept":0.005,"lat":52.315811174,"lon":10.562945585,"altHAE":137.5012,"altMSL":93.6036,"alt":93.6036,"epx":8.920,"epy":10.061,"epv":31.740,"track":277.3333,"magtrack":280.5531,"magvar":3.2,"speed":0.414,"climb":0.010,"eps":0.30,"epc":255.97,"ecefx":3841081.43,"ecefy":716268.05,"ecefz":5024470.34,"ecefvx":0.04,"ecefvy":-0.41,"ecefvz":0.04,"ecefpAcc":5.14,"ecefvAcc":0.30,"velN":0.053,"velE":-0.410,"velD":-0.010,"geoidSep":43.898,"eph":16.150,"sep":37.050}
{"class":"SKY","device":"/dev/ttyACM0","time":"2024-06-05T06:45:44.001Z","gdop":1.80,"hdop":0.85,"pdop":1.95,"tdop":0.79,"xdop":0.59,"ydop":0.67,"vdop":1.38,"uSat":10}
{"class":"SKY","device":"/dev/ttyACM0","time":"2024-06-05T06:45:44.001Z","gdop":2.18,"hdop":0.96,"pdop":1.95,"tdop":0.99,"xdop":0.59,"ydop":0.67,"vdop":1.70,"uSat":10}
{"class":"TPV","device":"/dev/ttyACM0","mode":3,"time":"2024-06-05T06:45:44.249Z","leapseconds":18,"ept":0.005,"lat":52.315811174,"lon":10.562945585,"altHAE":137.5012,"altMSL":93.6036,"alt":93.6036,"epx":8.920,"epy":10.061,"epv":31.740,"track":277.3333,"magtrack":280.5531,"magvar":3.2,"speed":0.414,"climb":0.010,"eps":81.14,"epc":255.97,"ecefx":3841081.43,"ecefy":716268.05,"ecefz":5024470.34,"ecefvx":0.04,"ecefvy":-0.41,"ecefvz":0.04,"ecefpAcc":5.14,"ecefvAcc":0.30,"velN":0.053,"velE":-0.410,"velD":-0.010,"geoidSep":43.898,"eph":16.150,"sep":37.050}
{"class":"SKY","device":"/dev/ttyACM0","time":"2024-06-05T06:45:44.249Z","gdop":2.18,"hdop":0.96,"pdop":1.95,"tdop":0.99,"xdop":0.59,"ydop":0.67,"vdop":1.70,"nSat":14,"uSat":9,"satellites":[{"PRN":26,"gnssid":0,"svid":26,"az":293.0,"el":46.0,"ss":43.0,"used":true,"health":1},{"PRN":5,"gnssid":0,"svid":5,"az":86.0,"el":19.0,"ss":44.0,"used":true,"health":1},{"PRN":29,"gnssid":0,"svid":29,"az":67.0,"el":71.0,"ss":49.0,"used":true,"health":1},{"PRN":9,"gnssid":0,"svid":9,"az":355.0,"el":3.0,"ss":31.0,"used":false,"health":1},{"PRN":18,"gnssid":0,"svid":18,"az":176.0,"el":39.0,"ss":43.0,"used":true,"health":1},{"PRN":37,"gnssid":1,"svid":124,"az":0.0,"el":-9.0,"ss":0.0,"used":false,"health":1},{"PRN":16,"gnssid":0,"svid":16,"az":295.0,"el":9.0,"ss":25.0,"used":false,"health":1},{"PRN":25,"gnssid":0,"svid":25,"az":124.0,"el":32.0,"ss":46.0,"used":true,"health":1},{"PRN":28,"gnssid":0,"svid":28,"az":218.0,"el":43.0,"ss":40.0,"used":true,"health":1},{"PRN":20,"gnssid":0,"svid":20,"az":56.0,"el":21.0,"ss":44.0,"used":true,"health":1},{"PRN":11,"gnssid":0,"svid":11,"az":36.0,"el":9.0,"ss":44.0,"used":true,"health":1},{"PRN":31,"gnssid":0,"svid":31,"az":265.0,"el":50.0,"ss":37.0,"used":false,"health":1},{"PRN":12,"gnssid":0,"svid":12,"az":117.0,"el":5.0,"ss":30.0,"used":false,"health":1},{"PRN":4,"gnssid":0,"svid":4,"az":321.0,"el":11.0,"ss":37.0,"used":true,"health":1}]}
{"class":"TPV","device":"/dev/ttyACM0","mode":3,"time":"2024-06-05T06:45:44.501Z","leapseconds":18,"ept":0.005,"lat":52.315811278,"lon":10.562942450,"altHAE":137.5175,"altMSL":93.6199,"alt":93.6199,"epx":8.920,"epy":10.061,"epv":39.100,"track":271.2483,"magtrack":274.4681,"magvar":3.2,"speed":0.671,"climb":0.014,"eps":0.30,"epc":281.11,"ecefx":3841081.47,"ecefy":716267.84,"ecefz":5024470.36,"ecefvx":0.12,"ecefvy":-0.66,"ecefvz":0.02,"ecefpAcc":5.14,"ecefvAcc":0.30,"velN":0.015,"velE":-0.671,"velD":-0.014,"geoidSep":43.898,"eph":18.240,"sep":36.290}
{"class":"SKY","device":"/dev/ttyACM0","time":"2024-06-05T06:45:44.249Z","gdop":2.18,"hdop":0.96,"pdop":1.91,"tdop":0.99,"xdop":0.59,"ydop":0.67,"vdop":1.70,"uSat":10}
{"class":"SKY","device":"/dev/ttyACM0","time":"2024-06-05T06:45:44.249Z","gdop":2.14,"hdop":0.94,"pdop":1.91,"tdop":0.98,"xdop":0.59,"ydop":0.67,"vdop":1.66,"uSat":10}
{"class":"TPV","device":"/dev/ttyACM0","mode":3,"time":"2024-06-05T06:45:44.501Z","leapseconds":18,"ept":0.005,"lat":52.315811278,"lon":10.562942450,"altHAE":137.5175,"altMSL":93.6199,"alt":93.6199,"epx":8.920,"epy":10.061,"epv":39.100,"track":271.2483,"magtrack":274.4681,"magvar":3.2,"speed":0.671,"climb":0.014,"eps":79.85,"epc":281.11,"ecefx":3841081.47,"ecefy":716267.84,"ecefz":5024470.36,"ecefvx":0.12,"ecefvy":-0.66,"ecefvz":0.02,"ecefpAcc":5.14,"ecefvAcc":0.30,"velN":0.015,"velE":-0.671,"velD":-0.014,"geoidSep":43.898,"eph":18.240,"sep":36.290}
