{"class":"VERSION","release":"3.25","rev":"3.25","proto_major":3,"proto_minor":15}
{"class":"DEVICES","devices":[{"class":"DEVICE","path":"/dev/ttyACM0","driver":"u-blox","subtype":"SW 5.00    May 11 2006 14:40:17,HW 00040001","subtype1":"M4T1.2  May 11 2006 14:40:17","activated":"2024-06-05T06:40:06.432Z","flags":1,"native":1,"bps":57600,"parity":"N","stopbits":1,"cycle":1.00,"mincycle":0.02}]}
{"class":"WATCH","enable":true,"json":true,"nmea":false,"raw":0,"scaled":false,"timing":false,"split24":false,"pps":false}
{"class":"TPV","device":"/dev/ttyACM0","mode":3,"time":"2024-06-05T06:40:06.501Z","leapseconds":18,"ept":0.005,"lat":52.315663416,"lon":10.561642447,"altHAE":164.8721,"altMSL":120.9731,"alt":120.9731,"epx":8.920,"epy":10.061,"epv":38.410,"track":48.6643,"magtrack":51.8838,"magvar":3.2,"speed":0.027,"climb":0.113,"eps":0.22,"epc":304.84,"ecefx":3841126.96,"ecefy":716186.14,"ecefz":5024481.95,"ecefvx":0.05,"ecefvy":0.03,"ecefvz":0.10,"ecefpAcc":6.02,"ecefvAcc":0.22,"velN":0.018,"velE":0.020,"velD":-0.113,"geoidSep":43.899,"eph":18.810,"sep":36.860}
{"class":"SKY","device":"/dev/ttyACM0","time":"2024-06-05T06:40:06.249Z","gdop":2.18,"hdop":0.99,"pdop":1.94,"tdop":1.00,"xdop":0.59,"ydop":0.67,"vdop":1.67,"uSat":10}
{"class":"SKY","device":"/dev/ttyACM0","time":"2024-06-05T06:40:06.249Z","gdop":2.18,"hdop":0.99,"pdop":1.94,"tdop":1.00,"xdop":0.59,"ydop":0.67,"vdop":1.67,"uSat":10}
{"class":"TPV","device":"/dev/ttyACM0","mode":3,"time":"2024-06-05T06:40:06.501Z","leapseconds":18,"ept":0.005,"lat":52.315663416,"lon":10.561642447,"altHAE":164.8721,"altMSL":120.9731,"alt":120.9731,"epx":8.920,"epy":10.061,"epv":38.410,"track":48.6643,"magtrack":51.8838,"magvar":3.2,"speed":0.027,"climb":0.113,"eps":79.85,"epc":304.84,"ecefx":3841126.96,"ecefy":716186.14,"ecefz":5024481.95,"ecefvx":0.05,"ecefvy":0.03,"ecefvz":0.10,"ecefpAcc":6.02,"ecefvAcc":0.22,"velN":0.018,"velE":0.020,"velD":-0.113,"geoidSep":43.899,"eph":18.810,"sep":36.860}
{"class":"SKY","device":"/dev/ttyACM0","time":"2024-06-05T06:40:06.501Z","gdop":2.18,"hdop":0.99,"pdop":1.94,"tdop":1.00,"xdop":0.59,"ydop":0.67,"vdop":1.67,"nSat":14,"uSat":9,"satellites":[{"PRN":26,"gnssid":0,"svid":26,"az":294.0,"el":44.0,"ss":44.0,"used":true,"health":1},{"PRN":5,"gnssid":0,"svid":5,"az":88.0,"el":18.0,"ss":32.0,"used":true,"health":1},{"PRN":29,"gnssid":0,"svid":29,"az":68.0,"el":73.0,"ss":49.0,"used":true,"health":1},{"PRN":9,"gnssid":0,"svid":9,"az":357.0,"el":2.0,"ss":21.0,"used":false,"health":1},{"PRN":18,"gnssid":0,"svid":18,"az":177.0,"el":36.0,"ss":40.0,"used":true,"health":1},{"PRN":39,"gnssid":1,"svid":126,"az":0.0,"el":-9.0,"ss":0.0,"used":false,"health":1},{"PRN":16,"gnssid":0,"svid":16,"az":0.0,"el":-9.0,"ss":40.0,"used":false,"health":1},{"PRN":25,"gnssid":0,"svid":25,"az":122.0,"el":35.0,"ss":44.0,"used":true,"health":1},{"PRN":28,"gnssid":0,"svid":28,"az":220.0,"el":45.0,"ss":44.0,"used":true,"health":1},{"PRN":20,"gnssid":0,"svid":20,"az":59.0,"el":21.0,"ss":30.0,"used":false,"health":1},{"PRN":11,"gnssid":0,"svid":11,"az":37.0,"el":11.0,"ss":39.0,"used":true,"health":1},{"PRN":31,"gnssid":0,"svid":31,"az":269.0,"el":50.0,"ss":45.0,"used":true,"health":1},{"PRN":12,"gnssid":0,"svid":12,"az":116.0,"el":7.0,"ss":23.0,"used":false,"health":1},{"PRN":4,"gnssid":0,"svid":4,"az":323.0,"el":11.0,"ss":31.0,"used":true,"health":1}]}
{"class":"TPV","device":"/dev/ttyACM0","mode":3,"time":"2024-06-05T06:40:06.749Z","leapseconds":18,"ept":0.005,"lat":52.315663276,"lon":10.561642394,"altHAE":164.8841,"altMSL":120.9851,"alt":120.9851,"epx":8.920,"epy":10.061,"epv":38.410,"track":61.4188,"magtrack":64.6382,"magvar":3.2,"speed":0.034,"climb":0.114,"eps":0.22,"epc":309.76,"ecefx":3841126.98,"ecefy":716186.14,"ecefz":5024481.95,"ecefvx":0.05,"ecefvy":0.04,"ecefvz":0.10,"ecefpAcc":6.02,"ecefvAcc":0.22,"velN":0.016,"velE":0.030,"velD":-0.114,"geoidSep":43.899,"eph":18.810,"sep":36.860}
{"class":"SKY","device":"/dev/ttyACM0","time":"2024-06-05T06:40:06.501Z","gdop":2.18,"hdop":0.99,"pdop":1.94,"tdop":1.00,"xdop":0.59,"ydop":0.67,"vdop":1.67,"uSat":10}
{"class":"SKY","device":"/dev/ttyACM0","time":"2024-06-05T06:40:06.501Z","gdop":2.18,"hdop":0.99,"pdop":1.94,"tdop":1.00,"xdop":0.59,"ydop":0.67,"vdop":1.67,"uSat":10}
{"class":"TPV","device":"/dev/ttyACM0","mode":3,"time":"2024-06-05T06:40:06.749Z","leapseconds":18,"ept":0.005,"lat":52.315663276,"lon":10.561642394,"altHAE":164.8841,"altMSL":120.9851,"alt":120.9851,"epx":8.920,"epy":10.061,"epv":38.410,"track":61.4188,"magtrack":64.6382,"magvar":3.2,"speed":0.034,"climb":0.114,"eps":81.14,"epc":309.76,"ecefx":3841126.98,"ecefy":716186.14,"ecefz":5024481.95,"ecefvx":0.05,"ecefvy":0.04,"ecefvz":0.10,"ecefpAcc":6.02,"ecefvAcc":0.22,"velN":0.016,"velE":0.030,"velD":-0.114,"geoidSep":43.899,"eph":18.810,"sep":36.860}
{"class":"SKY","device":"/dev/ttyACM0","time":"2024-06-05T06:40:06.749Z","gdop":2.18,"hdop":0.99,"pdop":1.94,"tdop":1.00,"xdop":0.59,"ydop":0.67,"vdop":1.67,"nSat":14,"uSat":9,"satellites":[{"PRN":26,"gnssid":0,"svid":26,"az":294.0,"el":44.0,"ss":44.0,"used":true,"health":1},{"PRN":5,"gnssid":0,"svid":5,"az":88.0,"el":18.0,"ss":32.0,"used":true,"health":1},{"PRN":29,"gnssid":0,"svid":29,"az":68.0,"el":73.0,"ss":49.0,"used":true,"health":1},{"PRN":9,"gnssid":0,"svid":9,"az":357.0,"el":2.0,"ss":21.0,"used":false,"health":1},{"PRN":18,"gnssid":0,"svid":18,"az":177.0,"el":36.0,"ss":40.0,"used":true,"health":1},{"PRN":39,"gnssid":1,"svid":126,"az":0.0,"el":-9.0,"ss":0.0,"used":false,"health":1},{"PRN":16,"gnssid":0,"svid":16,"az":0.0,"el":-9.0,"ss":40.0,"used":false,"health":1},{"PRN":25,"gnssid":0,"svid":25,"az":122.0,"el":35.0,"ss":44.0,"used":true,"health":1},{"PRN":28,"gnssid":0,"svid":28,"az":220.0,"el":45.0,"ss":44.0,"used":true,"health":1},{"PRN":20,"gnssid":0,"svid":20,"az":59.0,"el":21.0,"ss":30.0,"used":false,"health":1},{"PRN":11,"gnssid":0,"svid":11,"az":37.0,"el":11.0,"ss":38.0,"used":true,"health":1},{"PRN":31,"gnssid":0,"svid":31,"az":269.0,"el":50.0,"ss":45.0,"used":true,"health":1},{"PRN":12,"gnssid":0,"svid":12,"az":116.0,"el":7.0,"ss":23.0,"used":false,"health":1},{"PRN":4,"gnssid":0,"svid":4,"az":323.0,"el":11.0,"ss":30.0,"used":true,"health":1}]}
{"class":"TPV","device":"/dev/ttyACM0","mode":3,"time":"2024-06-05T06:40:07.001Z","leapseconds":18,"ept":0.005,"lat":52.315663150,"lon":10.561642196,"altHAE":164.8950,"altMSL":120.9960,"alt":120.9960,"epx":8.920,"epy":10.061,"epv":38.410,"track":40.8139,"magtrack":44.0333,"magvar":3.2,"speed":0.034,"climb":0.107,"eps":0.22,"epc":304.84,"ecefx":3841127.00,"ecefy":716186.13,"ecefz":5024481.95,"ecefvx":0.04,"ecefvy":0.03,"ecefvz":0.10,"ecefpAcc":6.02,"ecefvAcc":0.22,"velN":0.026,"velE":0.022,"velD":-0.107,"geoidSep":43.899,"eph":18.810,"sep":36.860}
{"class":"SKY","device":"/dev/ttyACM0","time":"2024-06-05T06:40:06.749Z","gdop":2.18,"hdop":0.99,"pdop":1.94,"tdop":1.00,"xdop":0.59,"ydop":0.67,"vdop":1.67,"uSat":10}
{"class":"SKY","device":"/dev/ttyACM0","time":"2024-06-05T06:40:06.749Z","gdop":2.18,"hdop":0.99,"pdop":1.94,"tdop":1.00,"xdop":0.59,"ydop":0.67,"vdop":1.67,"uSat":10}
{"class":"TPV","device":"/dev/ttyACM0","mode":3,"time":"2024-06-05T06:40:07.001Z","leapseconds":18,"ept":0.005,"lat":52.315663150,"lon":10.561642196,"altHAE":164.8950,"altMSL":120.9960,"alt":120.9960,"epx":8.920,"epy":10.061,"epv":38.410,"track":40.8139,"magtrack":44.0333,"magvar":3.2,"speed":0.034,"climb":0.107,"eps":79.85,"epc":304.84,"ecefx":3841127.00,"ecefy":716186.13,"ecefz":5024481.95,"ecefvx":0.04,"ecefvy":0.03,"ecefvz":0.10,"ecefpAcc":6.02,"ecefvAcc":0.22,"velN":0.026,"velE":0.022,"velD":-0.107,"geoidSep":43.899,"eph":18.810,"sep":36.860}
{"class":"SKY","device":"/dev/ttyACM0","time":"2024-06-05T06:40:07.001Z","gdop":2.18,"hdop":0.99,"pdop":1.94,"tdop":1.00,"xdop":0.59,"ydop":0.67,"vdop":1.67,"nSat":14,"uSat":9,"satellites":[{"PRN":26,"gnssid":0,"svid":26,"az":294.0,"el":44.0,"ss":43.0,"used":true,"health":1},{"PRN":5,"gnssid":0,"svid":5,"az":88.0,"el":18.0,"ss":32.0,"used":true,"health":1},{"PRN":29,"gnssid":0,"svid":29,"az":68.0,"el":73.0,"ss":49.0,"used":true,"health":1},{"PRN":9,"gnssid":0,"svid":9,"az":357.0,"el":2.0,"ss":21.0,"used":false,"health":1},{"PRN":18,"gnssid":0,"svid":18,"az":177.0,"el":36.0,"ss":39.0,"used":true,"health":1},{"PRN":39,"gnssid":1,"svid":126,"az":0.0,"el":-9.0,"ss":0.0,"used":false,"health":1},{"PRN":16,"gnssid":0,"svid":16,"az":0.0,"el":-9.0,"ss":40.0,"used":false,"health":1},{"PRN":25,"gnssid":0,"svid":25,"az":122.0,"el":35.0,"ss":44.0,"used":true,"health":1},{"PRN":28,"gnssid":0,"svid":28,"az":220.0,"el":45.0,"ss":44.0,"used":true,"health":1},{"PRN":20,"gnssid":0,"svid":20,"az":59.0,"el":21.0,"ss":29.0,"used":false,"health":1},{"PRN":11,"gnssid":0,"svid":11,"az":37.0,"el":11.0,"ss":38.0,"used":true,"health":1},{"PRN":31,"gnssid":0,"svid":31,"az":269.0,"el":50.0,"ss":45.0,"used":true,"health":1},{"PRN":12,"gnssid":0,"svid":12,"az":116.0,"el":7.0,"ss":23.0,"used":false,"health":1},{"PRN":4,"gnssid":0,"svid":4,"az":323.0,"el":11.0,"ss":29.0,"used":true,"health":1}]}
{"class":"TPV","device":"/dev/ttyACM0","mode":3,"time":"2024-06-05T06:40:07.249Z","leapseconds":18,"ept":0.005,"lat":52.315663065,"lon":10.561642142,"altHAE":164.9149,"altMSL":121.0159,"alt":121.0159,"epx":8.920,"epy":10.061,"epv":38.410,"track":34.4409,"magtrack":37.6603,"magvar":3.2,"speed":0.063,"climb":0.111,"eps":0.22,"epc":309.76,"ecefx":3841127.02,"ecefy":716186.13,"ecefz":5024481.96,"ecefvx":0.02,"ecefvy":0.04,"ecefvz":0.12,"ecefpAcc":6.01,"ecefvAcc":0.22,"velN":0.052,"velE":0.036,"velD":-0.111,"geoidSep":43.899,"eph":18.810,"sep":43.700}
{"class":"SKY","device":"/dev/ttyACM0","time":"2024-06-05T06:40:07.001Z","gdop":2.18,"hdop":0.99,"pdop":2.30,"tdop":1.00,"xdop":0.59,"ydop":0.67,"vdop":1.67,"uSat":10}
{"class":"SKY","device":"/dev/ttyACM0","time":"2024-06-05T06:40:07.001Z","gdop":2.64,"hdop":1.10,"pdop":2.30,"tdop":1.28,"xdop":0.59,"ydop":0.67,"vdop":2.02,"uSat":10}
{"class":"TPV","device":"/dev/ttyACM0","mode":3,"time":"2024-06-05T06:40:07.249Z","leapseconds":18,"ept":0.005,"lat":52.315663065,"lon":10.561642142,"altHAE":164.9149,"altMSL":121.0159,"alt":121.0159,"epx":8.920,"epy":10.061,"epv":38.410,"track":34.4409,"magtrack":37.6603,"magvar":3.2,"speed":0.063,"climb":0.111,"eps":81.14,"epc":309.76,"ecefx":3841127.02,"ecefy":716186.13,"ecefz":5024481.96,"ecefvx":0.02,"ecefvy":0.04,"ecefvz":0.12,"ecefpAcc":6.01,"ecefvAcc":0.22,"velN":0.052,"velE":0.036,"velD":-0.111,"geoidSep":43.899,"eph":18.810,"sep":43.700}
{"class":"SKY","device":"/dev/ttyACM0","time":"2024-06-05T06:40:07.249Z","gdop":2.64,"hdop":1.10,"pdop":2.30,"tdop":1.28,"xdop":0.59,"ydop":0.67,"vdop":2.02,"nSat":14,"uSat":8,"satellites":[{"PRN":26,"gnssid":0,"svid":26,"az":294.0,"el":44.0,"ss":44.0,"used":true,"health":1},{"PRN":5,"gnssid":0,"svid":5,"az":88.0,"el":18.0,"ss":33.0,"used":true,"health":1},{"PRN":29,"gnssid":0,"svid":29,"az":68.0,"el":73.0,"ss":49.0,"used":true,"health":1},{"PRN":9,"gnssid":0,"svid":9,"az":357.0,"el":2.0,"ss":22.0,"used":false,"health":1},{"PRN":18,"gnssid":0,"svid":18,"az":177.0,"el":36.0,"ss":39.0,"used":true,"health":1},{"PRN":39,"gnssid":1,"svid":126,"az":0.0,"el":-9.0,"ss":0.0,"used":false,"health":1},{"PRN":16,"gnssid":0,"svid":16,"az":0.0,"el":-9.0,"ss":39.0,"used":false,"health":1},{"PRN":25,"gnssid":0,"svid":25,"az":122.0,"el":35.0,"ss":44.0,"used":true,"health":1},{"PRN":28,"gnssid":0,"svid":28,"az":220.0,"el":45.0,"ss":44.0,"used":true,"health":1},{"PRN":20,"gnssid":0,"svid":20,"az":59.0,"el":21.0,"ss":25.0,"used":false,"health":1},{"PRN":11,"gnssid":0,"svid":11,"az":37.0,"el":11.0,"ss":39.0,"used":true,"health":1},{"PRN":31,"gnssid":0,"svid":31,"az":269.0,"el":50.0,"ss":45.0,"used":true,"health":1},{"PRN":12,"gnssid":0,"svid":12,"az":116.0,"el":7.0,"ss":23.0,"used":false,"health":1},{"PRN":4,"gnssid":0,"svid":4,"az":323.0,"el":11.0,"ss":28.0,"used":false,"health":1}]}
{"class":"TPV","device":"/dev/ttyACM0","mode":3,"time":"2024-06-05T06:40:07.501Z","leapseconds":18,"ept":0.005,"lat":52.315663104,"lon":10.561642350,"altHAE":164.9747,"altMSL":121.0758,"alt":121.0758,"epx":8.920,"epy":10.061,"epv":46.460,"track":39.8108,"magtrack":43.0303,"magvar":3.2,"speed":0.092,"climb":0.110,"eps":0.22,"epc":336.79,"ecefx":3841127.05,"ecefy":716186.15,"ecefz":5024482.01,"ecefvx":0.00,"ecefvy":0.06,"ecefvz":0.13,"ecefpAcc":6.01,"ecefvAcc":0.22,"velN":0.071,"velE":0.059,"velD":-0.110,"geoidSep":43.899,"eph":20.900,"sep":43.700}
{"class":"SKY","device":"/dev/ttyACM0","time":"2024-06-05T06:40:07.249Z","gdop":2.64,"hdop":1.10,"pdop":2.30,"tdop":1.28,"xdop":0.59,"ydop":0.67,"vdop":2.02,"uSat":10}
{"class":"SKY","device":"/dev/ttyACM0","time":"2024-06-05T06:40:07.249Z","gdop":2.64,"hdop":1.10,"pdop":2.30,"tdop":1.28,"xdop":0.59,"ydop":0.67,"vdop":2.02,"uSat":10}
{"class":"TPV","device":"/dev/ttyACM0","mode":3,"time":"2024-06-05T06:40:07.501Z","leapseconds":18,"ept":0.005,"lat":52.315663104,"lon":10.561642350,"altHAE":164.9747,"altMSL":121.0758,"alt":121.0758,"epx":8.920,"epy":10.061,"epv":46.460,"track":39.8108,"magtrack":43.0303,"magvar":3.2,"speed":0.092,"climb":0.110,"eps":79.85,"epc":336.79,"ecefx":3841127.05,"ecefy":716186.15,"ecefz":5024482.01,"ecefvx":0.00,"ecefvy":0.06,"ecefvz":0.13,"ecefpAcc":6.01,"ecefvAcc":0.22,"velN":0.071,"velE":0.059,"velD":-0.110,"geoidSep":43.899,"eph":20.900,"sep":43.700}
{"class":"SKY","device":"/dev/ttyACM0","time":"2024-06-05T06:40:07.501Z","gdop":2.64,"hdop":1.10,"pdop":2.30,"tdop":1.28,"xdop":0.59,"ydop":0.67,"vdop":2.02,"nSat":14,"uSat":8,"satellites":[{"PRN":26,"gnssid":0,"svid":26,"az":294.0,"el":44.0,"ss":45.0,"used":true,"health":1},{"PRN":5,"gnssid":0,"svid":5,"az":88.0,"el":18.0,"ss":31.0,"used":true,"health":1},{"PRN":29,"gnssid":0,"svid":29,"az":68.0,"el":73.0,"ss":48.0,"used":true,"health":1},{"PRN":9,"gnssid":0,"svid":9,"az":357.0,"el":2.0,"ss":22.0,"used":false,"health":1},{"PRN":18,"gnssid":0,"svid":18,"az":177.0,"el":36.0,"ss":40.0,"used":true,"health":1},{"PRN":39,"gnssid":1,"svid":126,"az":0.0,"el":-9.0,"ss":0.0,"used":false,"health":1},{"PRN":16,"gnssid":0,"svid":16,"az":0.0,"el":-9.0,"ss":37.0,"used":false,"health":1},{"PRN":25,"gnssid":0,"svid":25,"az":122.0,"el":35.0,"ss":43.0,"used":true,"health":1},{"PRN":28,"gnssid":0,"svid":28,"az":220.0,"el":45.0,"ss":44.0,"used":true,"health":1},{"PRN":20,"gnssid":0,"svid":20,"az":59.0,"el":21.0,"ss":26.0,"used":false,"health":1},{"PRN":11,"gnssid":0,"svid":11,"az":37.0,"el":11.0,"ss":39.0,"used":true,"health":1},{"PRN":31,"gnssid":0,"svid":31,"az":269.0,"el":50.0,"ss":44.0,"used":true,"health":1},{"PRN":12,"gnssid":0,"svid":12,"az":116.0,"el":7.0,"ss":23.0,"used":false,"health":1},{"PRN":4,"gnssid":0,"svid":4,"az":323.0,"el":11.0,"ss":25.0,"used":false,"health":1}]}
{"class":"TPV","device":"/dev/ttyACM0","mode":3,"time":"2024-06-05T06:40:07.749Z","leapseconds":18,"ept":0.005,"lat":52.315663460,"lon":10.561643107,"altHAE":165.1084,"altMSL":121.2094,"alt":121.2094,"epx":8.920,"epy":10.061,"epv":46.460,"track":42.9324,"magtrack":46.1518,"magvar":3.2,"speed":0.261,"climb":0.118,"eps":0.24,"epc":374.68,"ecefx":3841127.09,"ecefy":716186.21,"ecefz":5024482.14,"ecefvx":-0.11,"ecefvy":0.16,"ecefvz":0.21,"ecefpAcc":6.01,"ecefvAcc":0.24,"velN":0.191,"velE":0.177,"velD":-0.118,"geoidSep":43.899,"eph":20.900,"sep":53.390}
{"class":"SKY","device":"/dev/ttyACM0","time":"2024-06-05T06:40:07.501Z","gdop":2.64,"hdop":1.10,"pdop":2.81,"tdop":1.28,"xdop":0.59,"ydop":0.67,"vdop":2.02,"uSat":10}
{"class":"SKY","device":"/dev/ttyACM0","time":"2024-06-05T06:40:07.501Z","gdop":3.30,"hdop":1.28,"pdop":2.81,"tdop":1.74,"xdop":0.59,"ydop":0.67,"vdop":2.50,"uSat":10}
{"class":"TPV","device":"/dev/ttyACM0","mode":3,"time":"2024-06-05T06:40:07.749Z","leapseconds":18,"ept":0.005,"lat":52.315663460,"lon":10.561643107,"altHAE":165.1084,"altMSL":121.2094,"alt":121.2094,"epx":8.920,"epy":10.061,"epv":46.460,"track":42.9324,"magtrack":46.1518,"magvar":3.2,"speed":0.261,"climb":0.118,"eps":81.14,"epc":374.68,"ecefx":3841127.09,"ecefy":716186.21,"ecefz":5024482.14,"ecefvx":-0.11,"ecefvy":0.16,"ecefvz":0.21,"ecefpAcc":6.01,"ecefvAcc":0.24,"velN":0.191,"velE":0.177,"velD":-0.118,"geoidSep":43.899,"eph":20.900,"sep":53.390}
{"class":"SKY","device":"/dev/ttyACM0","time":"2024-06-05T06:40:07.749Z","gdop":3.30,"hdop":1.28,"pdop":2.81,"tdop":1.74,"xdop":0.59,"ydop":0.67,"vdop":2.50,"nSat":14,"uSat":7,"satellites":[{"PRN":26,"gnssid":0,"svid":26,"az":294.0,"el":44.0,"ss":45.0,"used":true,"health":1},{"PRN":5,"gnssid":0,"svid":5,"az":88.0,"el":18.0,"ss":33.0,"used":true,"health":1},{"PRN":29,"gnssid":0,"svid":29,"az":68.0,"el":73.0,"ss":49.0,"used":true,"health":1},{"PRN":9,"gnssid":0,"svid":9,"az":357.0,"el":2.0,"ss":22.0,"used":false,"health":1},{"PRN":18,"gnssid":0,"svid":18,"az":177.0,"el":36.0,"ss":41.0,"used":true,"health":1},{"PRN":39,"gnssid":1,"svid":126,"az":0.0,"el":-9.0,"ss":0.0,"used":false,"health":1},{"PRN":16,"gnssid":0,"svid":16,"az":0.0,"el":-9.0,"ss":35.0,"used":false,"health":1},{"PRN":25,"gnssid":0,"svid":25,"az":122.0,"el":35.0,"ss":43.0,"used":true,"health":1},{"PRN":28,"gnssid":0,"svid":28,"az":220.0,"el":45.0,"ss":44.0,"used":true,"health":1},{"PRN":20,"gnssid":0,"svid":20,"az":59.0,"el":21.0,"ss":32.0,"used":false,"health":1},{"PRN":11,"gnssid":0,"svid":11,"az":37.0,"el":11.0,"ss":37.0,"used":false,"health":1},{"PRN":31,"gnssid":0,"svid":31,"az":269.0,"el":50.0,"ss":44.0,"used":true,"health":1},{"PRN":12,"gnssid":0,"svid":12,"az":116.0,"el":7.0,"ss":24.0,"used":false,"health":1},{"PRN":4,"gnssid":0,"svid":4,"az":323.0,"el":11.0,"ss":25.0,"used":false,"health":1}]}
{"class":"TPV","device":"/dev/ttyACM0","mode":3,"time":"2024-06-05T06:40:08.001Z","leapseconds":18,"ept":0.005,"lat":52.315664526,"lon":10.561644458,"altHAE":165.2568,"altMSL":121.3578,"alt":121.3578,"epx":8.920,"epy":10.061,"epv":57.500,"track":37.0554,"magtrack":40.2748,"magvar":3.2,"speed":0.580,"climb":0.123,"eps":0.25,"epc":412.54,"ecefx":3841127.07,"ecefy":716186.30,"ecefz":5024482.33,"ecefvx":-0.35,"ecefvy":0.29,"ecefvz":0.38,"ecefpAcc":6.01,"ecefvAcc":0.25,"velN":0.463,"velE":0.349,"velD":-0.123,"geoidSep":43.899,"eph":24.320,"sep":53.390}
{"class":"SKY","device":"/dev/ttyACM0","time":"2024-06-05T06:40:07.749Z","gdop":3.30,"hdop":1.28,"pdop":2.81,"tdop":1.74,"xdop":0.59,"ydop":0.67,"vdop":2.50,"uSat":10}
{"class":"SKY","device":"/dev/ttyACM0","time":"2024-06-05T06:40:07.749Z","gdop":3.30,"hdop":1.29,"pdop":2.81,"tdop":1.74,"xdop":0.59,"ydop":0.67,"vdop":2.50,"uSat":10}
{"class":"TPV","device":"/dev/ttyACM0","mode":3,"time":"2024-06-05T06:40:08.001Z","leapseconds":18,"ept":0.005,"lat":52.315664526,"lon":10.561644458,"altHAE":165.2568,"altMSL":121.3578,"alt":121.3578,"epx":8.920,"epy":10.061,"epv":57.500,"track":37.0554,"magtrack":40.2748,"magvar":3.2,"speed":0.580,"climb":0.123,"eps":79.85,"epc":412.54,"ecefx":3841127.07,"ecefy":716186.30,"ecefz":5024482.33,"ecefvx":-0.35,"ecefvy":0.29,"ecefvz":0.38,"ecefpAcc":6.01,"ecefvAcc":0.25,"velN":0.463,"velE":0.349,"velD":-0.123,"geoidSep":43.899,"eph":24.320,"sep":53.390}
{"class":"SKY","device":"/dev/ttyACM0","time":"2024-06-05T06:40:08.001Z","gdop":3.30,"hdop":1.29,"pdop":2.81,"tdop":1.74,"xdop":0.59,"ydop":0.67,"vdop":2.50,"nSat":14,"uSat":7,"satellites":[{"PRN":26,"gnssid":0,"svid":26,"az":294.0,"el":44.0,"ss":44.0,"used":true,"health":1},{"PRN":5,"gnssid":0,"svid":5,"az":88.0,"el":18.0,"ss":33.0,"used":true,"health":1},{"PRN":29,"gnssid":0,"svid":29,"az":68.0,"el":73.0,"ss":48.0,"used":true,"health":1},{"PRN":9,"gnssid":0,"svid":9,"az":357.0,"el":2.0,"ss":22.0,"used":false,"health":1},{"PRN":18,"gnssid":0,"svid":18,"az":177.0,"el":36.0,"ss":41.0,"used":true,"health":1},{"PRN":39,"gnssid":1,"svid":126,"az":0.0,"el":-9.0,"ss":0.0,"used":false,"health":1},{"PRN":16,"gnssid":0,"svid":16,"az":0.0,"el":-9.0,"ss":34.0,"used":false,"health":1},{"PRN":25,"gnssid":0,"svid":25,"az":122.0,"el":35.0,"ss":41.0,"used":true,"health":1},{"PRN":28,"gnssid":0,"svid":28,"az":220.0,"el":45.0,"ss":44.0,"used":true,"health":1},{"PRN":20,"gnssid":0,"svid":20,"az":59.0,"el":21.0,"ss":32.0,"used":false,"health":1},{"PRN":11,"gnssid":0,"svid":11,"az":37.0,"el":11.0,"ss":35.0,"used":false,"health":1},{"PRN":31,"gnssid":0,"svid":31,"az":269.0,"el":50.0,"ss":43.0,"used":true,"health":1},{"PRN":12,"gnssid":0,"svid":12,"az":116.0,"el":7.0,"ss":25.0,"used":false,"health":1},{"PRN":4,"gnssid":0,"svid":4,"az":323.0,"el":11.0,"ss":25.0,"used":false,"health":1}]}
{"class":"TPV","device":"/dev/ttyACM0","mode":3,"time":"2024-06-05T06:40:08.249Z","leapseconds":18,"ept":0.005,"lat":52.315666339,"lon":10.561646735,"altHAE":165.3158,"altMSL":121.4168,"alt":121.4168,"epx":8.920,"epy":10.061,"epv":57.500,"track":36.1467,"magtrack":39.3661,"magvar":3.2,"speed":0.900,"climb":0.121,"eps":0.25,"epc":463.71,"ecefx":3841126.92,"ecefy":716186.43,"ecefz":5024482.50,"ecefvx":-0.59,"ecefvy":0.43,"ecefvz":0.54,"ecefpAcc":6.01,"ecefvAcc":0.25,"velN":0.727,"velE":0.531,"velD":-0.121,"geoidSep":43.899,"eph":24.510,"sep":44.840}
{"class":"SKY","device":"/dev/ttyACM0","time":"2024-06-05T06:40:08.001Z","gdop":3.30,"hdop":1.29,"pdop":2.36,"tdop":1.74,"xdop":0.59,"ydop":0.67,"vdop":2.50,"uSat":10}
{"class":"SKY","device":"/dev/ttyACM0","time":"2024-06-05T06:40:08.001Z","gdop":2.72,"hdop":1.14,"pdop":2.36,"tdop":1.34,"xdop":0.59,"ydop":0.67,"vdop":2.07,"uSat":10}
{"class":"TPV","device":"/dev/ttyACM0","mode":3,"time":"2024-06-05T06:40:08.249Z","leapseconds":18,"ept":0.005,"lat":52.315666339,"lon":10.561646735,"altHAE":165.3158,"altMSL":121.4168,"alt":121.4168,"epx":8.920,"epy":10.061,"epv":57.500,"track":36.1467,"magtrack":39.3661,"magvar":3.2,"speed":0.900,"climb":0.121,"eps":81.14,"epc":463.71,"ecefx":3841126.92,"ecefy":716186.43,"ecefz":5024482.50,"ecefvx":-0.59,"ecefvy":0.43,"ecefvz":0.54,"ecefpAcc":6.01,"ecefvAcc":0.25,"velN":0.727,"velE":0.531,"velD":-0.121,"geoidSep":43.899,"eph":24.510,"sep":44.840}
{"class":"SKY","device":"/dev/ttyACM0","time":"2024-06-05T06:40:08.249Z","gdop":2.72,"hdop":1.14,"pdop":2.36,"tdop":1.34,"xdop":0.59,"ydop":0.67,"vdop":2.07,"nSat":14,"uSat":7,"satellites":[{"PRN":26,"gnssid":0,"svid":26,"az":294.0,"el":44.0,"ss":44.0,"used":true,"health":1},{"PRN":5,"gnssid":0,"svid":5,"az":88.0,"el":18.0,"ss":32.0,"used":false,"health":1},{"PRN":29,"gnssid":0,"svid":29,"az":68.0,"el":73.0,"ss":48.0,"used":true,"health":1},{"PRN":9,"gnssid":0,"svid":9,"az":357.0,"el":2.0,"ss":21.0,"used":false,"health":1},{"PRN":18,"gnssid":0,"svid":18,"az":177.0,"el":36.0,"ss":42.0,"used":true,"health":1},{"PRN":39,"gnssid":1,"svid":126,"az":0.0,"el":-9.0,"ss":0.0,"used":false,"health":1},{"PRN":16,"gnssid":0,"svid":16,"az":0.0,"el":-9.0,"ss":36.0,"used":false,"health":1},{"PRN":25,"gnssid":0,"svid":25,"az":122.0,"el":35.0,"ss":41.0,"used":true,"health":1},{"PRN":28,"gnssid":0,"svid":28,"az":220.0,"el":45.0,"ss":44.0,"used":true,"health":1},{"PRN":20,"gnssid":0,"svid":20,"az":59.0,"el":21.0,"ss":32.0,"used":false,"health":1},{"PRN":11,"gnssid":0,"svid":11,"az":37.0,"el":11.0,"ss":34.0,"used":true,"health":1},{"PRN":31,"gnssid":0,"svid":31,"az":269.0,"el":50.0,"ss":42.0,"used":true,"health":1},{"PRN":12,"gnssid":0,"svid":12,"az":116.0,"el":7.0,"ss":29.0,"used":false,"health":1},{"PRN":4,"gnssid":0,"svid":4,"az":323.0,"el":11.0,"ss":26.0,"used":false,"health":1}]}
{"class":"TPV","device":"/dev/ttyACM0","mode":3,"time":"2024-06-05T06:40:08.501Z","leapseconds":18,"ept":0.005,"lat":52.315668799,"lon":10.561650092,"altHAE":165.3571,"altMSL":121.4582,"alt":121.4582,"epx":8.920,"epy":10.061,"epv":47.610,"track":39.9576,"magtrack":43.1770,"magvar":3.2,"speed":1.223,"climb":0.122,"eps":0.27,"epc":417.10,"ecefx":3841126.69,"ecefy":716186.62,"ecefz":5024482.70,"ecefvx":-0.80,"ecefvy":0.65,"ecefvz":0.67,"ecefpAcc":6.02,"ecefvAcc":0.27,"velN":0.938,"velE":0.786,"velD":-0.122,"geoidSep":43.899,"eph":21.660,"sep":49.210}
{"class":"SKY","device":"/dev/ttyACM0","time":"2024-06-05T06:40:08.249Z","gdop":2.72,"hdop":1.14,"pdop":2.59,"tdop":1.34,"xdop":0.59,"ydop":0.67,"vdop":2.07,"uSat":10}
{"class":"SKY","device":"/dev/ttyACM0","time":"2024-06-05T06:40:08.249Z","gdop":2.99,"hdop":1.33,"pdop":2.59,"tdop":1.50,"xdop":0.59,"ydop":0.67,"vdop":2.22,"uSat":10}
{"class":"TPV","device":"/dev/ttyACM0","mode":3,"time":"2024-06-05T06:40:08.501Z","leapseconds":18,"ept":0.005,"lat":52.315668799,"lon":10.561650092,"altHAE":165.3571,"altMSL":121.4582,"alt":121.4582,"epx":8.920,"epy":10.061,"epv":47.610,"track":39.9576,"magtrack":43.1770,"magvar":3.2,"speed":1.223,"climb":0.122,"eps":79.85,"epc":417.10,"ecefx":3841126.69,"ecefy":716186.62,"ecefz":5024482.70,"ecefvx":-0.80,"ecefvy":0.65,"ecefvz":0.67,"ecefpAcc":6.02,"ecefvAcc":0.27,"velN":0.938,"velE":0.786,"velD":-0.122,"geoidSep":43.899,"eph":21.660,"sep":49.210}
{"class":"SKY","device":"/dev/ttyACM0","time":"2024-06-05T06:40:08.501Z","gdop":2.99,"hdop":1.33,"pdop":2.59,"tdop":1.50,"xdop":0.59,"ydop":0.67,"vdop":2.22,"nSat":14,"uSat":6,"satellites":[{"PRN":26,"gnssid":0,"svid":26,"az":294.0,"el":44.0,"ss":45.0,"used":true,"health":1},{"PRN":5,"gnssid":0,"svid":5,"az":88.0,"el":18.0,"ss":33.0,"used":false,"health":1},{"PRN":29,"gnssid":0,"svid":29,"az":68.0,"el":73.0,"ss":47.0,"used":true,"health":1},{"PRN":9,"gnssid":0,"svid":9,"az":357.0,"el":2.0,"ss":21.0,"used":false,"health":1},{"PRN":18,"gnssid":0,"svid":18,"az":177.0,"el":36.0,"ss":40.0,"used":false,"health":1},{"PRN":39,"gnssid":1,"svid":126,"az":0.0,"el":-9.0,"ss":0.0,"used":false,"health":1},{"PRN":16,"gnssid":0,"svid":16,"az":0.0,"el":-9.0,"ss":37.0,"used":false,"health":1},{"PRN":25,"gnssid":0,"svid":25,"az":122.0,"el":35.0,"ss":38.0,"used":true,"health":1},{"PRN":28,"gnssid":0,"svid":28,"az":220.0,"el":45.0,"ss":45.0,"used":true,"health":1},{"PRN":20,"gnssid":0,"svid":20,"az":59.0,"el":21.0,"ss":32.0,"used":false,"health":1},{"PRN":11,"gnssid":0,"svid":11,"az":37.0,"el":11.0,"ss":33.0,"used":true,"health":1},{"PRN":31,"gnssid":0,"svid":31,"az":269.0,"el":50.0,"ss":42.0,"used":true,"health":1},{"PRN":12,"gnssid":0,"svid":12,"az":116.0,"el":7.0,"ss":29.0,"used":false,"health":1},{"PRN":4,"gnssid":0,"svid":4,"az":323.0,"el":11.0,"ss":31.0,"used":false,"health":1}]}
{"class":"TPV","device":"/dev/ttyACM0","mode":3,"time":"2024-06-05T06:40:08.749Z","leapseconds":18,"ept":0.005,"lat":52.315672227,"lon":10.561654016,"altHAE":165.4668,"altMSL":121.5678,"alt":121.5678,"epx":8.920,"epy":10.061,"epv":51.060,"track":39.4885,"magtrack":42.7079,"magvar":3.2,"speed":1.628,"climb":0.129,"eps":0.28,"epc":397.86,"ecefx":3841126.41,"ecefy":716186.84,"ecefz":5024483.02,"ecefvx":-1.09,"ecefvy":0.85,"ecefvz":0.87,"ecefpAcc":7.50,"ecefvAcc":0.28,"velN":1.257,"velE":1.035,"velD":-0.129,"geoidSep":43.899,"eph":25.270,"sep":37.240}
{"class":"SKY","device":"/dev/ttyACM0","time":"2024-06-05T06:40:08.501Z","gdop":2.99,"hdop":1.33,"pdop":1.96,"tdop":1.50,"xdop":0.59,"ydop":0.67,"vdop":2.22,"uSat":10}
{"class":"SKY","device":"/dev/ttyACM0","time":"2024-06-05T06:40:08.501Z","gdop":2.22,"hdop":0.98,"pdop":1.96,"tdop":1.03,"xdop":0.59,"ydop":0.67,"vdop":1.70,"uSat":10}
{"class":"TPV","device":"/dev/ttyACM0","mode":3,"time":"2024-06-05T06:40:08.749Z","leapseconds":18,"ept":0.005,"lat":52.315672227,"lon":10.561654016,"altHAE":165.4668,"altMSL":121.5678,"alt":121.5678,"epx":8.920,"epy":10.061,"epv":51.060,"track":39.4885,"magtrack":42.7079,"magvar":3.2,"speed":1.628,"climb":0.129,"eps":81.14,"epc":397.86,"ecefx":3841126.41,"ecefy":716186.84,"ecefz":5024483.02,"ecefvx":-1.09,"ecefvy":0.85,"ecefvz":0.87,"ecefpAcc":7.50,"ecefvAcc":0.28,"velN":1.257,"velE":1.035,"velD":-0.129,"geoidSep":43.899,"eph":25.270,"sep":37.240}
{"class":"SKY","device":"/dev/ttyACM0","time":"2024-06-05T06:40:08.749Z","gdop":2.22,"hdop":0.98,"pdop":1.96,"tdop":1.03,"xdop":0.59,"ydop":0.67,"vdop":1.70,"nSat":14,"uSat":9,"satellites":[{"PRN":26,"gnssid":0,"svid":26,"az":294.0,"el":44.0,"ss":44.0,"used":true,"health":1},{"PRN":5,"gnssid":0,"svid":5,"az":88.0,"el":18.0,"ss":35.0,"used":true,"health":1},{"PRN":29,"gnssid":0,"svid":29,"az":68.0,"el":73.0,"ss":47.0,"used":true,"health":1},{"PRN":9,"gnssid":0,"svid":9,"az":357.0,"el":2.0,"ss":21.0,"used":false,"health":1},{"PRN":18,"gnssid":0,"svid":18,"az":177.0,"el":36.0,"ss":42.0,"used":true,"health":1},{"PRN":39,"gnssid":1,"svid":126,"az":0.0,"el":-9.0,"ss":0.0,"used":false,"health":1},{"PRN":16,"gnssid":0,"svid":16,"az":0.0,"el":-9.0,"ss":38.0,"used":false,"health":1},{"PRN":25,"gnssid":0,"svid":25,"az":122.0,"el":35.0,"ss":37.0,"used":true,"health":1},{"PRN":28,"gnssid":0,"svid":28,"az":220.0,"el":45.0,"ss":44.0,"used":true,"health":1},{"PRN":20,"gnssid":0,"svid":20,"az":59.0,"el":21.0,"ss":33.0,"used":true,"health":1},{"PRN":11,"gnssid":0,"svid":11,"az":37.0,"el":11.0,"ss":33.0,"used":false,"health":1},{"PRN":31,"gnssid":0,"svid":31,"az":269.0,"el":50.0,"ss":44.0,"used":true,"health":1},{"PRN":12,"gnssid":0,"svid":12,"az":116.0,"el":7.0,"ss":29.0,"used":false,"health":1},{"PRN":4,"gnssid":0,"svid":4,"az":323.0,"el":11.0,"ss":33.0,"used":true,"health":1}]}
{"class":"TPV","device":"/dev/ttyACM0","mode":3,"time":"2024-06-05T06:40:09.001Z","leapseconds":18,"ept":0.005,"lat":52.315677113,"lon":10.561659460,"altHAE":165.5017,"altMSL":121.6028,"alt":121.6028,"epx":8.920,"epy":10.061,"epv":39.100,"track":38.4288,"magtrack":41.6482,"magvar":3.2,"speed":2.142,"climb":0.132,"eps":0.30,"epc":357.78,"ecefx":3841125.94,"ecefy":716187.13,"ecefz":5024483.38,"ecefvx":-1.47,"ecefvy":1.08,"ecefvz":1.13,"ecefpAcc":7.53,"ecefvAcc":0.30,"velN":1.678,"velE":1.331,"velD":-0.132,"geoidSep":43.899,"eph":18.620,"sep":37.240}
{"class":"SKY","device":"/dev/ttyACM0","time":"2024-06-05T06:40:08.749Z","gdop":2.22,"hdop":0.98,"pdop":1.96,"tdop":1.03,"xdop":0.59,"ydop":0.67,"vdop":1.70,"uSat":10}
{"class":"SKY","device":"/dev/ttyACM0","time":"2024-06-05T06:40:08.749Z","gdop":2.22,"hdop":0.98,"pdop":1.96,"tdop":1.03,"xdop":0.59,"ydop":0.67,"vdop":1.70,"uSat":10}
{"class":"TPV","device":"/dev/ttyACM0","mode":3,"time":"2024-06-05T06:40:09.001Z","leapseconds":18,"ept":0.005,"lat":52.315677113,"lon":10.561659460,"altHAE":165.5017,"altMSL":121.6028,"alt":121.6028,"epx":8.920,"epy":10.061,"epv":39.100,"track":38.4288,"magtrack":41.6482,"magvar":3.2,"speed":2.142,"climb":0.132,"eps":79.85,"epc":357.78,"ecefx":3841125.94,"ecefy":716187.13,"ecefz":5024483.38,"ecefvx":-1.47,"ecefvy":1.08,"ecefvz":1.13,"ecefpAcc":7.53,"ecefvAcc":0.30,"velN":1.678,"velE":1.331,"velD":-0.132,"geoidSep":43.899,"eph":18.620,"sep":37.240}
{"class":"SKY","device":"/dev/ttyACM0","time":"2024-06-05T06:40:09.001Z","gdop":2.22,"hdop":0.98,"pdop":1.96,"tdop":1.03,"xdop":0.59,"ydop":0.67,"vdop":1.70,"nSat":14,"uSat":9,"satellites":[{"PRN":26,"gnssid":0,"svid":26,"az":294.0,"el":44.0,"ss":45.0,"used":true,"health":1},{"PRN":5,"gnssid":0,"svid":5,"az":88.0,"el":18.0,"ss":33.0,"used":true,"health":1},{"PRN":29,"gnssid":0,"svid":29,"az":68.0,"el":73.0,"ss":47.0,"used":true,"health":1},{"PRN":9,"gnssid":0,"svid":9,"az":357.0,"el":2.0,"ss":20.0,"used":false,"health":1},{"PRN":18,"gnssid":0,"svid":18,"az":177.0,"el":36.0,"ss":42.0,"used":true,"health":1},{"PRN":39,"gnssid":1,"svid":126,"az":0.0,"el":-9.0,"ss":0.0,"used":false,"health":1},{"PRN":16,"gnssid":0,"svid":16,"az":0.0,"el":-9.0,"ss":39.0,"used":false,"health":1},{"PRN":25,"gnssid":0,"svid":25,"az":122.0,"el":35.0,"ss":37.0,"used":true,"health":1},{"PRN":28,"gnssid":0,"svid":28,"az":220.0,"el":45.0,"ss":44.0,"used":true,"health":1},{"PRN":20,"gnssid":0,"svid":20,"az":58.0,"el":21.0,"ss":35.0,"used":true,"health":1},{"PRN":11,"gnssid":0,"svid":11,"az":37.0,"el":11.0,"ss":32.0,"used":false,"health":1},{"PRN":31,"gnssid":0,"svid":31,"az":269.0,"el":50.0,"ss":45.0,"used":true,"health":1},{"PRN":12,"gnssid":0,"svid":12,"az":116.0,"el":7.0,"ss":29.0,"used":false,"health":1},{"PRN":4,"gnssid":0,"svid":4,"az":323.0,"el":11.0,"ss":35.0,"used":true,"health":1}]}
{"class":"TPV","device":"/dev/ttyACM0","mode":3,"time":"2024-06-05T06:40:09.249Z","leapseconds":18,"ept":0.005,"lat":52.315682693,"lon":10.561666406,"altHAE":165.4517,"altMSL":121.5527,"alt":121.5527,"epx":8.920,"epy":10.061,"epv":39.100,"track":40.2397,"magtrack":43.4591,"magvar":3.2,"speed":2.566,"climb":0.130,"eps":0.31,"epc":315.32,"ecefx":3841125.34,"ecefy":716187.50,"ecefz":5024483.72,"ecefvx":-1.75,"ecefvy":1.36,"ecefvz":1.30,"ecefpAcc":7.11,"ecefvAcc":0.31,"velN":1.959,"velE":1.658,"velD":-0.130,"geoidSep":43.899,"eph":18.620,"sep":51.490}
{"class":"SKY","device":"/dev/ttyACM0","time":"2024-06-05T06:40:09.001Z","gdop":2.22,"hdop":0.98,"pdop":2.71,"tdop":1.03,"xdop":0.59,"ydop":0.67,"vdop":1.70,"uSat":10}
{"class":"SKY","device":"/dev/ttyACM0","time":"2024-06-05T06:40:09.001Z","gdop":3.16,"hdop":1.59,"pdop":2.71,"tdop":1.62,"xdop":0.59,"ydop":0.67,"vdop":2.20,"uSat":10}
{"class":"TPV","device":"/dev/ttyACM0","mode":3,"time":"2024-06-05T06:40:09.249Z","leapseconds":18,"ept":0.005,"lat":52.315682693,"lon":10.561666406,"altHAE":165.4517,"altMSL":121.5527,"alt":121.5527,"epx":8.920,"epy":10.061,"epv":39.100,"track":40.2397,"magtrack":43.4591,"magvar":3.2,"speed":2.566,"climb":0.130,"eps":81.14,"epc":315.32,"ecefx":3841125.34,"ecefy":716187.50,"ecefz":5024483.72,"ecefvx":-1.75,"ecefvy":1.36,"ecefvz":1.30,"ecefpAcc":7.11,"ecefvAcc":0.31,"velN":1.959,"velE":1.658,"velD":-0.130,"geoidSep":43.899,"eph":18.620,"sep":51.490}
{"class":"SKY","device":"/dev/ttyACM0","time":"2024-06-05T06:40:09.249Z","gdop":3.16,"hdop":1.59,"pdop":2.71,"tdop":1.62,"xdop":0.59,"ydop":0.67,"vdop":2.20,"nSat":14,"uSat":6,"satellites":[{"PRN":26,"gnssid":0,"svid":26,"az":294.0,"el":44.0,"ss":45.0,"used":true,"health":1},{"PRN":5,"gnssid":0,"svid":5,"az":88.0,"el":18.0,"ss":31.0,"used":false,"health":1},{"PRN":29,"gnssid":0,"svid":29,"az":68.0,"el":73.0,"ss":47.0,"used":true,"health":1},{"PRN":9,"gnssid":0,"svid":9,"az":357.0,"el":2.0,"ss":20.0,"used":false,"health":1},{"PRN":18,"gnssid":0,"svid":18,"az":177.0,"el":36.0,"ss":40.0,"used":false,"health":1},{"PRN":39,"gnssid":1,"svid":126,"az":0.0,"el":-9.0,"ss":0.0,"used":false,"health":1},{"PRN":16,"gnssid":0,"svid":16,"az":0.0,"el":-9.0,"ss":38.0,"used":false,"health":1},{"PRN":25,"gnssid":0,"svid":25,"az":122.0,"el":35.0,"ss":37.0,"used":false,"health":1},{"PRN":28,"gnssid":0,"svid":28,"az":220.0,"el":45.0,"ss":43.0,"used":true,"health":1},{"PRN":20,"gnssid":0,"svid":20,"az":58.0,"el":21.0,"ss":38.0,"used":true,"health":1},{"PRN":11,"gnssid":0,"svid":11,"az":37.0,"el":11.0,"ss":31.0,"used":false,"health":1},{"PRN":31,"gnssid":0,"svid":31,"az":269.0,"el":50.0,"ss":45.0,"used":true,"health":1},{"PRN":12,"gnssid":0,"svid":12,"az":116.0,"el":7.0,"ss":26.0,"used":false,"health":1},{"PRN":4,"gnssid":0,"svid":4,"az":323.0,"el":11.0,"ss":36.0,"used":true,"health":1}]}
{"class":"TPV","device":"/dev/ttyACM0","mode":3,"time":"2024-06-05T06:40:09.501Z","leapseconds":18,"ept":0.005,"lat":52.315688807,"lon":10.561674496,"altHAE":165.4190,"altMSL":121.5201,"alt":121.5201,"epx":8.920,"epy":10.061,"epv":50.600,"track":40.0200,"magtrack":43.2394,"magvar":3.2,"speed":2.966,"climb":0.128,"eps":0.31,"epc":355.95,"ecefx":3841124.69,"ecefy":716187.94,"ecefz":5024484.11,"ecefvx":-2.04,"ecefvy":1.56,"ecefvz":1.49,"ecefpAcc":6.68,"ecefvAcc":0.31,"velN":2.272,"velE":1.907,"velD":-0.128,"geoidSep":43.899,"eph":30.210,"sep":53.010}
{"class":"SKY","device":"/dev/ttyACM0","time":"2024-06-05T06:40:09.249Z","gdop":3.16,"hdop":1.59,"pdop":2.79,"tdop":1.62,"xdop":0.59,"ydop":0.67,"vdop":2.20,"uSat":10}
{"class":"SKY","device":"/dev/ttyACM0","time":"2024-06-05T06:40:09.249Z","gdop":3.28,"hdop":1.16,"pdop":2.79,"tdop":1.73,"xdop":0.59,"ydop":0.67,"vdop":2.54,"uSat":10}
{"class":"TPV","device":"/dev/ttyACM0","mode":3,"time":"2024-06-05T06:40:09.501Z","leapseconds":18,"ept":0.005,"lat":52.315688807,"lon":10.561674496,"altHAE":165.4190,"altMSL":121.5201,"alt":121.5201,"epx":8.920,"epy":10.061,"epv":50.600,"track":40.0200,"magtrack":43.2394,"magvar":3.2,"speed":2.966,"climb":0.128,"eps":79.85,"epc":355.95,"ecefx":3841124.69,"ecefy":716187.94,"ecefz":5024484.11,"ecefvx":-2.04,"ecefvy":1.56,"ecefvz":1.49,"ecefpAcc":6.68,"ecefvAcc":0.31,"velN":2.272,"velE":1.907,"velD":-0.128,"geoidSep":43.899,"eph":30.210,"sep":53.010}
{"class":"SKY","device":"/dev/ttyACM0","time":"2024-06-05T06:40:09.501Z","gdop":3.28,"hdop":1.16,"pdop":2.79,"tdop":1.73,"xdop":0.59,"ydop":0.67,"vdop":2.54,"nSat":14,"uSat":7,"satellites":[{"PRN":26,"gnssid":0,"svid":26,"az":294.0,"el":44.0,"ss":46.0,"used":true,"health":1},{"PRN":5,"gnssid":0,"svid":5,"az":88.0,"el":18.0,"ss":32.0,"used":false,"health":1},{"PRN":29,"gnssid":0,"svid":29,"az":68.0,"el":73.0,"ss":47.0,"used":true,"health":1},{"PRN":9,"gnssid":0,"svid":9,"az":357.0,"el":2.0,"ss":20.0,"used":false,"health":1},{"PRN":18,"gnssid":0,"svid":18,"az":177.0,"el":36.0,"ss":38.0,"used":true,"health":1},{"PRN":39,"gnssid":1,"svid":126,"az":0.0,"el":-9.0,"ss":0.0,"used":false,"health":1},{"PRN":16,"gnssid":0,"svid":16,"az":0.0,"el":-9.0,"ss":37.0,"used":false,"health":1},{"PRN":25,"gnssid":0,"svid":25,"az":122.0,"el":35.0,"ss":38.0,"used":true,"health":1},{"PRN":28,"gnssid":0,"svid":28,"az":220.0,"el":45.0,"ss":45.0,"used":true,"health":1},{"PRN":20,"gnssid":0,"svid":20,"az":58.0,"el":21.0,"ss":39.0,"used":true,"health":1},{"PRN":11,"gnssid":0,"svid":11,"az":37.0,"el":11.0,"ss":30.0,"used":false,"health":1},{"PRN":31,"gnssid":0,"svid":31,"az":269.0,"el":50.0,"ss":47.0,"used":true,"health":1},{"PRN":12,"gnssid":0,"svid":12,"az":116.0,"el":7.0,"ss":27.0,"used":false,"health":1},{"PRN":4,"gnssid":0,"svid":4,"az":323.0,"el":11.0,"ss":36.0,"used":false,"health":1}]}
{"class":"TPV","device":"/dev/ttyACM0","mode":3,"time":"2024-06-05T06:40:09.749Z","leapseconds":18,"ept":0.005,"lat":52.315694953,"lon":10.561683216,"altHAE":165.3709,"altMSL":121.4720,"alt":121.4720,"epx":8.920,"epy":10.061,"epv":58.420,"track":40.7905,"magtrack":44.0099,"magvar":3.2,"speed":3.223,"climb":0.124,"eps":0.32,"epc":439.60,"ecefx":3841124.02,"ecefy":716188.42,"ecefz":5024484.49,"ecefvx":-2.21,"ecefvy":1.73,"ecefvz":1.59,"ecefpAcc":6.59,"ecefvAcc":0.32,"velN":2.440,"velE":2.106,"velD":-0.124,"geoidSep":43.899,"eph":22.040,"sep":53.010}
{"class":"SKY","device":"/dev/ttyACM0","time":"2024-06-05T06:40:09.501Z","gdop":3.28,"hdop":1.16,"pdop":2.79,"tdop":1.73,"xdop":0.59,"ydop":0.67,"vdop":2.54,"uSat":10}
{"class":"SKY","device":"/dev/ttyACM0","time":"2024-06-05T06:40:09.501Z","gdop":3.28,"hdop":1.16,"pdop":2.79,"tdop":1.73,"xdop":0.59,"ydop":0.67,"vdop":2.54,"uSat":10}
{"class":"TPV","device":"/dev/ttyACM0","mode":3,"time":"2024-06-05T06:40:09.749Z","leapseconds":18,"ept":0.005,"lat":52.315694953,"lon":10.561683216,"altHAE":165.3709,"altMSL":121.4720,"alt":121.4720,"epx":8.920,"epy":10.061,"epv":58.420,"track":40.7905,"magtrack":44.0099,"magvar":3.2,"speed":3.223,"climb":0.124,"eps":81.14,"epc":439.60,"ecefx":3841124.02,"ecefy":716188.42,"ecefz":5024484.49,"ecefvx":-2.21,"ecefvy":1.73,"ecefvz":1.59,"ecefpAcc":6.59,"ecefvAcc":0.32,"velN":2.440,"velE":2.106,"velD":-0.124,"geoidSep":43.899,"eph":22.040,"sep":53.010}
{"class":"SKY","device":"/dev/ttyACM0","time":"2024-06-05T06:40:09.749Z","gdop":3.28,"hdop":1.16,"pdop":2.79,"tdop":1.73,"xdop":0.59,"ydop":0.67,"vdop":2.54,"nSat":14,"uSat":7,"satellites":[{"PRN":26,"gnssid":0,"svid":26,"az":294.0,"el":44.0,"ss":47.0,"used":true,"health":1},{"PRN":5,"gnssid":0,"svid":5,"az":88.0,"el":18.0,"ss":32.0,"used":false,"health":1},{"PRN":29,"gnssid":0,"svid":29,"az":68.0,"el":73.0,"ss":47.0,"used":true,"health":1},{"PRN":9,"gnssid":0,"svid":9,"az":357.0,"el":2.0,"ss":20.0,"used":false,"health":1},{"PRN":18,"gnssid":0,"svid":18,"az":177.0,"el":36.0,"ss":36.0,"used":true,"health":1},{"PRN":39,"gnssid":1,"svid":126,"az":0.0,"el":-9.0,"ss":0.0,"used":false,"health":1},{"PRN":16,"gnssid":0,"svid":16,"az":0.0,"el":-9.0,"ss":38.0,"used":false,"health":1},{"PRN":25,"gnssid":0,"svid":25,"az":122.0,"el":35.0,"ss":37.0,"used":true,"health":1},{"PRN":28,"gnssid":0,"svid":28,"az":220.0,"el":45.0,"ss":46.0,"used":true,"health":1},{"PRN":20,"gnssid":0,"svid":20,"az":58.0,"el":21.0,"ss":39.0,"used":true,"health":1},{"PRN":11,"gnssid":0,"svid":11,"az":37.0,"el":11.0,"ss":27.0,"used":false,"health":1},{"PRN":31,"gnssid":0,"svid":31,"az":269.0,"el":50.0,"ss":48.0,"used":true,"health":1},{"PRN":12,"gnssid":0,"svid":12,"az":116.0,"el":7.0,"ss":29.0,"used":false,"health":1},{"PRN":4,"gnssid":0,"svid":4,"az":323.0,"el":11.0,"ss":35.0,"used":false,"health":1}]}
{"class":"TPV","device":"/dev/ttyACM0","mode":3,"time":"2024-06-05T06:40:10.001Z","leapseconds":18,"ept":0.005,"lat":52.315701346,"lon":10.561692054,"altHAE":165.3773,"altMSL":121.4785,"alt":121.4785,"epx":8.920,"epy":10.061,"epv":58.420,"track":42.9913,"magtrack":46.2107,"magvar":3.2,"speed":3.484,"climb":0.129,"eps":0.32,"epc":463.65,"ecefx":3841123.36,"ecefy":716188.91,"ecefz":5024484.93,"ecefvx":-2.34,"ecefvy":1.98,"ecefvz":1.66,"ecefpAcc":7.36,"ecefvAcc":0.32,"velN":2.548,"velE":2.375,"velD":-0.129,"geoidSep":43.899,"eph":22.040,"sep":43.700}
{"class":"SKY","device":"/dev/ttyACM0","time":"2024-06-05T06:40:09.749Z","gdop":3.28,"hdop":1.16,"pdop":2.30,"tdop":1.73,"xdop":0.59,"ydop":0.67,"vdop":2.54,"uSat":10}
{"class":"SKY","device":"/dev/ttyACM0","time":"2024-06-05T06:40:09.749Z","gdop":2.61,"hdop":1.35,"pdop":2.30,"tdop":1.24,"xdop":0.59,"ydop":0.67,"vdop":1.86,"uSat":10}
{"class":"TPV","device":"/dev/ttyACM0","mode":3,"time":"2024-06-05T06:40:10.001Z","leapseconds":18,"ept":0.005,"lat":52.315701346,"lon":10.561692054,"altHAE":165.3773,"altMSL":121.4785,"alt":121.4785,"epx":8.920,"epy":10.061,"epv":58.420,"track":42.9913,"magtrack":46.2107,"magvar":3.2,"speed":3.484,"climb":0.129,"eps":79.85,"epc":463.65,"ecefx":3841123.36,"ecefy":716188.91,"ecefz":5024484.93,"ecefvx":-2.34,"ecefvy":1.98,"ecefvz":1.66,"ecefpAcc":7.36,"ecefvAcc":0.32,"velN":2.548,"velE":2.375,"velD":-0.129,"geoidSep":43.899,"eph":22.040,"sep":43.700}
{"class":"SKY","device":"/dev/ttyACM0","time":"2024-06-05T06:40:10.001Z","gdop":2.61,"hdop":1.35,"pdop":2.30,"tdop":1.24,"xdop":0.59,"ydop":0.67,"vdop":1.86,"nSat":14,"uSat":7,"satellites":[{"PRN":26,"gnssid":0,"svid":26,"az":294.0,"el":44.0,"ss":47.0,"used":true,"health":1},{"PRN":5,"gnssid":0,"svid":5,"az":88.0,"el":18.0,"ss":35.0,"used":true,"health":1},{"PRN":29,"gnssid":0,"svid":29,"az":68.0,"el":73.0,"ss":46.0,"used":true,"health":1},{"PRN":9,"gnssid":0,"svid":9,"az":357.0,"el":2.0,"ss":19.0,"used":false,"health":1},{"PRN":18,"gnssid":0,"svid":18,"az":177.0,"el":36.0,"ss":34.0,"used":false,"health":1},{"PRN":39,"gnssid":1,"svid":126,"az":0.0,"el":-9.0,"ss":0.0,"used":false,"health":1},{"PRN":16,"gnssid":0,"svid":16,"az":0.0,"el":-9.0,"ss":39.0,"used":false,"health":1},{"PRN":25,"gnssid":0,"svid":25,"az":122.0,"el":35.0,"ss":35.0,"used":false,"health":1},{"PRN":28,"gnssid":0,"svid":28,"az":220.0,"el":45.0,"ss":46.0,"used":true,"health":1},{"PRN":20,"gnssid":0,"svid":20,"az":58.0,"el":21.0,"ss":39.0,"used":true,"health":1},{"PRN":11,"gnssid":0,"svid":11,"az":37.0,"el":11.0,"ss":27.0,"used":false,"health":1},{"PRN":31,"gnssid":0,"svid":31,"az":269.0,"el":50.0,"ss":48.0,"used":true,"health":1},{"PRN":12,"gnssid":0,"svid":12,"az":116.0,"el":7.0,"ss":29.0,"used":false,"health":1},{"PRN":4,"gnssid":0,"svid":4,"az":323.0,"el":11.0,"ss":33.0,"used":true,"health":1}]}
{"class":"TPV","device":"/dev/ttyACM0","mode":3,"time":"2024-06-05T06:40:10.249Z","leapseconds":18,"ept":0.005,"lat":52.315707436,"lon":10.561701648,"altHAE":165.4225,"altMSL":121.5236,"alt":121.5236,"epx":8.920,"epy":10.061,"epv":42.780,"track":43.6450,"magtrack":46.8645,"magvar":3.2,"speed":3.653,"climb":0.131,"eps":0.57,"epc":408.06,"ecefx":3841122.74,"ecefy":716189.46,"ecefz":5024485.38,"ecefvx":-2.44,"ecefvy":2.11,"ecefvz":1.72,"ecefpAcc":6.04,"ecefvAcc":0.57,"velN":2.644,"velE":2.521,"velD":-0.131,"geoidSep":43.899,"eph":25.650,"sep":83.220}
{"class":"SKY","device":"/dev/ttyACM0","time":"2024-06-05T06:40:10.001Z","gdop":2.61,"hdop":1.35,"pdop":4.38,"tdop":1.24,"xdop":0.59,"ydop":0.67,"vdop":1.86,"uSat":10}
{"class":"SKY","device":"/dev/ttyACM0","time":"2024-06-05T06:40:10.001Z","gdop":5.40,"hdop":1.67,"pdop":4.38,"tdop":3.15,"xdop":0.59,"ydop":0.67,"vdop":4.05,"uSat":10}
{"class":"TPV","device":"/dev/ttyACM0","mode":3,"time":"2024-06-05T06:40:10.249Z","leapseconds":18,"ept":0.005,"lat":52.315707436,"lon":10.561701648,"altHAE":165.4225,"altMSL":121.5236,"alt":121.5236,"epx":8.920,"epy":10.061,"epv":42.780,"track":43.6450,"magtrack":46.8645,"magvar":3.2,"speed":3.653,"climb":0.131,"eps":81.14,"epc":408.06,"ecefx":3841122.74,"ecefy":716189.46,"ecefz":5024485.38,"ecefvx":-2.44,"ecefvy":2.11,"ecefvz":1.72,"ecefpAcc":6.04,"ecefvAcc":0.57,"velN":2.644,"velE":2.521,"velD":-0.131,"geoidSep":43.899,"eph":25.650,"sep":83.220}
{"class":"SKY","device":"/dev/ttyACM0","time":"2024-06-05T06:40:10.249Z","gdop":5.40,"hdop":1.67,"pdop":4.38,"tdop":3.15,"xdop":0.59,"ydop":0.67,"vdop":4.05,"nSat":14,"uSat":6,"satellites":[{"PRN":26,"gnssid":0,"svid":26,"az":294.0,"el":44.0,"ss":46.0,"used":true,"health":1},{"PRN":5,"gnssid":0,"svid":5,"az":88.0,"el":18.0,"ss":39.0,"used":false,"health":1},{"PRN":29,"gnssid":0,"svid":29,"az":68.0,"el":73.0,"ss":46.0,"used":true,"health":1},{"PRN":9,"gnssid":0,"svid":9,"az":357.0,"el":2.0,"ss":19.0,"used":false,"health":1},{"PRN":18,"gnssid":0,"svid":18,"az":177.0,"el":36.0,"ss":35.0,"used":true,"health":1},{"PRN":39,"gnssid":1,"svid":126,"az":0.0,"el":-9.0,"ss":0.0,"used":false,"health":1},{"PRN":16,"gnssid":0,"svid":16,"az":0.0,"el":-9.0,"ss":39.0,"used":false,"health":1},{"PRN":25,"gnssid":0,"svid":25,"az":122.0,"el":34.0,"ss":33.0,"used":true,"health":1},{"PRN":28,"gnssid":0,"svid":28,"az":220.0,"el":45.0,"ss":47.0,"used":true,"health":1},{"PRN":20,"gnssid":0,"svid":20,"az":58.0,"el":21.0,"ss":39.0,"used":false,"health":1},{"PRN":11,"gnssid":0,"svid":11,"az":37.0,"el":11.0,"ss":27.0,"used":false,"health":1},{"PRN":31,"gnssid":0,"svid":31,"az":269.0,"el":50.0,"ss":48.0,"used":true,"health":1},{"PRN":12,"gnssid":0,"svid":12,"az":116.0,"el":7.0,"ss":30.0,"used":false,"health":1},{"PRN":4,"gnssid":0,"svid":4,"az":323.0,"el":11.0,"ss":33.0,"used":false,"health":1}]}
{"class":"TPV","device":"/dev/ttyACM0","mode":3,"time":"2024-06-05T06:40:10.501Z","leapseconds":18,"ept":0.005,"lat":52.315713813,"lon":10.561712035,"altHAE":165.3924,"altMSL":121.4936,"alt":121.4936,"epx":8.920,"epy":10.061,"epv":93.150,"track":45.3608,"magtrack":48.5802,"magvar":3.2,"speed":3.791,"climb":0.128,"eps":0.32,"epc":539.40,"ecefx":3841122.04,"ecefy":716190.05,"ecefz":5024485.79,"ecefvx":-2.49,"ecefvy":2.28,"ecefvz":1.73,"ecefpAcc":6.04,"ecefvAcc":0.32,"velN":2.664,"velE":2.698,"velD":-0.128,"geoidSep":43.899,"eph":31.730,"sep":42.180}
{"class":"SKY","device":"/dev/ttyACM0","time":"2024-06-05T06:40:10.249Z","gdop":5.40,"hdop":1.67,"pdop":2.22,"tdop":3.15,"xdop":0.59,"ydop":0.67,"vdop":4.05,"uSat":10}
{"class":"SKY","device":"/dev/ttyACM0","time":"2024-06-05T06:40:10.249Z","gdop":2.54,"hdop":1.24,"pdop":2.22,"tdop":1.24,"xdop":0.59,"ydop":0.67,"vdop":1.84,"uSat":10}
{"class":"TPV","device":"/dev/ttyACM0","mode":3,"time":"2024-06-05T06:40:10.501Z","leapseconds":18,"ept":0.005,"lat":52.315713813,"lon":10.561712035,"altHAE":165.3924,"altMSL":121.4936,"alt":121.4936,"epx":8.920,"epy":10.061,"epv":93.150,"track":45.3608,"magtrack":48.5802,"magvar":3.2,"speed":3.791,"climb":0.128,"eps":79.85,"epc":539.40,"ecefx":3841122.04,"ecefy":716190.05,"ecefz":5024485.79,"ecefvx":-2.49,"ecefvy":2.28,"ecefvz":1.73,"ecefpAcc":6.04,"ecefvAcc":0.32,"velN":2.664,"velE":2.698,"velD":-0.128,"geoidSep":43.899,"eph":31.730,"sep":42.180}
{"class":"SKY","device":"/dev/ttyACM0","time":"2024-06-05T06:40:10.501Z","gdop":2.54,"hdop":1.24,"pdop":2.22,"tdop":1.24,"xdop":0.59,"ydop":0.67,"vdop":1.84,"nSat":14,"uSat":7,"satellites":[{"PRN":26,"gnssid":0,"svid":26,"az":294.0,"el":44.0,"ss":46.0,"used":true,"health":1},{"PRN":5,"gnssid":0,"svid":5,"az":88.0,"el":18.0,"ss":42.0,"used":false,"health":1},{"PRN":29,"gnssid":0,"svid":29,"az":68.0,"el":73.0,"ss":45.0,"used":true,"health":1},{"PRN":9,"gnssid":0,"svid":9,"az":357.0,"el":2.0,"ss":17.0,"used":false,"health":1},{"PRN":18,"gnssid":0,"svid":18,"az":177.0,"el":36.0,"ss":33.0,"used":true,"health":1},{"PRN":44,"gnssid":1,"svid":131,"az":0.0,"el":-9.0,"ss":0.0,"used":false,"health":1},{"PRN":16,"gnssid":0,"svid":16,"az":0.0,"el":-9.0,"ss":39.0,"used":false,"health":1},{"PRN":25,"gnssid":0,"svid":25,"az":122.0,"el":34.0,"ss":35.0,"used":true,"health":1},{"PRN":28,"gnssid":0,"svid":28,"az":220.0,"el":45.0,"ss":48.0,"used":true,"health":1},{"PRN":20,"gnssid":0,"svid":20,"az":58.0,"el":21.0,"ss":37.0,"used":false,"health":1},{"PRN":11,"gnssid":0,"svid":11,"az":37.0,"el":11.0,"ss":27.0,"used":false,"health":1},{"PRN":31,"gnssid":0,"svid":31,"az":269.0,"el":50.0,"ss":48.0,"used":true,"health":1},{"PRN":12,"gnssid":0,"svid":12,"az":116.0,"el":7.0,"ss":32.0,"used":false,"health":1},{"PRN":4,"gnssid":0,"svid":4,"az":323.0,"el":11.0,"ss":37.0,"used":true,"health":1}]}
{"class":"TPV","device":"/dev/ttyACM0","mode":3,"time":"2024-06-05T06:40:10.749Z","leapseconds":18,"ept":0.005,"lat":52.315720258,"lon":10.561723213,"altHAE":165.2554,"altMSL":121.3566,"alt":121.3566,"epx":8.920,"epy":10.061,"epv":42.320,"track":46.7762,"magtrack":49.9957,"magvar":3.2,"speed":3.931,"climb":0.132,"eps":0.32,"epc":546.25,"ecefx":3841121.26,"ecefy":716190.68,"ecefz":5024486.12,"ecefvx":-2.54,"ecefvy":2.44,"ecefvz":1.75,"ecefpAcc":6.85,"ecefvAcc":0.32,"velN":2.692,"velE":2.864,"velD":-0.132,"geoidSep":43.899,"eph":23.560,"sep":44.840}
{"class":"SKY","device":"/dev/ttyACM0","time":"2024-06-05T06:40:10.501Z","gdop":2.54,"hdop":1.24,"pdop":2.36,"tdop":1.24,"xdop":0.59,"ydop":0.67,"vdop":1.84,"uSat":10}
{"class":"SKY","device":"/dev/ttyACM0","time":"2024-06-05T06:40:10.501Z","gdop":2.67,"hdop":1.45,"pdop":2.36,"tdop":1.24,"xdop":0.59,"ydop":0.67,"vdop":1.86,"uSat":10}
{"class":"TPV","device":"/dev/ttyACM0","mode":3,"time":"2024-06-05T06:40:10.749Z","leapseconds":18,"ept":0.005,"lat":52.315720258,"lon":10.561723213,"altHAE":165.2554,"altMSL":121.3566,"alt":121.3566,"epx":8.920,"epy":10.061,"epv":42.320,"track":46.7762,"magtrack":49.9957,"magvar":3.2,"speed":3.931,"climb":0.132,"eps":81.14,"epc":546.25,"ecefx":3841121.26,"ecefy":716190.68,"ecefz":5024486.12,"ecefvx":-2.54,"ecefvy":2.44,"ecefvz":1.75,"ecefpAcc":6.85,"ecefvAcc":0.32,"velN":2.692,"velE":2.864,"velD":-0.132,"geoidSep":43.899,"eph":23.560,"sep":44.840}
{"class":"SKY","device":"/dev/ttyACM0","time":"2024-06-05T06:40:10.749Z","gdop":2.67,"hdop":1.45,"pdop":2.36,"tdop":1.24,"xdop":0.59,"ydop":0.67,"vdop":1.86,"nSat":14,"uSat":6,"satellites":[{"PRN":26,"gnssid":0,"svid":26,"az":294.0,"el":44.0,"ss":46.0,"used":true,"health":1},{"PRN":5,"gnssid":0,"svid":5,"az":88.0,"el":18.0,"ss":41.0,"used":true,"health":1},{"PRN":29,"gnssid":0,"svid":29,"az":68.0,"el":73.0,"ss":45.0,"used":true,"health":1},{"PRN":9,"gnssid":0,"svid":9,"az":357.0,"el":2.0,"ss":16.0,"used":false,"health":1},{"PRN":18,"gnssid":0,"svid":18,"az":177.0,"el":36.0,"ss":35.0,"used":false,"health":1},{"PRN":44,"gnssid":1,"svid":131,"az":0.0,"el":-9.0,"ss":0.0,"used":false,"health":1},{"PRN":16,"gnssid":0,"svid":16,"az":0.0,"el":-9.0,"ss":37.0,"used":false,"health":1},{"PRN":25,"gnssid":0,"svid":25,"az":122.0,"el":34.0,"ss":37.0,"used":false,"health":1},{"PRN":28,"gnssid":0,"svid":28,"az":220.0,"el":45.0,"ss":47.0,"used":true,"health":1},{"PRN":20,"gnssid":0,"svid":20,"az":58.0,"el":21.0,"ss":35.0,"used":false,"health":1},{"PRN":11,"gnssid":0,"svid":11,"az":37.0,"el":11.0,"ss":27.0,"used":false,"health":1},{"PRN":31,"gnssid":0,"svid":31,"az":269.0,"el":50.0,"ss":49.0,"used":true,"health":1},{"PRN":12,"gnssid":0,"svid":12,"az":116.0,"el":7.0,"ss":31.0,"used":false,"health":1},{"PRN":4,"gnssid":0,"svid":4,"az":323.0,"el":11.0,"ss":37.0,"used":true,"health":1}]}
{"class":"TPV","device":"/dev/ttyACM0","mode":3,"time":"2024-06-05T06:40:11.001Z","leapseconds":18,"ept":0.005,"lat":52.315726303,"lon":10.561735644,"altHAE":165.2034,"altMSL":121.3046,"alt":121.3046,"epx":8.920,"epy":10.061,"epv":42.780,"track":48.7202,"magtrack":51.9396,"magvar":3.2,"speed":4.036,"climb":0.129,"eps":0.32,"epc":337.70,"ecefx":3841120.55,"ecefy":716191.41,"ecefz":5024486.49,"ecefvx":-2.55,"ecefvy":2.61,"ecefvz":1.73,"ecefpAcc":6.22,"ecefvAcc":0.32,"velN":2.663,"velE":3.033,"velD":-0.129,"geoidSep":43.899,"eph":27.550,"sep":56.240}
{"class":"SKY","device":"/dev/ttyACM0","time":"2024-06-05T06:40:10.749Z","gdop":2.67,"hdop":1.45,"pdop":2.96,"tdop":1.24,"xdop":0.59,"ydop":0.67,"vdop":1.86,"uSat":10}
{"class":"SKY","device":"/dev/ttyACM0","time":"2024-06-05T06:40:10.749Z","gdop":3.44,"hdop":1.58,"pdop":2.96,"tdop":1.74,"xdop":0.59,"ydop":0.67,"vdop":2.51,"uSat":10}
{"class":"TPV","device":"/dev/ttyACM0","mode":3,"time":"2024-06-05T06:40:11.001Z","leapseconds":18,"ept":0.005,"lat":52.315726303,"lon":10.561735644,"altHAE":165.2034,"altMSL":121.3046,"alt":121.3046,"epx":8.920,"epy":10.061,"epv":42.780,"track":48.7202,"magtrack":51.9396,"magvar":3.2,"speed":4.036,"climb":0.129,"eps":79.85,"epc":337.70,"ecefx":3841120.55,"ecefy":716191.41,"ecefz":5024486.49,"ecefvx":-2.55,"ecefvy":2.61,"ecefvz":1.73,"ecefpAcc":6.22,"ecefvAcc":0.32,"velN":2.663,"velE":3.033,"velD":-0.129,"geoidSep":43.899,"eph":27.550,"sep":56.240}
{"class":"SKY","device":"/dev/ttyACM0","time":"2024-06-05T06:40:11.001Z","gdop":3.44,"hdop":1.58,"pdop":2.96,"tdop":1.74,"xdop":0.59,"ydop":0.67,"vdop":2.51,"nSat":14,"uSat":6,"satellites":[{"PRN":26,"gnssid":0,"svid":26,"az":294.0,"el":44.0,"ss":45.0,"used":true,"health":1},{"PRN":5,"gnssid":0,"svid":5,"az":88.0,"el":18.0,"ss":41.0,"used":true,"health":1},{"PRN":29,"gnssid":0,"svid":29,"az":68.0,"el":73.0,"ss":46.0,"used":true,"health":1},{"PRN":9,"gnssid":0,"svid":9,"az":357.0,"el":2.0,"ss":16.0,"used":false,"health":1},{"PRN":18,"gnssid":0,"svid":18,"az":177.0,"el":36.0,"ss":35.0,"used":false,"health":1},{"PRN":44,"gnssid":1,"svid":131,"az":0.0,"el":-9.0,"ss":0.0,"used":false,"health":1},{"PRN":16,"gnssid":0,"svid":16,"az":0.0,"el":-9.0,"ss":36.0,"used":false,"health":1},{"PRN":25,"gnssid":0,"svid":25,"az":122.0,"el":34.0,"ss":40.0,"used":true,"health":1},{"PRN":28,"gnssid":0,"svid":28,"az":220.0,"el":45.0,"ss":48.0,"used":true,"health":1},{"PRN":20,"gnssid":0,"svid":20,"az":58.0,"el":21.0,"ss":35.0,"used":false,"health":1},{"PRN":11,"gnssid":0,"svid":11,"az":37.0,"el":11.0,"ss":27.0,"used":false,"health":1},{"PRN":31,"gnssid":0,"svid":31,"az":269.0,"el":50.0,"ss":49.0,"used":true,"health":1},{"PRN":12,"gnssid":0,"svid":12,"az":116.0,"el":7.0,"ss":28.0,"used":false,"health":1},{"PRN":4,"gnssid":0,"svid":4,"az":323.0,"el":11.0,"ss":35.0,"used":false,"health":1}]}
{"class":"TPV","device":"/dev/ttyACM0","mode":3,"time":"2024-06-05T06:40:11.249Z","leapseconds":18,"ept":0.005,"lat":52.315732388,"lon":10.561748049,"altHAE":165.1731,"altMSL":121.2744,"alt":121.2744,"epx":8.920,"epy":10.061,"epv":57.730,"track":50.3530,"magtrack":53.5724,"magvar":3.2,"speed":4.103,"climb":0.126,"eps":0.32,"epc":405.28,"ecefx":3841119.85,"ecefy":716192.14,"ecefz":5024486.88,"ecefvx":-2.54,"ecefvy":2.74,"ecefvz":1.70,"ecefpAcc":6.26,"ecefvAcc":0.32,"velN":2.618,"velE":3.159,"velD":-0.126,"geoidSep":43.899,"eph":30.020,"sep":53.010}
{"class":"SKY","device":"/dev/ttyACM0","time":"2024-06-05T06:40:11.001Z","gdop":3.44,"hdop":1.58,"pdop":2.79,"tdop":1.74,"xdop":0.59,"ydop":0.67,"vdop":2.51,"uSat":10}
{"class":"SKY","device":"/dev/ttyACM0","time":"2024-06-05T06:40:11.001Z","gdop":3.28,"hdop":1.16,"pdop":2.79,"tdop":1.73,"xdop":0.59,"ydop":0.67,"vdop":2.54,"uSat":10}
{"class":"TPV","device":"/dev/ttyACM0","mode":3,"time":"2024-06-05T06:40:11.249Z","leapseconds":18,"ept":0.005,"lat":52.315732388,"lon":10.561748049,"altHAE":165.1731,"altMSL":121.2744,"alt":121.2744,"epx":8.920,"epy":10.061,"epv":57.730,"track":50.3530,"magtrack":53.5724,"magvar":3.2,"speed":4.103,"climb":0.126,"eps":81.14,"epc":405.28,"ecefx":3841119.85,"ecefy":716192.14,"ecefz":5024486.88,"ecefvx":-2.54,"ecefvy":2.74,"ecefvz":1.70,"ecefpAcc":6.26,"ecefvAcc":0.32,"velN":2.618,"velE":3.159,"velD":-0.126,"geoidSep":43.899,"eph":30.020,"sep":53.010}
{"class":"SKY","device":"/dev/ttyACM0","time":"2024-06-05T06:40:11.249Z","gdop":3.28,"hdop":1.16,"pdop":2.79,"tdop":1.73,"xdop":0.59,"ydop":0.67,"vdop":2.54,"nSat":14,"uSat":7,"satellites":[{"PRN":26,"gnssid":0,"svid":26,"az":294.0,"el":44.0,"ss":45.0,"used":true,"health":1},{"PRN":5,"gnssid":0,"svid":5,"az":88.0,"el":18.0,"ss":42.0,"used":false,"health":1},{"PRN":29,"gnssid":0,"svid":29,"az":68.0,"el":73.0,"ss":46.0,"used":true,"health":1},{"PRN":9,"gnssid":0,"svid":9,"az":357.0,"el":2.0,"ss":16.0,"used":false,"health":1},{"PRN":18,"gnssid":0,"svid":18,"az":177.0,"el":36.0,"ss":37.0,"used":true,"health":1},{"PRN":44,"gnssid":1,"svid":131,"az":0.0,"el":-9.0,"ss":0.0,"used":false,"health":1},{"PRN":16,"gnssid":0,"svid":16,"az":0.0,"el":-9.0,"ss":33.0,"used":false,"health":1},{"PRN":25,"gnssid":0,"svid":25,"az":122.0,"el":34.0,"ss":39.0,"used":true,"health":1},{"PRN":28,"gnssid":0,"svid":28,"az":220.0,"el":45.0,"ss":49.0,"used":true,"health":1},{"PRN":20,"gnssid":0,"svid":20,"az":58.0,"el":21.0,"ss":35.0,"used":true,"health":1},{"PRN":11,"gnssid":0,"svid":11,"az":37.0,"el":11.0,"ss":27.0,"used":false,"health":1},{"PRN":31,"gnssid":0,"svid":31,"az":269.0,"el":50.0,"ss":49.0,"used":true,"health":1},{"PRN":12,"gnssid":0,"svid":12,"az":116.0,"el":7.0,"ss":28.0,"used":false,"health":1},{"PRN":4,"gnssid":0,"svid":4,"az":323.0,"el":11.0,"ss":33.0,"used":false,"health":1}]}
{"class":"TPV","device":"/dev/ttyACM0","mode":3,"time":"2024-06-05T06:40:11.501Z","leapseconds":18,"ept":0.005,"lat":52.315738645,"lon":10.561761138,"altHAE":165.1154,"altMSL":121.2167,"alt":121.2167,"epx":8.920,"epy":10.061,"epv":58.420,"track":51.7630,"magtrack":54.9824,"magvar":3.2,"speed":4.200,"climb":0.128,"eps":0.32,"epc":460.91,"ecefx":3841119.11,"ecefy":716192.91,"ecefz":5024487.26,"ecefvx":-2.55,"ecefvy":2.88,"ecefvz":1.69,"ecefpAcc":6.71,"ecefvAcc":0.32,"velN":2.599,"velE":3.299,"velD":-0.128,"geoidSep":43.899,"eph":22.040,"sep":54.150}
{"class":"SKY","device":"/dev/ttyACM0","time":"2024-06-05T06:40:11.249Z","gdop":3.28,"hdop":1.16,"pdop":2.85,"tdop":1.73,"xdop":0.59,"ydop":0.67,"vdop":2.54,"uSat":10}
{"class":"SKY","device":"/dev/ttyACM0","time":"2024-06-05T06:40:11.249Z","gdop":3.33,"hdop":1.29,"pdop":2.85,"tdop":1.73,"xdop":0.59,"ydop":0.67,"vdop":2.54,"uSat":10}
{"class":"TPV","device":"/dev/ttyACM0","mode":3,"time":"2024-06-05T06:40:11.501Z","leapseconds":18,"ept":0.005,"lat":52.315738645,"lon":10.561761138,"altHAE":165.1154,"altMSL":121.2167,"alt":121.2167,"epx":8.920,"epy":10.061,"epv":58.420,"track":51.7630,"magtrack":54.9824,"magvar":3.2,"speed":4.200,"climb":0.128,"eps":79.85,"epc":460.91,"ecefx":3841119.11,"ecefy":716192.91,"ecefz":5024487.26,"ecefvx":-2.55,"ecefvy":2.88,"ecefvz":1.69,"ecefpAcc":6.71,"ecefvAcc":0.32,"velN":2.599,"velE":3.299,"velD":-0.128,"geoidSep":43.899,"eph":22.040,"sep":54.150}
