{"class":"VERSION","release":"3.25","rev":"3.25","proto_major":3,"proto_minor":15}
{"class":"DEVICES","devices":[{"class":"DEVICE","path":"/dev/ttyACM0","driver":"u-blox","subtype":"SW 5.00    May 11 2006 14:40:17,HW 00040001","subtype1":"M4T1.2  May 11 2006 14:40:17","activated":"2024-06-04T12:17:27.635Z","flags":1,"native":1,"bps":57600,"parity":"N","stopbits":1,"cycle":1.00,"mincycle":0.02}]}
{"class":"WATCH","enable":true,"json":true,"nmea":false,"raw":0,"scaled":false,"timing":false,"split24":false,"pps":false}
{"class":"TPV","device":"/dev/ttyACM0","mode":3,"time":"2024-06-04T12:17:27.749Z","leapseconds":18,"ept":0.005,"lat":52.315910471,"lon":10.561619254,"altHAE":120.2726,"altMSL":76.3740,"alt":76.3740,"epx":9.280,"epy":14.902,"epv":50.600,"track":180.0000,"magtrack":183.2194,"magvar":3.2,"speed":0.024,"climb":-0.032,"eps":0.43,"epc":408.06,"ecefx":3841079.06,"ecefy":716175.60,"ecefz":5024463.46,"ecefvx":0.00,"ecefvy":0.00,"ecefvz":-0.04,"ecefpAcc":3.94,"ecefvAcc":0.43,"velN":-0.024,"velE":0.000,"velD":0.032,"geoidSep":43.899,"eph":29.070,"sep":50.920}
{"class":"SKY","device":"/dev/ttyACM0","time":"2024-06-04T12:17:27.501Z","gdop":3.12,"hdop":1.53,"pdop":2.68,"tdop":1.59,"xdop":0.62,"ydop":0.99,"vdop":2.20,"uSat":8}
{"class":"SKY","device":"/dev/ttyACM0","time":"2024-06-04T12:17:27.501Z","gdop":3.12,"hdop":1.53,"pdop":2.68,"tdop":1.59,"xdop":0.62,"ydop":0.99,"vdop":2.20,"uSat":8}
{"class":"TPV","device":"/dev/ttyACM0","mode":3,"time":"2024-06-04T12:17:27.749Z","leapseconds":18,"ept":0.005,"lat":52.315910471,"lon":10.561619254,"altHAE":120.2726,"altMSL":76.3740,"alt":76.3740,"epx":9.280,"epy":14.902,"epv":50.600,"track":180.0000,"magtrack":183.2194,"magvar":3.2,"speed":0.024,"climb":-0.032,"eps":120.18,"epc":408.06,"ecefx":3841079.06,"ecefy":716175.60,"ecefz":5024463.46,"ecefvx":0.00,"ecefvy":0.00,"ecefvz":-0.04,"ecefpAcc":3.94,"ecefvAcc":0.43,"velN":-0.024,"velE":0.000,"velD":0.032,"geoidSep":43.899,"eph":29.070,"sep":50.920}
{"class":"SKY","device":"/dev/ttyACM0","time":"2024-06-04T12:17:27.749Z","gdop":3.12,"hdop":1.53,"pdop":2.68,"tdop":1.59,"xdop":0.62,"ydop":0.99,"vdop":2.20,"nSat":12,"uSat":7,"satellites":[{"PRN":2,"gnssid":0,"svid":2,"az":277.0,"el":40.0,"ss":49.0,"used":true,"health":1},{"PRN":22,"gnssid":0,"svid":22,"az":337.0,"el":4.0,"ss":24.0,"used":false,"health":1},{"PRN":32,"gnssid":0,"svid":32,"az":114.0,"el":31.0,"ss":41.0,"used":true,"health":1},{"PRN":16,"gnssid":0,"svid":16,"az":188.0,"el":2.0,"ss":0.0,"used":false,"health":1},{"PRN":14,"gnssid":0,"svid":14,"az":322.0,"el":17.0,"ss":42.0,"used":true,"health":1},{"PRN":37,"gnssid":1,"svid":124,"az":0.0,"el":-9.0,"ss":0.0,"used":false,"health":1},{"PRN":24,"gnssid":0,"svid":24,"az":37.0,"el":1.0,"ss":0.0,"used":false,"health":1},{"PRN":8,"gnssid":0,"svid":8,"az":207.0,"el":73.0,"ss":49.0,"used":true,"health":1},{"PRN":10,"gnssid":0,"svid":10,"az":64.0,"el":54.0,"ss":49.0,"used":true,"health":1},{"PRN":23,"gnssid":0,"svid":23,"az":50.0,"el":20.0,"ss":33.0,"used":true,"health":1},{"PRN":21,"gnssid":0,"svid":21,"az":279.0,"el":58.0,"ss":47.0,"used":true,"health":1},{"PRN":27,"gnssid":0,"svid":27,"az":152.0,"el":45.0,"ss":24.0,"used":false,"health":1}]}
{"class":"TPV","device":"/dev/ttyACM0","mode":3,"time":"2024-06-04T12:17:28.001Z","leapseconds":18,"ept":0.005,"lat":52.315910331,"lon":10.561619200,"altHAE":120.2846,"altMSL":76.3860,"alt":76.3860,"epx":9.280,"epy":14.902,"epv":50.600,"track":313.2891,"magtrack":316.5085,"magvar":3.2,"speed":0.024,"climb":0.000,"eps":0.42,"epc":401.59,"ecefx":3841079.08,"ecefy":716175.60,"ecefz":5024463.46,"ecefvx":-0.01,"ecefvy":-0.02,"ecefvz":0.01,"ecefpAcc":3.93,"ecefvAcc":0.42,"velN":0.017,"velE":-0.018,"velD":0.000,"geoidSep":43.899,"eph":29.070,"sep":50.920}
{"class":"SKY","device":"/dev/ttyACM0","time":"2024-06-04T12:17:27.749Z","gdop":3.12,"hdop":1.53,"pdop":2.68,"tdop":1.59,"xdop":0.62,"ydop":0.99,"vdop":2.20,"uSat":8}
{"class":"SKY","device":"/dev/ttyACM0","time":"2024-06-04T12:17:27.749Z","gdop":3.12,"hdop":1.53,"pdop":2.68,"tdop":1.59,"xdop":0.62,"ydop":0.99,"vdop":2.20,"uSat":8}
{"class":"TPV","device":"/dev/ttyACM0","mode":3,"time":"2024-06-04T12:17:28.001Z","leapseconds":18,"ept":0.005,"lat":52.315910331,"lon":10.561619200,"altHAE":120.2846,"altMSL":76.3860,"alt":76.3860,"epx":9.280,"epy":14.902,"epv":50.600,"track":313.2891,"magtrack":316.5085,"magvar":3.2,"speed":0.024,"climb":0.000,"eps":118.27,"epc":401.59,"ecefx":3841079.08,"ecefy":716175.60,"ecefz":5024463.46,"ecefvx":-0.01,"ecefvy":-0.02,"ecefvz":0.01,"ecefpAcc":3.93,"ecefvAcc":0.42,"velN":0.017,"velE":-0.018,"velD":0.000,"geoidSep":43.899,"eph":29.070,"sep":50.920}
{"class":"SKY","device":"/dev/ttyACM0","time":"2024-06-04T12:17:28.001Z","gdop":3.12,"hdop":1.53,"pdop":2.68,"tdop":1.59,"xdop":0.62,"ydop":0.99,"vdop":2.20,"nSat":12,"uSat":7,"satellites":[{"PRN":2,"gnssid":0,"svid":2,"az":277.0,"el":40.0,"ss":49.0,"used":true,"health":1},{"PRN":22,"gnssid":0,"svid":22,"az":337.0,"el":4.0,"ss":24.0,"used":false,"health":1},{"PRN":32,"gnssid":0,"svid":32,"az":114.0,"el":31.0,"ss":41.0,"used":true,"health":1},{"PRN":16,"gnssid":0,"svid":16,"az":188.0,"el":2.0,"ss":0.0,"used":false,"health":1},{"PRN":14,"gnssid":0,"svid":14,"az":322.0,"el":17.0,"ss":42.0,"used":true,"health":1},{"PRN":37,"gnssid":1,"svid":124,"az":0.0,"el":-9.0,"ss":0.0,"used":false,"health":1},{"PRN":24,"gnssid":0,"svid":24,"az":37.0,"el":1.0,"ss":0.0,"used":false,"health":1},{"PRN":8,"gnssid":0,"svid":8,"az":207.0,"el":73.0,"ss":49.0,"used":true,"health":1},{"PRN":10,"gnssid":0,"svid":10,"az":64.0,"el":54.0,"ss":49.0,"used":true,"health":1},{"PRN":23,"gnssid":0,"svid":23,"az":50.0,"el":20.0,"ss":33.0,"used":true,"health":1},{"PRN":21,"gnssid":0,"svid":21,"az":279.0,"el":58.0,"ss":47.0,"used":true,"health":1},{"PRN":27,"gnssid":0,"svid":27,"az":152.0,"el":45.0,"ss":25.0,"used":false,"health":1}]}
{"class":"TPV","device":"/dev/ttyACM0","mode":3,"time":"2024-06-04T12:17:28.249Z","leapseconds":18,"ept":0.005,"lat":52.315910317,"lon":10.561619173,"altHAE":120.2985,"altMSL":76.3999,"alt":76.3999,"epx":9.280,"epy":14.902,"epv":50.600,"track":13.2571,"magtrack":16.4765,"magvar":3.2,"speed":0.008,"climb":-0.006,"eps":0.42,"epc":408.06,"ecefx":3841079.09,"ecefy":716175.60,"ecefz":5024463.47,"ecefvx":-0.01,"ecefvy":0.00,"ecefvz":0.00,"ecefpAcc":3.92,"ecefvAcc":0.42,"velN":0.008,"velE":0.002,"velD":0.006,"geoidSep":43.899,"eph":29.070,"sep":50.920}
{"class":"SKY","device":"/dev/ttyACM0","time":"2024-06-04T12:17:28.001Z","gdop":3.12,"hdop":1.53,"pdop":2.68,"tdop":1.59,"xdop":0.62,"ydop":0.99,"vdop":2.20,"uSat":8}
{"class":"SKY","device":"/dev/ttyACM0","time":"2024-06-04T12:17:28.001Z","gdop":3.12,"hdop":1.53,"pdop":2.68,"tdop":1.60,"xdop":0.62,"ydop":0.99,"vdop":2.20,"uSat":8}
{"class":"TPV","device":"/dev/ttyACM0","mode":3,"time":"2024-06-04T12:17:28.249Z","leapseconds":18,"ept":0.005,"lat":52.315910317,"lon":10.561619173,"altHAE":120.2985,"altMSL":76.3999,"alt":76.3999,"epx":9.280,"epy":14.902,"epv":50.600,"track":13.2571,"magtrack":16.4765,"magvar":3.2,"speed":0.008,"climb":-0.006,"eps":120.18,"epc":408.06,"ecefx":3841079.09,"ecefy":716175.60,"ecefz":5024463.47,"ecefvx":-0.01,"ecefvy":0.00,"ecefvz":0.00,"ecefpAcc":3.92,"ecefvAcc":0.42,"velN":0.008,"velE":0.002,"velD":0.006,"geoidSep":43.899,"eph":29.070,"sep":50.920}
{"class":"SKY","device":"/dev/ttyACM0","time":"2024-06-04T12:17:28.249Z","gdop":3.12,"hdop":1.53,"pdop":2.68,"tdop":1.60,"xdop":0.62,"ydop":0.99,"vdop":2.20,"nSat":12,"uSat":7,"satellites":[{"PRN":2,"gnssid":0,"svid":2,"az":277.0,"el":40.0,"ss":49.0,"used":true,"health":1},{"PRN":22,"gnssid":0,"svid":22,"az":337.0,"el":4.0,"ss":24.0,"used":false,"health":1},{"PRN":32,"gnssid":0,"svid":32,"az":114.0,"el":31.0,"ss":41.0,"used":true,"health":1},{"PRN":16,"gnssid":0,"svid":16,"az":188.0,"el":2.0,"ss":0.0,"used":false,"health":1},{"PRN":14,"gnssid":0,"svid":14,"az":322.0,"el":17.0,"ss":42.0,"used":true,"health":1},{"PRN":37,"gnssid":1,"svid":124,"az":0.0,"el":-9.0,"ss":0.0,"used":false,"health":1},{"PRN":24,"gnssid":0,"svid":24,"az":37.0,"el":1.0,"ss":0.0,"used":false,"health":1},{"PRN":8,"gnssid":0,"svid":8,"az":207.0,"el":73.0,"ss":49.0,"used":true,"health":1},{"PRN":10,"gnssid":0,"svid":10,"az":64.0,"el":54.0,"ss":49.0,"used":true,"health":1},{"PRN":23,"gnssid":0,"svid":23,"az":50.0,"el":20.0,"ss":33.0,"used":true,"health":1},{"PRN":21,"gnssid":0,"svid":21,"az":279.0,"el":58.0,"ss":47.0,"used":true,"health":1},{"PRN":27,"gnssid":0,"svid":27,"az":152.0,"el":45.0,"ss":25.0,"used":false,"health":1}]}
{"class":"TPV","device":"/dev/ttyACM0","mode":3,"time":"2024-06-04T12:17:28.501Z","leapseconds":18,"ept":0.005,"lat":52.315910356,"lon":10.561619146,"altHAE":120.3204,"altMSL":76.4218,"alt":76.4218,"epx":9.280,"epy":14.902,"epv":50.600,"track":180.0000,"magtrack":183.2194,"magvar":3.2,"speed":0.006,"climb":-0.008,"eps":0.42,"epc":401.59,"ecefx":3841079.10,"ecefy":716175.60,"ecefz":5024463.49,"ecefvx":0.00,"ecefvy":0.00,"ecefvz":-0.01,"ecefpAcc":3.92,"ecefvAcc":0.42,"velN":-0.006,"velE":0.000,"velD":0.008,"geoidSep":43.899,"eph":29.070,"sep":50.920}
{"class":"SKY","device":"/dev/ttyACM0","time":"2024-06-04T12:17:28.249Z","gdop":3.12,"hdop":1.53,"pdop":2.68,"tdop":1.60,"xdop":0.62,"ydop":0.99,"vdop":2.20,"uSat":8}
{"class":"SKY","device":"/dev/ttyACM0","time":"2024-06-04T12:17:28.249Z","gdop":3.12,"hdop":1.53,"pdop":2.68,"tdop":1.60,"xdop":0.62,"ydop":0.99,"vdop":2.20,"uSat":8}
{"class":"TPV","device":"/dev/ttyACM0","mode":3,"time":"2024-06-04T12:17:28.501Z","leapseconds":18,"ept":0.005,"lat":52.315910356,"lon":10.561619146,"altHAE":120.3204,"altMSL":76.4218,"alt":76.4218,"epx":9.280,"epy":14.902,"epv":50.600,"track":180.0000,"magtrack":183.2194,"magvar":3.2,"speed":0.006,"climb":-0.008,"eps":118.27,"epc":401.59,"ecefx":3841079.10,"ecefy":716175.60,"ecefz":5024463.49,"ecefvx":0.00,"ecefvy":0.00,"ecefvz":-0.01,"ecefpAcc":3.92,"ecefvAcc":0.42,"velN":-0.006,"velE":0.000,"velD":0.008,"geoidSep":43.899,"eph":29.070,"sep":50.920}
{"class":"SKY","device":"/dev/ttyACM0","time":"2024-06-04T12:17:28.501Z","gdop":3.12,"hdop":1.53,"pdop":2.68,"tdop":1.60,"xdop":0.62,"ydop":0.99,"vdop":2.20,"nSat":12,"uSat":7,"satellites":[{"PRN":2,"gnssid":0,"svid":2,"az":277.0,"el":40.0,"ss":49.0,"used":true,"health":1},{"PRN":22,"gnssid":0,"svid":22,"az":337.0,"el":4.0,"ss":24.0,"used":false,"health":1},{"PRN":32,"gnssid":0,"svid":32,"az":114.0,"el":31.0,"ss":41.0,"used":true,"health":1},{"PRN":16,"gnssid":0,"svid":16,"az":188.0,"el":2.0,"ss":0.0,"used":false,"health":1},{"PRN":14,"gnssid":0,"svid":14,"az":322.0,"el":17.0,"ss":42.0,"used":true,"health":1},{"PRN":37,"gnssid":1,"svid":124,"az":0.0,"el":-9.0,"ss":0.0,"used":false,"health":1},{"PRN":24,"gnssid":0,"svid":24,"az":37.0,"el":1.0,"ss":0.0,"used":false,"health":1},{"PRN":8,"gnssid":0,"svid":8,"az":207.0,"el":73.0,"ss":49.0,"used":true,"health":1},{"PRN":10,"gnssid":0,"svid":10,"az":64.0,"el":54.0,"ss":49.0,"used":true,"health":1},{"PRN":23,"gnssid":0,"svid":23,"az":50.0,"el":20.0,"ss":33.0,"used":true,"health":1},{"PRN":21,"gnssid":0,"svid":21,"az":279.0,"el":58.0,"ss":47.0,"used":true,"health":1},{"PRN":27,"gnssid":0,"svid":27,"az":152.0,"el":45.0,"ss":25.0,"used":false,"health":1}]}
{"class":"TPV","device":"/dev/ttyACM0","mode":3,"time":"2024-06-04T12:17:28.749Z","leapseconds":18,"ept":0.005,"lat":52.315910370,"lon":10.561619002,"altHAE":120.3193,"altMSL":76.4207,"alt":76.4207,"epx":9.280,"epy":14.902,"epv":50.600,"track":180.0000,"magtrack":183.2194,"magvar":3.2,"speed":0.006,"climb":-0.008,"eps":0.43,"epc":408.06,"ecefx":3841079.10,"ecefy":716175.59,"ecefz":5024463.49,"ecefvx":0.00,"ecefvy":0.00,"ecefvz":-0.01,"ecefpAcc":3.91,"ecefvAcc":0.43,"velN":-0.006,"velE":0.000,"velD":0.008,"geoidSep":43.899,"eph":29.070,"sep":50.920}
{"class":"SKY","device":"/dev/ttyACM0","time":"2024-06-04T12:17:28.501Z","gdop":3.12,"hdop":1.53,"pdop":2.68,"tdop":1.60,"xdop":0.62,"ydop":0.99,"vdop":2.20,"uSat":8}
{"class":"SKY","device":"/dev/ttyACM0","time":"2024-06-04T12:17:28.501Z","gdop":3.12,"hdop":1.54,"pdop":2.68,"tdop":1.60,"xdop":0.62,"ydop":0.99,"vdop":2.20,"uSat":8}
{"class":"TPV","device":"/dev/ttyACM0","mode":3,"time":"2024-06-04T12:17:28.749Z","leapseconds":18,"ept":0.005,"lat":52.315910370,"lon":10.561619002,"altHAE":120.3193,"altMSL":76.4207,"alt":76.4207,"epx":9.280,"epy":14.902,"epv":50.600,"track":180.0000,"magtrack":183.2194,"magvar":3.2,"speed":0.006,"climb":-0.008,"eps":120.18,"epc":408.06,"ecefx":3841079.10,"ecefy":716175.59,"ecefz":5024463.49,"ecefvx":0.00,"ecefvy":0.00,"ecefvz":-0.01,"ecefpAcc":3.91,"ecefvAcc":0.43,"velN":-0.006,"velE":0.000,"velD":0.008,"geoidSep":43.899,"eph":29.070,"sep":50.920}
{"class":"SKY","device":"/dev/ttyACM0","time":"2024-06-04T12:17:28.749Z","gdop":3.12,"hdop":1.54,"pdop":2.68,"tdop":1.60,"xdop":0.62,"ydop":0.99,"vdop":2.20,"nSat":12,"uSat":7,"satellites":[{"PRN":2,"gnssid":0,"svid":2,"az":277.0,"el":40.0,"ss":49.0,"used":true,"health":1},{"PRN":22,"gnssid":0,"svid":22,"az":337.0,"el":4.0,"ss":24.0,"used":false,"health":1},{"PRN":32,"gnssid":0,"svid":32,"az":114.0,"el":31.0,"ss":41.0,"used":true,"health":1},{"PRN":16,"gnssid":0,"svid":16,"az":188.0,"el":2.0,"ss":0.0,"used":false,"health":1},{"PRN":14,"gnssid":0,"svid":14,"az":322.0,"el":17.0,"ss":42.0,"used":true,"health":1},{"PRN":37,"gnssid":1,"svid":124,"az":0.0,"el":-9.0,"ss":0.0,"used":false,"health":1},{"PRN":24,"gnssid":0,"svid":24,"az":37.0,"el":1.0,"ss":0.0,"used":false,"health":1},{"PRN":8,"gnssid":0,"svid":8,"az":207.0,"el":73.0,"ss":49.0,"used":true,"health":1},{"PRN":10,"gnssid":0,"svid":10,"az":64.0,"el":54.0,"ss":49.0,"used":true,"health":1},{"PRN":23,"gnssid":0,"svid":23,"az":50.0,"el":20.0,"ss":32.0,"used":true,"health":1},{"PRN":21,"gnssid":0,"svid":21,"az":279.0,"el":58.0,"ss":47.0,"used":true,"health":1},{"PRN":27,"gnssid":0,"svid":27,"az":152.0,"el":45.0,"ss":25.0,"used":false,"health":1}]}
{"class":"TPV","device":"/dev/ttyACM0","mode":3,"time":"2024-06-04T12:17:29.001Z","leapseconds":18,"ept":0.005,"lat":52.315910230,"lon":10.561618948,"altHAE":120.3313,"altMSL":76.4327,"alt":76.4327,"epx":9.280,"epy":14.902,"epv":50.600,"track":307.5746,"magtrack":310.7941,"magvar":3.2,"speed":0.012,"climb":0.007,"eps":0.42,"epc":401.59,"ecefx":3841079.12,"ecefy":716175.59,"ecefz":5024463.49,"ecefvx":0.00,"ecefvy":-0.01,"ecefvz":0.01,"ecefpAcc":3.91,"ecefvAcc":0.42,"velN":0.008,"velE":-0.010,"velD":-0.007,"geoidSep":43.899,"eph":29.260,"sep":50.920}
{"class":"SKY","device":"/dev/ttyACM0","time":"2024-06-04T12:17:28.749Z","gdop":3.12,"hdop":1.54,"pdop":2.68,"tdop":1.60,"xdop":0.62,"ydop":0.99,"vdop":2.20,"uSat":8}
{"class":"SKY","device":"/dev/ttyACM0","time":"2024-06-04T12:17:28.749Z","gdop":3.12,"hdop":1.53,"pdop":2.68,"tdop":1.60,"xdop":0.62,"ydop":0.99,"vdop":2.20,"uSat":8}
{"class":"TPV","device":"/dev/ttyACM0","mode":3,"time":"2024-06-04T12:17:29.001Z","leapseconds":18,"ept":0.005,"lat":52.315910230,"lon":10.561618948,"altHAE":120.3313,"altMSL":76.4327,"alt":76.4327,"epx":9.280,"epy":14.902,"epv":50.600,"track":307.5746,"magtrack":310.7941,"magvar":3.2,"speed":0.012,"climb":0.007,"eps":118.27,"epc":401.59,"ecefx":3841079.12,"ecefy":716175.59,"ecefz":5024463.49,"ecefvx":0.00,"ecefvy":-0.01,"ecefvz":0.01,"ecefpAcc":3.91,"ecefvAcc":0.42,"velN":0.008,"velE":-0.010,"velD":-0.007,"geoidSep":43.899,"eph":29.260,"sep":50.920}
{"class":"SKY","device":"/dev/ttyACM0","time":"2024-06-04T12:17:29.001Z","gdop":3.12,"hdop":1.53,"pdop":2.68,"tdop":1.60,"xdop":0.62,"ydop":0.99,"vdop":2.20,"nSat":12,"uSat":7,"satellites":[{"PRN":2,"gnssid":0,"svid":2,"az":277.0,"el":40.0,"ss":49.0,"used":true,"health":1},{"PRN":22,"gnssid":0,"svid":22,"az":337.0,"el":4.0,"ss":24.0,"used":false,"health":1},{"PRN":32,"gnssid":0,"svid":32,"az":114.0,"el":31.0,"ss":41.0,"used":true,"health":1},{"PRN":16,"gnssid":0,"svid":16,"az":188.0,"el":2.0,"ss":0.0,"used":false,"health":1},{"PRN":14,"gnssid":0,"svid":14,"az":322.0,"el":17.0,"ss":42.0,"used":true,"health":1},{"PRN":37,"gnssid":1,"svid":124,"az":0.0,"el":-9.0,"ss":0.0,"used":false,"health":1},{"PRN":24,"gnssid":0,"svid":24,"az":37.0,"el":1.0,"ss":0.0,"used":false,"health":1},{"PRN":8,"gnssid":0,"svid":8,"az":207.0,"el":73.0,"ss":49.0,"used":true,"health":1},{"PRN":10,"gnssid":0,"svid":10,"az":64.0,"el":54.0,"ss":49.0,"used":true,"health":1},{"PRN":23,"gnssid":0,"svid":23,"az":50.0,"el":20.0,"ss":33.0,"used":true,"health":1},{"PRN":21,"gnssid":0,"svid":21,"az":279.0,"el":58.0,"ss":47.0,"used":true,"health":1},{"PRN":27,"gnssid":0,"svid":27,"az":152.0,"el":45.0,"ss":25.0,"used":false,"health":1}]}
{"class":"TPV","device":"/dev/ttyACM0","mode":3,"time":"2024-06-04T12:17:29.249Z","leapseconds":18,"ept":0.005,"lat":52.315910160,"lon":10.561618921,"altHAE":120.3373,"altMSL":76.4387,"alt":76.4387,"epx":9.280,"epy":14.902,"epv":50.600,"track":193.2571,"magtrack":196.4765,"magvar":3.2,"speed":0.008,"climb":0.006,"eps":0.42,"epc":408.06,"ecefx":3841079.13,"ecefy":716175.59,"ecefz":5024463.49,"ecefvx":0.01,"ecefvy":0.00,"ecefvz":0.00,"ecefpAcc":3.90,"ecefvAcc":0.42,"velN":-0.008,"velE":-0.002,"velD":-0.006,"geoidSep":43.899,"eph":29.070,"sep":50.920}
{"class":"SKY","device":"/dev/ttyACM0","time":"2024-06-04T12:17:29.001Z","gdop":3.12,"hdop":1.53,"pdop":2.68,"tdop":1.60,"xdop":0.62,"ydop":0.99,"vdop":2.20,"uSat":8}
{"class":"SKY","device":"/dev/ttyACM0","time":"2024-06-04T12:17:29.001Z","gdop":3.12,"hdop":1.53,"pdop":2.68,"tdop":1.60,"xdop":0.62,"ydop":0.99,"vdop":2.20,"uSat":8}
{"class":"TPV","device":"/dev/ttyACM0","mode":3,"time":"2024-06-04T12:17:29.249Z","leapseconds":18,"ept":0.005,"lat":52.315910160,"lon":10.561618921,"altHAE":120.3373,"altMSL":76.4387,"alt":76.4387,"epx":9.280,"epy":14.902,"epv":50.600,"track":193.2571,"magtrack":196.4765,"magvar":3.2,"speed":0.008,"climb":0.006,"eps":120.18,"epc":408.06,"ecefx":3841079.13,"ecefy":716175.59,"ecefz":5024463.49,"ecefvx":0.01,"ecefvy":0.00,"ecefvz":0.00,"ecefpAcc":3.90,"ecefvAcc":0.42,"velN":-0.008,"velE":-0.002,"velD":-0.006,"geoidSep":43.899,"eph":29.070,"sep":50.920}
{"class":"SKY","device":"/dev/ttyACM0","time":"2024-06-04T12:17:29.249Z","gdop":3.12,"hdop":1.53,"pdop":2.68,"tdop":1.60,"xdop":0.62,"ydop":0.99,"vdop":2.20,"nSat":12,"uSat":7,"satellites":[{"PRN":2,"gnssid":0,"svid":2,"az":277.0,"el":40.0,"ss":49.0,"used":true,"health":1},{"PRN":22,"gnssid":0,"svid":22,"az":337.0,"el":4.0,"ss":24.0,"used":false,"health":1},{"PRN":32,"gnssid":0,"svid":32,"az":114.0,"el":31.0,"ss":41.0,"used":true,"health":1},{"PRN":16,"gnssid":0,"svid":16,"az":188.0,"el":2.0,"ss":0.0,"used":false,"health":1},{"PRN":14,"gnssid":0,"svid":14,"az":322.0,"el":17.0,"ss":42.0,"used":true,"health":1},{"PRN":37,"gnssid":1,"svid":124,"az":0.0,"el":-9.0,"ss":0.0,"used":false,"health":1},{"PRN":24,"gnssid":0,"svid":24,"az":37.0,"el":1.0,"ss":0.0,"used":false,"health":1},{"PRN":8,"gnssid":0,"svid":8,"az":207.0,"el":73.0,"ss":49.0,"used":true,"health":1},{"PRN":10,"gnssid":0,"svid":10,"az":64.0,"el":54.0,"ss":49.0,"used":true,"health":1},{"PRN":23,"gnssid":0,"svid":23,"az":50.0,"el":20.0,"ss":33.0,"used":true,"health":1},{"PRN":21,"gnssid":0,"svid":21,"az":279.0,"el":58.0,"ss":47.0,"used":true,"health":1},{"PRN":27,"gnssid":0,"svid":27,"az":152.0,"el":45.0,"ss":25.0,"used":false,"health":1}]}
{"class":"TPV","device":"/dev/ttyACM0","mode":3,"time":"2024-06-04T12:17:29.501Z","leapseconds":18,"ept":0.005,"lat":52.315910158,"lon":10.561618750,"altHAE":120.3501,"altMSL":76.4515,"alt":76.4515,"epx":9.280,"epy":14.902,"epv":50.600,"track":333.5841,"magtrack":336.8035,"magvar":3.2,"speed":0.022,"climb":0.023,"eps":0.41,"epc":401.59,"ecefx":3841079.14,"ecefy":716175.58,"ecefz":5024463.50,"ecefvx":0.00,"ecefvy":-0.01,"ecefvz":0.03,"ecefpAcc":3.90,"ecefvAcc":0.41,"velN":0.020,"velE":-0.010,"velD":-0.023,"geoidSep":43.899,"eph":29.070,"sep":50.920}
{"class":"SKY","device":"/dev/ttyACM0","time":"2024-06-04T12:17:29.249Z","gdop":3.12,"hdop":1.53,"pdop":2.68,"tdop":1.60,"xdop":0.62,"ydop":0.99,"vdop":2.20,"uSat":8}
{"class":"SKY","device":"/dev/ttyACM0","time":"2024-06-04T12:17:29.249Z","gdop":3.12,"hdop":1.53,"pdop":2.68,"tdop":1.60,"xdop":0.62,"ydop":0.99,"vdop":2.20,"uSat":8}
{"class":"TPV","device":"/dev/ttyACM0","mode":3,"time":"2024-06-04T12:17:29.501Z","leapseconds":18,"ept":0.005,"lat":52.315910158,"lon":10.561618750,"altHAE":120.3501,"altMSL":76.4515,"alt":76.4515,"epx":9.280,"epy":14.902,"epv":50.600,"track":333.5841,"magtrack":336.8035,"magvar":3.2,"speed":0.022,"climb":0.023,"eps":118.27,"epc":401.59,"ecefx":3841079.14,"ecefy":716175.58,"ecefz":5024463.50,"ecefvx":0.00,"ecefvy":-0.01,"ecefvz":0.03,"ecefpAcc":3.90,"ecefvAcc":0.41,"velN":0.020,"velE":-0.010,"velD":-0.023,"geoidSep":43.899,"eph":29.070,"sep":50.920}
{"class":"SKY","device":"/dev/ttyACM0","time":"2024-06-04T12:17:29.501Z","gdop":3.12,"hdop":1.53,"pdop":2.68,"tdop":1.60,"xdop":0.62,"ydop":0.99,"vdop":2.20,"nSat":12,"uSat":7,"satellites":[{"PRN":2,"gnssid":0,"svid":2,"az":277.0,"el":40.0,"ss":49.0,"used":true,"health":1},{"PRN":22,"gnssid":0,"svid":22,"az":337.0,"el":4.0,"ss":24.0,"used":false,"health":1},{"PRN":32,"gnssid":0,"svid":32,"az":114.0,"el":31.0,"ss":41.0,"used":true,"health":1},{"PRN":16,"gnssid":0,"svid":16,"az":188.0,"el":2.0,"ss":0.0,"used":false,"health":1},{"PRN":14,"gnssid":0,"svid":14,"az":322.0,"el":17.0,"ss":42.0,"used":true,"health":1},{"PRN":37,"gnssid":1,"svid":124,"az":0.0,"el":-9.0,"ss":0.0,"used":false,"health":1},{"PRN":24,"gnssid":0,"svid":24,"az":37.0,"el":1.0,"ss":0.0,"used":false,"health":1},{"PRN":8,"gnssid":0,"svid":8,"az":207.0,"el":73.0,"ss":49.0,"used":true,"health":1},{"PRN":10,"gnssid":0,"svid":10,"az":64.0,"el":54.0,"ss":49.0,"used":true,"health":1},{"PRN":23,"gnssid":0,"svid":23,"az":50.0,"el":20.0,"ss":33.0,"used":true,"health":1},{"PRN":21,"gnssid":0,"svid":21,"az":279.0,"el":58.0,"ss":47.0,"used":true,"health":1},{"PRN":27,"gnssid":0,"svid":27,"az":152.0,"el":45.0,"ss":24.0,"used":false,"health":1}]}
{"class":"TPV","device":"/dev/ttyACM0","mode":3,"time":"2024-06-04T12:17:29.749Z","leapseconds":18,"ept":0.005,"lat":52.315910088,"lon":10.561618724,"altHAE":120.3561,"altMSL":76.4575,"alt":76.4575,"epx":9.280,"epy":14.902,"epv":50.600,"track":139.0929,"magtrack":142.3123,"magvar":3.2,"speed":0.012,"climb":0.007,"eps":0.42,"epc":408.06,"ecefx":3841079.15,"ecefy":716175.58,"ecefz":5024463.50,"ecefvx":0.01,"ecefvy":0.01,"ecefvz":0.00,"ecefpAcc":3.90,"ecefvAcc":0.42,"velN":-0.009,"velE":0.008,"velD":-0.007,"geoidSep":43.899,"eph":29.070,"sep":50.920}
{"class":"SKY","device":"/dev/ttyACM0","time":"2024-06-04T12:17:29.501Z","gdop":3.12,"hdop":1.53,"pdop":2.68,"tdop":1.60,"xdop":0.62,"ydop":0.99,"vdop":2.20,"uSat":8}
{"class":"SKY","device":"/dev/ttyACM0","time":"2024-06-04T12:17:29.501Z","gdop":3.12,"hdop":1.54,"pdop":2.68,"tdop":1.60,"xdop":0.62,"ydop":0.99,"vdop":2.20,"uSat":8}
{"class":"TPV","device":"/dev/ttyACM0","mode":3,"time":"2024-06-04T12:17:29.749Z","leapseconds":18,"ept":0.005,"lat":52.315910088,"lon":10.561618724,"altHAE":120.3561,"altMSL":76.4575,"alt":76.4575,"epx":9.280,"epy":14.902,"epv":50.600,"track":139.0929,"magtrack":142.3123,"magvar":3.2,"speed":0.012,"climb":0.007,"eps":120.18,"epc":408.06,"ecefx":3841079.15,"ecefy":716175.58,"ecefz":5024463.50,"ecefvx":0.01,"ecefvy":0.01,"ecefvz":0.00,"ecefpAcc":3.90,"ecefvAcc":0.42,"velN":-0.009,"velE":0.008,"velD":-0.007,"geoidSep":43.899,"eph":29.070,"sep":50.920}
{"class":"SKY","device":"/dev/ttyACM0","time":"2024-06-04T12:17:29.749Z","gdop":3.12,"hdop":1.54,"pdop":2.68,"tdop":1.60,"xdop":0.62,"ydop":0.99,"vdop":2.20,"nSat":12,"uSat":7,"satellites":[{"PRN":2,"gnssid":0,"svid":2,"az":277.0,"el":40.0,"ss":49.0,"used":true,"health":1},{"PRN":22,"gnssid":0,"svid":22,"az":337.0,"el":4.0,"ss":24.0,"used":false,"health":1},{"PRN":32,"gnssid":0,"svid":32,"az":114.0,"el":31.0,"ss":41.0,"used":true,"health":1},{"PRN":16,"gnssid":0,"svid":16,"az":188.0,"el":2.0,"ss":0.0,"used":false,"health":1},{"PRN":14,"gnssid":0,"svid":14,"az":322.0,"el":17.0,"ss":42.0,"used":true,"health":1},{"PRN":37,"gnssid":1,"svid":124,"az":0.0,"el":-9.0,"ss":0.0,"used":false,"health":1},{"PRN":24,"gnssid":0,"svid":24,"az":37.0,"el":1.0,"ss":0.0,"used":false,"health":1},{"PRN":8,"gnssid":0,"svid":8,"az":207.0,"el":73.0,"ss":49.0,"used":true,"health":1},{"PRN":10,"gnssid":0,"svid":10,"az":64.0,"el":54.0,"ss":49.0,"used":true,"health":1},{"PRN":23,"gnssid":0,"svid":23,"az":50.0,"el":20.0,"ss":32.0,"used":true,"health":1},{"PRN":21,"gnssid":0,"svid":21,"az":279.0,"el":58.0,"ss":47.0,"used":true,"health":1},{"PRN":27,"gnssid":0,"svid":27,"az":152.0,"el":45.0,"ss":24.0,"used":false,"health":1}]}
{"class":"TPV","device":"/dev/ttyACM0","mode":3,"time":"2024-06-04T12:17:30.001Z","leapseconds":18,"ept":0.005,"lat":52.315910086,"lon":10.561618553,"altHAE":120.3689,"altMSL":76.4703,"alt":76.4703,"epx":9.280,"epy":14.902,"epv":50.600,"track":324.2921,"magtrack":327.5115,"magvar":3.2,"speed":0.017,"climb":0.015,"eps":0.41,"epc":401.59,"ecefx":3841079.16,"ecefy":716175.57,"ecefz":5024463.51,"ecefvx":0.00,"ecefvy":-0.01,"ecefvz":0.02,"ecefpAcc":3.89,"ecefvAcc":0.41,"velN":0.014,"velE":-0.010,"velD":-0.015,"geoidSep":43.899,"eph":29.260,"sep":50.920}
{"class":"SKY","device":"/dev/ttyACM0","time":"2024-06-04T12:17:29.749Z","gdop":3.12,"hdop":1.54,"pdop":2.68,"tdop":1.60,"xdop":0.62,"ydop":0.99,"vdop":2.20,"uSat":8}
{"class":"SKY","device":"/dev/ttyACM0","time":"2024-06-04T12:17:29.749Z","gdop":3.12,"hdop":1.53,"pdop":2.68,"tdop":1.60,"xdop":0.62,"ydop":0.99,"vdop":2.20,"uSat":8}
{"class":"TPV","device":"/dev/ttyACM0","mode":3,"time":"2024-06-04T12:17:30.001Z","leapseconds":18,"ept":0.005,"lat":52.315910086,"lon":10.561618553,"altHAE":120.3689,"altMSL":76.4703,"alt":76.4703,"epx":9.280,"epy":14.902,"epv":50.600,"track":324.2921,"magtrack":327.5115,"magvar":3.2,"speed":0.017,"climb":0.015,"eps":118.27,"epc":401.59,"ecefx":3841079.16,"ecefy":716175.57,"ecefz":5024463.51,"ecefvx":0.00,"ecefvy":-0.01,"ecefvz":0.02,"ecefpAcc":3.89,"ecefvAcc":0.41,"velN":0.014,"velE":-0.010,"velD":-0.015,"geoidSep":43.899,"eph":29.260,"sep":50.920}
{"class":"SKY","device":"/dev/ttyACM0","time":"2024-06-04T12:17:30.001Z","gdop":3.12,"hdop":1.53,"pdop":2.68,"tdop":1.60,"xdop":0.62,"ydop":0.99,"vdop":2.20,"nSat":12,"uSat":7,"satellites":[{"PRN":2,"gnssid":0,"svid":2,"az":277.0,"el":40.0,"ss":49.0,"used":true,"health":1},{"PRN":22,"gnssid":0,"svid":22,"az":337.0,"el":4.0,"ss":24.0,"used":false,"health":1},{"PRN":32,"gnssid":0,"svid":32,"az":114.0,"el":31.0,"ss":41.0,"used":true,"health":1},{"PRN":16,"gnssid":0,"svid":16,"az":188.0,"el":2.0,"ss":0.0,"used":false,"health":1},{"PRN":14,"gnssid":0,"svid":14,"az":322.0,"el":17.0,"ss":42.0,"used":true,"health":1},{"PRN":37,"gnssid":1,"svid":124,"az":0.0,"el":-9.0,"ss":0.0,"used":false,"health":1},{"PRN":24,"gnssid":0,"svid":24,"az":37.0,"el":1.0,"ss":0.0,"used":false,"health":1},{"PRN":8,"gnssid":0,"svid":8,"az":207.0,"el":73.0,"ss":49.0,"used":true,"health":1},{"PRN":10,"gnssid":0,"svid":10,"az":64.0,"el":54.0,"ss":49.0,"used":true,"health":1},{"PRN":23,"gnssid":0,"svid":23,"az":50.0,"el":20.0,"ss":33.0,"used":true,"health":1},{"PRN":21,"gnssid":0,"svid":21,"az":279.0,"el":58.0,"ss":47.0,"used":true,"health":1},{"PRN":27,"gnssid":0,"svid":27,"az":152.0,"el":45.0,"ss":24.0,"used":false,"health":1}]}
{"class":"TPV","device":"/dev/ttyACM0","mode":3,"time":"2024-06-04T12:17:30.249Z","leapseconds":18,"ept":0.005,"lat":52.315910001,"lon":10.561618499,"altHAE":120.3888,"altMSL":76.4902,"alt":76.4902,"epx":9.280,"epy":14.902,"epv":50.600,"track":218.1760,"magtrack":221.3955,"magvar":3.2,"speed":0.044,"climb":0.014,"eps":0.41,"epc":408.06,"ecefx":3841079.18,"ecefy":716175.57,"ecefz":5024463.52,"ecefvx":0.04,"ecefvy":-0.02,"ecefvz":-0.01,"ecefpAcc":3.89,"ecefvAcc":0.41,"velN":-0.034,"velE":-0.027,"velD":-0.014,"geoidSep":43.899,"eph":29.070,"sep":50.920}
{"class":"SKY","device":"/dev/ttyACM0","time":"2024-06-04T12:17:30.001Z","gdop":3.12,"hdop":1.53,"pdop":2.68,"tdop":1.60,"xdop":0.62,"ydop":0.99,"vdop":2.20,"uSat":8}
{"class":"SKY","device":"/dev/ttyACM0","time":"2024-06-04T12:17:30.001Z","gdop":3.12,"hdop":1.53,"pdop":2.68,"tdop":1.59,"xdop":0.62,"ydop":0.99,"vdop":2.20,"uSat":8}
{"class":"TPV","device":"/dev/ttyACM0","mode":3,"time":"2024-06-04T12:17:30.249Z","leapseconds":18,"ept":0.005,"lat":52.315910001,"lon":10.561618499,"altHAE":120.3888,"altMSL":76.4902,"alt":76.4902,"epx":9.280,"epy":14.902,"epv":50.600,"track":218.1760,"magtrack":221.3955,"magvar":3.2,"speed":0.044,"climb":0.014,"eps":120.18,"epc":408.06,"ecefx":3841079.18,"ecefy":716175.57,"ecefz":5024463.52,"ecefvx":0.04,"ecefvy":-0.02,"ecefvz":-0.01,"ecefpAcc":3.89,"ecefvAcc":0.41,"velN":-0.034,"velE":-0.027,"velD":-0.014,"geoidSep":43.899,"eph":29.070,"sep":50.920}
{"class":"SKY","device":"/dev/ttyACM0","time":"2024-06-04T12:17:30.249Z","gdop":3.12,"hdop":1.53,"pdop":2.68,"tdop":1.59,"xdop":0.62,"ydop":0.99,"vdop":2.20,"nSat":12,"uSat":7,"satellites":[{"PRN":2,"gnssid":0,"svid":2,"az":277.0,"el":40.0,"ss":49.0,"used":true,"health":1},{"PRN":22,"gnssid":0,"svid":22,"az":337.0,"el":4.0,"ss":24.0,"used":false,"health":1},{"PRN":32,"gnssid":0,"svid":32,"az":114.0,"el":31.0,"ss":41.0,"used":true,"health":1},{"PRN":16,"gnssid":0,"svid":16,"az":188.0,"el":2.0,"ss":0.0,"used":false,"health":1},{"PRN":14,"gnssid":0,"svid":14,"az":322.0,"el":17.0,"ss":42.0,"used":true,"health":1},{"PRN":37,"gnssid":1,"svid":124,"az":0.0,"el":-9.0,"ss":0.0,"used":false,"health":1},{"PRN":24,"gnssid":0,"svid":24,"az":37.0,"el":1.0,"ss":0.0,"used":false,"health":1},{"PRN":8,"gnssid":0,"svid":8,"az":207.0,"el":73.0,"ss":49.0,"used":true,"health":1},{"PRN":10,"gnssid":0,"svid":10,"az":64.0,"el":54.0,"ss":49.0,"used":true,"health":1},{"PRN":23,"gnssid":0,"svid":23,"az":50.0,"el":20.0,"ss":33.0,"used":true,"health":1},{"PRN":21,"gnssid":0,"svid":21,"az":279.0,"el":58.0,"ss":47.0,"used":true,"health":1},{"PRN":27,"gnssid":0,"svid":27,"az":152.0,"el":45.0,"ss":24.0,"used":false,"health":1}]}
{"class":"TPV","device":"/dev/ttyACM0","mode":3,"time":"2024-06-04T12:17:30.501Z","leapseconds":18,"ept":0.005,"lat":52.315909819,"lon":10.561618301,"altHAE":120.3918,"altMSL":76.4932,"alt":76.4932,"epx":9.280,"epy":14.902,"epv":50.600,"track":307.5746,"magtrack":310.7941,"magvar":3.2,"speed":0.025,"climb":0.014,"eps":0.41,"epc":401.59,"ecefx":3841079.20,"ecefy":716175.56,"ecefz":5024463.51,"ecefvx":0.00,"ecefvy":-0.02,"ecefvz":0.02,"ecefpAcc":3.88,"ecefvAcc":0.41,"velN":0.015,"velE":-0.020,"velD":-0.014,"geoidSep":43.899,"eph":29.070,"sep":50.920}
{"class":"SKY","device":"/dev/ttyACM0","time":"2024-06-04T12:17:30.249Z","gdop":3.12,"hdop":1.53,"pdop":2.68,"tdop":1.59,"xdop":0.62,"ydop":0.99,"vdop":2.20,"uSat":8}
{"class":"SKY","device":"/dev/ttyACM0","time":"2024-06-04T12:17:30.249Z","gdop":3.12,"hdop":1.53,"pdop":2.68,"tdop":1.60,"xdop":0.62,"ydop":0.99,"vdop":2.20,"uSat":8}
{"class":"TPV","device":"/dev/ttyACM0","mode":3,"time":"2024-06-04T12:17:30.501Z","leapseconds":18,"ept":0.005,"lat":52.315909819,"lon":10.561618301,"altHAE":120.3918,"altMSL":76.4932,"alt":76.4932,"epx":9.280,"epy":14.902,"epv":50.600,"track":307.5746,"magtrack":310.7941,"magvar":3.2,"speed":0.025,"climb":0.014,"eps":118.27,"epc":401.59,"ecefx":3841079.20,"ecefy":716175.56,"ecefz":5024463.51,"ecefvx":0.00,"ecefvy":-0.02,"ecefvz":0.02,"ecefpAcc":3.88,"ecefvAcc":0.41,"velN":0.015,"velE":-0.020,"velD":-0.014,"geoidSep":43.899,"eph":29.070,"sep":50.920}
{"class":"SKY","device":"/dev/ttyACM0","time":"2024-06-04T12:17:30.501Z","gdop":3.12,"hdop":1.53,"pdop":2.68,"tdop":1.60,"xdop":0.62,"ydop":0.99,"vdop":2.20,"nSat":12,"uSat":7,"satellites":[{"PRN":2,"gnssid":0,"svid":2,"az":277.0,"el":40.0,"ss":49.0,"used":true,"health":1},{"PRN":22,"gnssid":0,"svid":22,"az":337.0,"el":4.0,"ss":24.0,"used":false,"health":1},{"PRN":32,"gnssid":0,"svid":32,"az":114.0,"el":31.0,"ss":41.0,"used":true,"health":1},{"PRN":16,"gnssid":0,"svid":16,"az":188.0,"el":2.0,"ss":0.0,"used":false,"health":1},{"PRN":14,"gnssid":0,"svid":14,"az":322.0,"el":17.0,"ss":42.0,"used":true,"health":1},{"PRN":37,"gnssid":1,"svid":124,"az":0.0,"el":-9.0,"ss":0.0,"used":false,"health":1},{"PRN":24,"gnssid":0,"svid":24,"az":37.0,"el":1.0,"ss":0.0,"used":false,"health":1},{"PRN":8,"gnssid":0,"svid":8,"az":207.0,"el":73.0,"ss":49.0,"used":true,"health":1},{"PRN":10,"gnssid":0,"svid":10,"az":64.0,"el":54.0,"ss":49.0,"used":true,"health":1},{"PRN":23,"gnssid":0,"svid":23,"az":50.0,"el":20.0,"ss":33.0,"used":true,"health":1},{"PRN":21,"gnssid":0,"svid":21,"az":279.0,"el":58.0,"ss":47.0,"used":true,"health":1},{"PRN":27,"gnssid":0,"svid":27,"az":152.0,"el":45.0,"ss":24.0,"used":false,"health":1}]}
{"class":"TPV","device":"/dev/ttyACM0","mode":3,"time":"2024-06-04T12:17:30.749Z","leapseconds":18,"ept":0.005,"lat":52.315909775,"lon":10.561617986,"altHAE":120.3956,"altMSL":76.4970,"alt":76.4970,"epx":9.280,"epy":14.902,"epv":50.600,"track":285.3978,"magtrack":288.6172,"magvar":3.2,"speed":0.083,"climb":0.021,"eps":0.41,"epc":408.06,"ecefx":3841079.21,"ecefy":716175.54,"ecefz":5024463.51,"ecefvx":0.01,"ecefvy":-0.08,"ecefvz":0.03,"ecefpAcc":3.88,"ecefvAcc":0.41,"velN":0.022,"velE":-0.080,"velD":-0.021,"geoidSep":43.899,"eph":29.070,"sep":50.920}
{"class":"SKY","device":"/dev/ttyACM0","time":"2024-06-04T12:17:30.501Z","gdop":3.12,"hdop":1.53,"pdop":2.68,"tdop":1.60,"xdop":0.62,"ydop":0.99,"vdop":2.20,"uSat":8}
{"class":"SKY","device":"/dev/ttyACM0","time":"2024-06-04T12:17:30.501Z","gdop":3.12,"hdop":1.53,"pdop":2.68,"tdop":1.60,"xdop":0.62,"ydop":0.99,"vdop":2.20,"uSat":8}
{"class":"TPV","device":"/dev/ttyACM0","mode":3,"time":"2024-06-04T12:17:30.749Z","leapseconds":18,"ept":0.005,"lat":52.315909775,"lon":10.561617986,"altHAE":120.3956,"altMSL":76.4970,"alt":76.4970,"epx":9.280,"epy":14.902,"epv":50.600,"track":285.3978,"magtrack":288.6172,"magvar":3.2,"speed":0.083,"climb":0.021,"eps":120.18,"epc":408.06,"ecefx":3841079.21,"ecefy":716175.54,"ecefz":5024463.51,"ecefvx":0.01,"ecefvy":-0.08,"ecefvz":0.03,"ecefpAcc":3.88,"ecefvAcc":0.41,"velN":0.022,"velE":-0.080,"velD":-0.021,"geoidSep":43.899,"eph":29.070,"sep":50.920}
{"class":"SKY","device":"/dev/ttyACM0","time":"2024-06-04T12:17:30.749Z","gdop":3.12,"hdop":1.53,"pdop":2.68,"tdop":1.60,"xdop":0.62,"ydop":0.99,"vdop":2.20,"nSat":12,"uSat":7,"satellites":[{"PRN":2,"gnssid":0,"svid":2,"az":277.0,"el":40.0,"ss":49.0,"used":true,"health":1},{"PRN":22,"gnssid":0,"svid":22,"az":337.0,"el":4.0,"ss":23.0,"used":false,"health":1},{"PRN":32,"gnssid":0,"svid":32,"az":114.0,"el":31.0,"ss":41.0,"used":true,"health":1},{"PRN":16,"gnssid":0,"svid":16,"az":188.0,"el":2.0,"ss":0.0,"used":false,"health":1},{"PRN":14,"gnssid":0,"svid":14,"az":322.0,"el":17.0,"ss":42.0,"used":true,"health":1},{"PRN":37,"gnssid":1,"svid":124,"az":0.0,"el":-9.0,"ss":0.0,"used":false,"health":1},{"PRN":24,"gnssid":0,"svid":24,"az":37.0,"el":1.0,"ss":0.0,"used":false,"health":1},{"PRN":8,"gnssid":0,"svid":8,"az":207.0,"el":73.0,"ss":49.0,"used":true,"health":1},{"PRN":10,"gnssid":0,"svid":10,"az":64.0,"el":54.0,"ss":49.0,"used":true,"health":1},{"PRN":23,"gnssid":0,"svid":23,"az":50.0,"el":20.0,"ss":33.0,"used":true,"health":1},{"PRN":21,"gnssid":0,"svid":21,"az":279.0,"el":58.0,"ss":47.0,"used":true,"health":1},{"PRN":27,"gnssid":0,"svid":27,"az":152.0,"el":45.0,"ss":29.0,"used":false,"health":1}]}
{"class":"TPV","device":"/dev/ttyACM0","mode":3,"time":"2024-06-04T12:17:31.001Z","leapseconds":18,"ept":0.005,"lat":52.315909843,"lon":10.561617842,"altHAE":120.4024,"altMSL":76.5038,"alt":76.5038,"epx":9.280,"epy":14.902,"epv":50.600,"track":289.4072,"magtrack":292.6266,"magvar":3.2,"speed":0.117,"climb":0.033,"eps":0.41,"epc":401.59,"ecefx":3841079.21,"ecefy":716175.53,"ecefz":5024463.52,"ecefvx":0.01,"ecefvy":-0.11,"ecefvz":0.05,"ecefpAcc":3.87,"ecefvAcc":0.41,"velN":0.039,"velE":-0.110,"velD":-0.033,"geoidSep":43.899,"eph":29.070,"sep":50.920}
{"class":"SKY","device":"/dev/ttyACM0","time":"2024-06-04T12:17:30.749Z","gdop":3.12,"hdop":1.53,"pdop":2.68,"tdop":1.60,"xdop":0.62,"ydop":0.99,"vdop":2.20,"uSat":8}
{"class":"SKY","device":"/dev/ttyACM0","time":"2024-06-04T12:17:30.749Z","gdop":3.12,"hdop":1.53,"pdop":2.68,"tdop":1.60,"xdop":0.62,"ydop":0.99,"vdop":2.20,"uSat":8}
{"class":"TPV","device":"/dev/ttyACM0","mode":3,"time":"2024-06-04T12:17:31.001Z","leapseconds":18,"ept":0.005,"lat":52.315909843,"lon":10.561617842,"altHAE":120.4024,"altMSL":76.5038,"alt":76.5038,"epx":9.280,"epy":14.902,"epv":50.600,"track":289.4072,"magtrack":292.6266,"magvar":3.2,"speed":0.117,"climb":0.033,"eps":118.27,"epc":401.59,"ecefx":3841079.21,"ecefy":716175.53,"ecefz":5024463.52,"ecefvx":0.01,"ecefvy":-0.11,"ecefvz":0.05,"ecefpAcc":3.87,"ecefvAcc":0.41,"velN":0.039,"velE":-0.110,"velD":-0.033,"geoidSep":43.899,"eph":29.070,"sep":50.920}
{"class":"SKY","device":"/dev/ttyACM0","time":"2024-06-04T12:17:31.001Z","gdop":3.12,"hdop":1.53,"pdop":2.68,"tdop":1.60,"xdop":0.62,"ydop":0.99,"vdop":2.20,"nSat":12,"uSat":7,"satellites":[{"PRN":2,"gnssid":0,"svid":2,"az":277.0,"el":40.0,"ss":49.0,"used":true,"health":1},{"PRN":22,"gnssid":0,"svid":22,"az":337.0,"el":4.0,"ss":23.0,"used":false,"health":1},{"PRN":32,"gnssid":0,"svid":32,"az":114.0,"el":31.0,"ss":42.0,"used":true,"health":1},{"PRN":16,"gnssid":0,"svid":16,"az":188.0,"el":2.0,"ss":0.0,"used":false,"health":1},{"PRN":14,"gnssid":0,"svid":14,"az":322.0,"el":17.0,"ss":41.0,"used":true,"health":1},{"PRN":37,"gnssid":1,"svid":124,"az":0.0,"el":-9.0,"ss":0.0,"used":false,"health":1},{"PRN":24,"gnssid":0,"svid":24,"az":37.0,"el":1.0,"ss":0.0,"used":false,"health":1},{"PRN":8,"gnssid":0,"svid":8,"az":207.0,"el":73.0,"ss":50.0,"used":true,"health":1},{"PRN":10,"gnssid":0,"svid":10,"az":64.0,"el":54.0,"ss":48.0,"used":true,"health":1},{"PRN":23,"gnssid":0,"svid":23,"az":50.0,"el":20.0,"ss":32.0,"used":true,"health":1},{"PRN":21,"gnssid":0,"svid":21,"az":279.0,"el":58.0,"ss":48.0,"used":true,"health":1},{"PRN":27,"gnssid":0,"svid":27,"az":152.0,"el":45.0,"ss":32.0,"used":false,"health":1}]}
{"class":"TPV","device":"/dev/ttyACM0","mode":3,"time":"2024-06-04T12:17:31.249Z","leapseconds":18,"ept":0.005,"lat":52.315909858,"lon":10.561617868,"altHAE":120.3885,"altMSL":76.4899,"alt":76.4899,"epx":9.280,"epy":14.902,"epv":50.600,"track":85.0466,"magtrack":88.2660,"magvar":3.2,"speed":0.018,"climb":0.024,"eps":0.41,"epc":408.06,"ecefx":3841079.20,"ecefy":716175.53,"ecefz":5024463.51,"ecefvx":0.01,"ecefvy":0.02,"ecefvz":0.02,"ecefpAcc":3.87,"ecefvAcc":0.41,"velN":0.002,"velE":0.018,"velD":-0.024,"geoidSep":43.899,"eph":29.070,"sep":45.600}
{"class":"SKY","device":"/dev/ttyACM0","time":"2024-06-04T12:17:31.001Z","gdop":3.12,"hdop":1.53,"pdop":2.40,"tdop":1.60,"xdop":0.62,"ydop":0.99,"vdop":2.20,"uSat":8}
{"class":"SKY","device":"/dev/ttyACM0","time":"2024-06-04T12:17:31.001Z","gdop":2.78,"hdop":1.25,"pdop":2.40,"tdop":1.41,"xdop":0.62,"ydop":0.99,"vdop":2.05,"uSat":8}
{"class":"TPV","device":"/dev/ttyACM0","mode":3,"time":"2024-06-04T12:17:31.249Z","leapseconds":18,"ept":0.005,"lat":52.315909858,"lon":10.561617868,"altHAE":120.3885,"altMSL":76.4899,"alt":76.4899,"epx":9.280,"epy":14.902,"epv":50.600,"track":85.0466,"magtrack":88.2660,"magvar":3.2,"speed":0.018,"climb":0.024,"eps":120.18,"epc":408.06,"ecefx":3841079.20,"ecefy":716175.53,"ecefz":5024463.51,"ecefvx":0.01,"ecefvy":0.02,"ecefvz":0.02,"ecefpAcc":3.87,"ecefvAcc":0.41,"velN":0.002,"velE":0.018,"velD":-0.024,"geoidSep":43.899,"eph":29.070,"sep":45.600}
{"class":"SKY","device":"/dev/ttyACM0","time":"2024-06-04T12:17:31.249Z","gdop":2.78,"hdop":1.25,"pdop":2.40,"tdop":1.41,"xdop":0.62,"ydop":0.99,"vdop":2.05,"nSat":12,"uSat":8,"satellites":[{"PRN":2,"gnssid":0,"svid":2,"az":277.0,"el":40.0,"ss":49.0,"used":true,"health":1},{"PRN":22,"gnssid":0,"svid":22,"az":337.0,"el":4.0,"ss":23.0,"used":false,"health":1},{"PRN":32,"gnssid":0,"svid":32,"az":114.0,"el":31.0,"ss":42.0,"used":true,"health":1},{"PRN":16,"gnssid":0,"svid":16,"az":188.0,"el":2.0,"ss":0.0,"used":false,"health":1},{"PRN":14,"gnssid":0,"svid":14,"az":322.0,"el":17.0,"ss":41.0,"used":true,"health":1},{"PRN":37,"gnssid":1,"svid":124,"az":0.0,"el":-9.0,"ss":0.0,"used":false,"health":1},{"PRN":24,"gnssid":0,"svid":24,"az":37.0,"el":1.0,"ss":0.0,"used":false,"health":1},{"PRN":8,"gnssid":0,"svid":8,"az":207.0,"el":73.0,"ss":50.0,"used":true,"health":1},{"PRN":10,"gnssid":0,"svid":10,"az":64.0,"el":54.0,"ss":48.0,"used":true,"health":1},{"PRN":23,"gnssid":0,"svid":23,"az":50.0,"el":20.0,"ss":32.0,"used":true,"health":1},{"PRN":21,"gnssid":0,"svid":21,"az":279.0,"el":58.0,"ss":48.0,"used":true,"health":1},{"PRN":27,"gnssid":0,"svid":27,"az":152.0,"el":45.0,"ss":37.0,"used":true,"health":1}]}
{"class":"TPV","device":"/dev/ttyACM0","mode":3,"time":"2024-06-04T12:17:31.501Z","leapseconds":18,"ept":0.005,"lat":52.315910578,"lon":10.561617976,"altHAE":120.4277,"altMSL":76.5291,"alt":76.5291,"epx":9.280,"epy":14.902,"epv":47.150,"track":333.5841,"magtrack":336.8035,"magvar":3.2,"speed":0.022,"climb":0.023,"eps":0.41,"epc":387.90,"ecefx":3841079.16,"ecefy":716175.53,"ecefz":5024463.59,"ecefvx":0.00,"ecefvy":-0.01,"ecefvz":0.03,"ecefpAcc":3.86,"ecefvAcc":0.41,"velN":0.020,"velE":-0.010,"velD":-0.023,"geoidSep":43.899,"eph":23.750,"sep":45.600}
{"class":"SKY","device":"/dev/ttyACM0","time":"2024-06-04T12:17:31.249Z","gdop":2.78,"hdop":1.25,"pdop":2.40,"tdop":1.41,"xdop":0.62,"ydop":0.99,"vdop":2.05,"uSat":8}
{"class":"SKY","device":"/dev/ttyACM0","time":"2024-06-04T12:17:31.249Z","gdop":2.78,"hdop":1.25,"pdop":2.40,"tdop":1.41,"xdop":0.62,"ydop":0.99,"vdop":2.05,"uSat":8}
{"class":"TPV","device":"/dev/ttyACM0","mode":3,"time":"2024-06-04T12:17:31.501Z","leapseconds":18,"ept":0.005,"lat":52.315910578,"lon":10.561617976,"altHAE":120.4277,"altMSL":76.5291,"alt":76.5291,"epx":9.280,"epy":14.902,"epv":47.150,"track":333.5841,"magtrack":336.8035,"magvar":3.2,"speed":0.022,"climb":0.023,"eps":118.27,"epc":387.90,"ecefx":3841079.16,"ecefy":716175.53,"ecefz":5024463.59,"ecefvx":0.00,"ecefvy":-0.01,"ecefvz":0.03,"ecefpAcc":3.86,"ecefvAcc":0.41,"velN":0.020,"velE":-0.010,"velD":-0.023,"geoidSep":43.899,"eph":23.750,"sep":45.600}
{"class":"SKY","device":"/dev/ttyACM0","time":"2024-06-04T12:17:31.501Z","gdop":2.78,"hdop":1.25,"pdop":2.40,"tdop":1.41,"xdop":0.62,"ydop":0.99,"vdop":2.05,"nSat":12,"uSat":8,"satellites":[{"PRN":2,"gnssid":0,"svid":2,"az":277.0,"el":40.0,"ss":49.0,"used":true,"health":1},{"PRN":22,"gnssid":0,"svid":22,"az":337.0,"el":4.0,"ss":24.0,"used":false,"health":1},{"PRN":32,"gnssid":0,"svid":32,"az":114.0,"el":31.0,"ss":41.0,"used":true,"health":1},{"PRN":16,"gnssid":0,"svid":16,"az":188.0,"el":2.0,"ss":0.0,"used":false,"health":1},{"PRN":14,"gnssid":0,"svid":14,"az":322.0,"el":17.0,"ss":41.0,"used":true,"health":1},{"PRN":39,"gnssid":1,"svid":126,"az":0.0,"el":-9.0,"ss":0.0,"used":false,"health":1},{"PRN":24,"gnssid":0,"svid":24,"az":37.0,"el":1.0,"ss":0.0,"used":false,"health":1},{"PRN":8,"gnssid":0,"svid":8,"az":207.0,"el":73.0,"ss":50.0,"used":true,"health":1},{"PRN":10,"gnssid":0,"svid":10,"az":64.0,"el":54.0,"ss":48.0,"used":true,"health":1},{"PRN":23,"gnssid":0,"svid":23,"az":50.0,"el":20.0,"ss":32.0,"used":true,"health":1},{"PRN":21,"gnssid":0,"svid":21,"az":279.0,"el":58.0,"ss":48.0,"used":true,"health":1},{"PRN":27,"gnssid":0,"svid":27,"az":152.0,"el":45.0,"ss":38.0,"used":true,"health":1}]}
{"class":"TPV","device":"/dev/ttyACM0","mode":3,"time":"2024-06-04T12:17:31.749Z","leapseconds":18,"ept":0.005,"lat":52.315911477,"lon":10.561618110,"altHAE":120.4768,"altMSL":76.5782,"alt":76.5782,"epx":9.280,"epy":14.902,"epv":47.150,"track":111.2950,"magtrack":114.5144,"magvar":3.2,"speed":0.009,"climb":0.015,"eps":0.41,"epc":380.24,"ecefx":3841079.11,"ecefy":716175.53,"ecefz":5024463.69,"ecefvx":0.01,"ecefvy":0.01,"ecefvz":0.01,"ecefpAcc":3.86,"ecefvAcc":0.41,"velN":-0.003,"velE":0.008,"velD":-0.015,"geoidSep":43.899,"eph":23.750,"sep":45.600}
{"class":"SKY","device":"/dev/ttyACM0","time":"2024-06-04T12:17:31.501Z","gdop":2.78,"hdop":1.25,"pdop":2.40,"tdop":1.41,"xdop":0.62,"ydop":0.99,"vdop":2.05,"uSat":8}
{"class":"SKY","device":"/dev/ttyACM0","time":"2024-06-04T12:17:31.501Z","gdop":2.78,"hdop":1.25,"pdop":2.40,"tdop":1.41,"xdop":0.62,"ydop":0.99,"vdop":2.05,"uSat":8}
{"class":"TPV","device":"/dev/ttyACM0","mode":3,"time":"2024-06-04T12:17:31.749Z","leapseconds":18,"ept":0.005,"lat":52.315911477,"lon":10.561618110,"altHAE":120.4768,"altMSL":76.5782,"alt":76.5782,"epx":9.280,"epy":14.902,"epv":47.150,"track":111.2950,"magtrack":114.5144,"magvar":3.2,"speed":0.009,"climb":0.015,"eps":120.18,"epc":380.24,"ecefx":3841079.11,"ecefy":716175.53,"ecefz":5024463.69,"ecefvx":0.01,"ecefvy":0.01,"ecefvz":0.01,"ecefpAcc":3.86,"ecefvAcc":0.41,"velN":-0.003,"velE":0.008,"velD":-0.015,"geoidSep":43.899,"eph":23.750,"sep":45.600}
{"class":"SKY","device":"/dev/ttyACM0","time":"2024-06-04T12:17:31.749Z","gdop":2.78,"hdop":1.25,"pdop":2.40,"tdop":1.41,"xdop":0.62,"ydop":0.99,"vdop":2.05,"nSat":12,"uSat":8,"satellites":[{"PRN":2,"gnssid":0,"svid":2,"az":277.0,"el":40.0,"ss":49.0,"used":true,"health":1},{"PRN":22,"gnssid":0,"svid":22,"az":337.0,"el":4.0,"ss":24.0,"used":false,"health":1},{"PRN":32,"gnssid":0,"svid":32,"az":114.0,"el":31.0,"ss":41.0,"used":true,"health":1},{"PRN":16,"gnssid":0,"svid":16,"az":188.0,"el":2.0,"ss":0.0,"used":false,"health":1},{"PRN":14,"gnssid":0,"svid":14,"az":322.0,"el":17.0,"ss":41.0,"used":true,"health":1},{"PRN":39,"gnssid":1,"svid":126,"az":0.0,"el":-9.0,"ss":0.0,"used":false,"health":1},{"PRN":24,"gnssid":0,"svid":24,"az":37.0,"el":1.0,"ss":0.0,"used":false,"health":1},{"PRN":8,"gnssid":0,"svid":8,"az":207.0,"el":73.0,"ss":50.0,"used":true,"health":1},{"PRN":10,"gnssid":0,"svid":10,"az":64.0,"el":54.0,"ss":48.0,"used":true,"health":1},{"PRN":23,"gnssid":0,"svid":23,"az":50.0,"el":20.0,"ss":32.0,"used":true,"health":1},{"PRN":21,"gnssid":0,"svid":21,"az":279.0,"el":58.0,"ss":48.0,"used":true,"health":1},{"PRN":27,"gnssid":0,"svid":27,"az":152.0,"el":45.0,"ss":38.0,"used":true,"health":1}]}
{"class":"TPV","device":"/dev/ttyACM0","mode":3,"time":"2024-06-04T12:17:32.001Z","leapseconds":18,"ept":0.005,"lat":52.315912417,"lon":10.561618389,"altHAE":120.5350,"altMSL":76.6364,"alt":76.6364,"epx":9.280,"epy":14.902,"epv":47.150,"track":339.2174,"magtrack":342.4368,"magvar":3.2,"speed":0.028,"climb":0.031,"eps":0.41,"epc":374.21,"ecefx":3841079.06,"ecefy":716175.54,"ecefz":5024463.80,"ecefvx":0.00,"ecefvy":-0.01,"ecefvz":0.04,"ecefpAcc":3.85,"ecefvAcc":0.41,"velN":0.026,"velE":-0.010,"velD":-0.031,"geoidSep":43.899,"eph":23.750,"sep":45.600}
{"class":"SKY","device":"/dev/ttyACM0","time":"2024-06-04T12:17:31.749Z","gdop":2.78,"hdop":1.25,"pdop":2.40,"tdop":1.41,"xdop":0.62,"ydop":0.99,"vdop":2.05,"uSat":8}
{"class":"SKY","device":"/dev/ttyACM0","time":"2024-06-04T12:17:31.749Z","gdop":2.78,"hdop":1.25,"pdop":2.40,"tdop":1.41,"xdop":0.62,"ydop":0.99,"vdop":2.05,"uSat":8}
{"class":"TPV","device":"/dev/ttyACM0","mode":3,"time":"2024-06-04T12:17:32.001Z","leapseconds":18,"ept":0.005,"lat":52.315912417,"lon":10.561618389,"altHAE":120.5350,"altMSL":76.6364,"alt":76.6364,"epx":9.280,"epy":14.902,"epv":47.150,"track":339.2174,"magtrack":342.4368,"magvar":3.2,"speed":0.028,"climb":0.031,"eps":118.27,"epc":374.21,"ecefx":3841079.06,"ecefy":716175.54,"ecefz":5024463.80,"ecefvx":0.00,"ecefvy":-0.01,"ecefvz":0.04,"ecefpAcc":3.85,"ecefvAcc":0.41,"velN":0.026,"velE":-0.010,"velD":-0.031,"geoidSep":43.899,"eph":23.750,"sep":45.600}
{"class":"SKY","device":"/dev/ttyACM0","time":"2024-06-04T12:17:32.001Z","gdop":2.78,"hdop":1.25,"pdop":2.40,"tdop":1.41,"xdop":0.62,"ydop":0.99,"vdop":2.05,"nSat":12,"uSat":8,"satellites":[{"PRN":2,"gnssid":0,"svid":2,"az":277.0,"el":40.0,"ss":49.0,"used":true,"health":1},{"PRN":22,"gnssid":0,"svid":22,"az":337.0,"el":4.0,"ss":24.0,"used":false,"health":1},{"PRN":32,"gnssid":0,"svid":32,"az":114.0,"el":31.0,"ss":41.0,"used":true,"health":1},{"PRN":16,"gnssid":0,"svid":16,"az":188.0,"el":2.0,"ss":0.0,"used":false,"health":1},{"PRN":14,"gnssid":0,"svid":14,"az":322.0,"el":17.0,"ss":41.0,"used":true,"health":1},{"PRN":39,"gnssid":1,"svid":126,"az":0.0,"el":-9.0,"ss":0.0,"used":false,"health":1},{"PRN":24,"gnssid":0,"svid":24,"az":37.0,"el":1.0,"ss":0.0,"used":false,"health":1},{"PRN":8,"gnssid":0,"svid":8,"az":207.0,"el":73.0,"ss":50.0,"used":true,"health":1},{"PRN":10,"gnssid":0,"svid":10,"az":64.0,"el":54.0,"ss":48.0,"used":true,"health":1},{"PRN":23,"gnssid":0,"svid":23,"az":50.0,"el":20.0,"ss":32.0,"used":true,"health":1},{"PRN":21,"gnssid":0,"svid":21,"az":279.0,"el":58.0,"ss":48.0,"used":true,"health":1},{"PRN":27,"gnssid":0,"svid":27,"az":152.0,"el":45.0,"ss":38.0,"used":true,"health":1}]}
{"class":"TPV","device":"/dev/ttyACM0","mode":3,"time":"2024-06-04T12:17:32.249Z","leapseconds":18,"ept":0.005,"lat":52.315913426,"lon":10.561618523,"altHAE":120.5999,"altMSL":76.7013,"alt":76.7013,"epx":9.280,"epy":14.902,"epv":47.150,"track":69.4653,"magtrack":72.6847,"magvar":3.2,"speed":0.009,"climb":0.023,"eps":0.41,"epc":380.24,"ecefx":3841079.01,"ecefy":716175.54,"ecefz":5024463.92,"ecefvx":0.01,"ecefvy":0.01,"ecefvz":0.02,"ecefpAcc":3.85,"ecefvAcc":0.41,"velN":0.003,"velE":0.008,"velD":-0.023,"geoidSep":43.899,"eph":23.750,"sep":45.600}
{"class":"SKY","device":"/dev/ttyACM0","time":"2024-06-04T12:17:32.001Z","gdop":2.78,"hdop":1.25,"pdop":2.40,"tdop":1.41,"xdop":0.62,"ydop":0.99,"vdop":2.05,"uSat":8}
{"class":"SKY","device":"/dev/ttyACM0","time":"2024-06-04T12:17:32.001Z","gdop":2.78,"hdop":1.25,"pdop":2.40,"tdop":1.41,"xdop":0.62,"ydop":0.99,"vdop":2.05,"uSat":8}
{"class":"TPV","device":"/dev/ttyACM0","mode":3,"time":"2024-06-04T12:17:32.249Z","leapseconds":18,"ept":0.005,"lat":52.315913426,"lon":10.561618523,"altHAE":120.5999,"altMSL":76.7013,"alt":76.7013,"epx":9.280,"epy":14.902,"epv":47.150,"track":69.4653,"magtrack":72.6847,"magvar":3.2,"speed":0.009,"climb":0.023,"eps":120.18,"epc":380.24,"ecefx":3841079.01,"ecefy":716175.54,"ecefz":5024463.92,"ecefvx":0.01,"ecefvy":0.01,"ecefvz":0.02,"ecefpAcc":3.85,"ecefvAcc":0.41,"velN":0.003,"velE":0.008,"velD":-0.023,"geoidSep":43.899,"eph":23.750,"sep":45.600}
{"class":"SKY","device":"/dev/ttyACM0","time":"2024-06-04T12:17:32.249Z","gdop":2.78,"hdop":1.25,"pdop":2.40,"tdop":1.41,"xdop":0.62,"ydop":0.99,"vdop":2.05,"nSat":12,"uSat":8,"satellites":[{"PRN":2,"gnssid":0,"svid":2,"az":277.0,"el":40.0,"ss":49.0,"used":true,"health":1},{"PRN":22,"gnssid":0,"svid":22,"az":337.0,"el":4.0,"ss":24.0,"used":false,"health":1},{"PRN":32,"gnssid":0,"svid":32,"az":114.0,"el":31.0,"ss":41.0,"used":true,"health":1},{"PRN":16,"gnssid":0,"svid":16,"az":188.0,"el":2.0,"ss":0.0,"used":false,"health":1},{"PRN":14,"gnssid":0,"svid":14,"az":322.0,"el":17.0,"ss":41.0,"used":true,"health":1},{"PRN":39,"gnssid":1,"svid":126,"az":0.0,"el":-9.0,"ss":0.0,"used":false,"health":1},{"PRN":24,"gnssid":0,"svid":24,"az":37.0,"el":1.0,"ss":0.0,"used":false,"health":1},{"PRN":8,"gnssid":0,"svid":8,"az":207.0,"el":73.0,"ss":50.0,"used":true,"health":1},{"PRN":10,"gnssid":0,"svid":10,"az":64.0,"el":54.0,"ss":48.0,"used":true,"health":1},{"PRN":23,"gnssid":0,"svid":23,"az":50.0,"el":20.0,"ss":32.0,"used":true,"health":1},{"PRN":21,"gnssid":0,"svid":21,"az":279.0,"el":58.0,"ss":48.0,"used":true,"health":1},{"PRN":27,"gnssid":0,"svid":27,"az":152.0,"el":45.0,"ss":39.0,"used":true,"health":1}]}
{"class":"TPV","device":"/dev/ttyACM0","mode":3,"time":"2024-06-04T12:17:32.501Z","leapseconds":18,"ept":0.005,"lat":52.315914174,"lon":10.561618919,"altHAE":120.6493,"altMSL":76.7507,"alt":76.7507,"epx":9.280,"epy":14.902,"epv":47.150,"track":107.6241,"magtrack":110.8435,"magvar":3.2,"speed":0.050,"climb":0.012,"eps":0.40,"epc":374.21,"ecefx":3841078.97,"ecefy":716175.56,"ecefz":5024464.01,"ecefvx":0.01,"ecefvy":0.05,"ecefvz":0.00,"ecefpAcc":3.84,"ecefvAcc":0.40,"velN":-0.015,"velE":0.047,"velD":-0.012,"geoidSep":43.899,"eph":23.750,"sep":45.600}
{"class":"SKY","device":"/dev/ttyACM0","time":"2024-06-04T12:17:32.249Z","gdop":2.78,"hdop":1.25,"pdop":2.40,"tdop":1.41,"xdop":0.62,"ydop":0.99,"vdop":2.05,"uSat":8}
{"class":"SKY","device":"/dev/ttyACM0","time":"2024-06-04T12:17:32.249Z","gdop":2.78,"hdop":1.25,"pdop":2.40,"tdop":1.41,"xdop":0.62,"ydop":0.99,"vdop":2.05,"uSat":8}
{"class":"TPV","device":"/dev/ttyACM0","mode":3,"time":"2024-06-04T12:17:32.501Z","leapseconds":18,"ept":0.005,"lat":52.315914174,"lon":10.561618919,"altHAE":120.6493,"altMSL":76.7507,"alt":76.7507,"epx":9.280,"epy":14.902,"epv":47.150,"track":107.6241,"magtrack":110.8435,"magvar":3.2,"speed":0.050,"climb":0.012,"eps":118.27,"epc":374.21,"ecefx":3841078.97,"ecefy":716175.56,"ecefz":5024464.01,"ecefvx":0.01,"ecefvy":0.05,"ecefvz":0.00,"ecefpAcc":3.84,"ecefvAcc":0.40,"velN":-0.015,"velE":0.047,"velD":-0.012,"geoidSep":43.899,"eph":23.750,"sep":45.600}
{"class":"SKY","device":"/dev/ttyACM0","time":"2024-06-04T12:17:32.501Z","gdop":2.78,"hdop":1.25,"pdop":2.40,"tdop":1.41,"xdop":0.62,"ydop":0.99,"vdop":2.05,"nSat":12,"uSat":8,"satellites":[{"PRN":2,"gnssid":0,"svid":2,"az":277.0,"el":40.0,"ss":49.0,"used":true,"health":1},{"PRN":22,"gnssid":0,"svid":22,"az":337.0,"el":4.0,"ss":25.0,"used":false,"health":1},{"PRN":32,"gnssid":0,"svid":32,"az":114.0,"el":31.0,"ss":41.0,"used":true,"health":1},{"PRN":16,"gnssid":0,"svid":16,"az":188.0,"el":2.0,"ss":0.0,"used":false,"health":1},{"PRN":14,"gnssid":0,"svid":14,"az":322.0,"el":17.0,"ss":41.0,"used":true,"health":1},{"PRN":39,"gnssid":1,"svid":126,"az":0.0,"el":-9.0,"ss":0.0,"used":false,"health":1},{"PRN":24,"gnssid":0,"svid":24,"az":37.0,"el":1.0,"ss":0.0,"used":false,"health":1},{"PRN":8,"gnssid":0,"svid":8,"az":207.0,"el":73.0,"ss":50.0,"used":true,"health":1},{"PRN":10,"gnssid":0,"svid":10,"az":64.0,"el":54.0,"ss":48.0,"used":true,"health":1},{"PRN":23,"gnssid":0,"svid":23,"az":50.0,"el":20.0,"ss":32.0,"used":true,"health":1},{"PRN":21,"gnssid":0,"svid":21,"az":279.0,"el":58.0,"ss":48.0,"used":true,"health":1},{"PRN":27,"gnssid":0,"svid":27,"az":152.0,"el":45.0,"ss":38.0,"used":true,"health":1}]}
{"class":"TPV","device":"/dev/ttyACM0","mode":3,"time":"2024-06-04T12:17:32.749Z","leapseconds":18,"ept":0.005,"lat":52.315914674,"lon":10.561619432,"altHAE":120.6821,"altMSL":76.7835,"alt":76.7835,"epx":9.280,"epy":14.902,"epv":47.150,"track":92.1932,"magtrack":95.4126,"magvar":3.2,"speed":0.130,"climb":0.016,"eps":0.40,"epc":380.24,"ecefx":3841078.94,"ecefy":716175.59,"ecefz":5024464.07,"ecefvx":-0.01,"ecefvy":0.13,"ecefvz":0.01,"ecefpAcc":3.84,"ecefvAcc":0.40,"velN":-0.005,"velE":0.130,"velD":-0.016,"geoidSep":43.899,"eph":23.750,"sep":45.600}
{"class":"SKY","device":"/dev/ttyACM0","time":"2024-06-04T12:17:32.501Z","gdop":2.78,"hdop":1.25,"pdop":2.40,"tdop":1.41,"xdop":0.62,"ydop":0.99,"vdop":2.05,"uSat":8}
{"class":"SKY","device":"/dev/ttyACM0","time":"2024-06-04T12:17:32.501Z","gdop":2.78,"hdop":1.25,"pdop":2.40,"tdop":1.41,"xdop":0.62,"ydop":0.99,"vdop":2.05,"uSat":8}
{"class":"TPV","device":"/dev/ttyACM0","mode":3,"time":"2024-06-04T12:17:32.749Z","leapseconds":18,"ept":0.005,"lat":52.315914674,"lon":10.561619432,"altHAE":120.6821,"altMSL":76.7835,"alt":76.7835,"epx":9.280,"epy":14.902,"epv":47.150,"track":92.1932,"magtrack":95.4126,"magvar":3.2,"speed":0.130,"climb":0.016,"eps":120.18,"epc":380.24,"ecefx":3841078.94,"ecefy":716175.59,"ecefz":5024464.07,"ecefvx":-0.01,"ecefvy":0.13,"ecefvz":0.01,"ecefpAcc":3.84,"ecefvAcc":0.40,"velN":-0.005,"velE":0.130,"velD":-0.016,"geoidSep":43.899,"eph":23.750,"sep":45.600}
{"class":"SKY","device":"/dev/ttyACM0","time":"2024-06-04T12:17:32.749Z","gdop":2.78,"hdop":1.25,"pdop":2.40,"tdop":1.41,"xdop":0.62,"ydop":0.99,"vdop":2.05,"nSat":12,"uSat":8,"satellites":[{"PRN":2,"gnssid":0,"svid":2,"az":277.0,"el":40.0,"ss":49.0,"used":true,"health":1},{"PRN":22,"gnssid":0,"svid":22,"az":337.0,"el":4.0,"ss":25.0,"used":false,"health":1},{"PRN":32,"gnssid":0,"svid":32,"az":114.0,"el":31.0,"ss":41.0,"used":true,"health":1},{"PRN":16,"gnssid":0,"svid":16,"az":188.0,"el":2.0,"ss":0.0,"used":false,"health":1},{"PRN":14,"gnssid":0,"svid":14,"az":322.0,"el":17.0,"ss":42.0,"used":true,"health":1},{"PRN":39,"gnssid":1,"svid":126,"az":0.0,"el":-9.0,"ss":0.0,"used":false,"health":1},{"PRN":24,"gnssid":0,"svid":24,"az":37.0,"el":1.0,"ss":0.0,"used":false,"health":1},{"PRN":8,"gnssid":0,"svid":8,"az":207.0,"el":73.0,"ss":50.0,"used":true,"health":1},{"PRN":10,"gnssid":0,"svid":10,"az":64.0,"el":54.0,"ss":49.0,"used":true,"health":1},{"PRN":23,"gnssid":0,"svid":23,"az":50.0,"el":20.0,"ss":33.0,"used":true,"health":1},{"PRN":21,"gnssid":0,"svid":21,"az":279.0,"el":58.0,"ss":48.0,"used":true,"health":1},{"PRN":27,"gnssid":0,"svid":27,"az":152.0,"el":45.0,"ss":36.0,"used":true,"health":1}]}
{"class":"TPV","device":"/dev/ttyACM0","mode":3,"time":"2024-06-04T12:17:33.001Z","leapseconds":18,"ept":0.005,"lat":52.315914861,"lon":10.561620378,"altHAE":120.6787,"altMSL":76.7801,"alt":76.7801,"epx":9.280,"epy":14.902,"epv":47.150,"track":103.3001,"magtrack":106.5195,"magvar":3.2,"speed":0.283,"climb":0.000,"eps":0.40,"epc":374.21,"ecefx":3841078.91,"ecefy":716175.65,"ecefz":5024464.08,"ecefvx":0.00,"ecefvy":0.28,"ecefvz":-0.04,"ecefpAcc":3.83,"ecefvAcc":0.40,"velN":-0.065,"velE":0.275,"velD":0.000,"geoidSep":43.899,"eph":23.750,"sep":45.600}
{"class":"SKY","device":"/dev/ttyACM0","time":"2024-06-04T12:17:32.749Z","gdop":2.78,"hdop":1.25,"pdop":2.40,"tdop":1.41,"xdop":0.62,"ydop":0.99,"vdop":2.05,"uSat":8}
{"class":"SKY","device":"/dev/ttyACM0","time":"2024-06-04T12:17:32.749Z","gdop":2.78,"hdop":1.25,"pdop":2.40,"tdop":1.41,"xdop":0.62,"ydop":0.99,"vdop":2.05,"uSat":8}
{"class":"TPV","device":"/dev/ttyACM0","mode":3,"time":"2024-06-04T12:17:33.001Z","leapseconds":18,"ept":0.005,"lat":52.315914861,"lon":10.561620378,"altHAE":120.6787,"altMSL":76.7801,"alt":76.7801,"epx":9.280,"epy":14.902,"epv":47.150,"track":103.3001,"magtrack":106.5195,"magvar":3.2,"speed":0.283,"climb":0.000,"eps":118.27,"epc":374.21,"ecefx":3841078.91,"ecefy":716175.65,"ecefz":5024464.08,"ecefvx":0.00,"ecefvy":0.28,"ecefvz":-0.04,"ecefpAcc":3.83,"ecefvAcc":0.40,"velN":-0.065,"velE":0.275,"velD":0.000,"geoidSep":43.899,"eph":23.750,"sep":45.600}
{"class":"SKY","device":"/dev/ttyACM0","time":"2024-06-04T12:17:33.001Z","gdop":2.78,"hdop":1.25,"pdop":2.40,"tdop":1.41,"xdop":0.62,"ydop":0.99,"vdop":2.05,"nSat":12,"uSat":8,"satellites":[{"PRN":2,"gnssid":0,"svid":2,"az":277.0,"el":40.0,"ss":49.0,"used":true,"health":1},{"PRN":22,"gnssid":0,"svid":22,"az":337.0,"el":4.0,"ss":25.0,"used":false,"health":1},{"PRN":32,"gnssid":0,"svid":32,"az":114.0,"el":31.0,"ss":40.0,"used":true,"health":1},{"PRN":16,"gnssid":0,"svid":16,"az":188.0,"el":2.0,"ss":0.0,"used":false,"health":1},{"PRN":14,"gnssid":0,"svid":14,"az":322.0,"el":17.0,"ss":43.0,"used":true,"health":1},{"PRN":39,"gnssid":1,"svid":126,"az":0.0,"el":-9.0,"ss":0.0,"used":false,"health":1},{"PRN":24,"gnssid":0,"svid":24,"az":37.0,"el":1.0,"ss":0.0,"used":false,"health":1},{"PRN":8,"gnssid":0,"svid":8,"az":207.0,"el":73.0,"ss":49.0,"used":true,"health":1},{"PRN":10,"gnssid":0,"svid":10,"az":64.0,"el":54.0,"ss":49.0,"used":true,"health":1},{"PRN":23,"gnssid":0,"svid":23,"az":50.0,"el":20.0,"ss":33.0,"used":true,"health":1},{"PRN":21,"gnssid":0,"svid":21,"az":279.0,"el":58.0,"ss":48.0,"used":true,"health":1},{"PRN":27,"gnssid":0,"svid":27,"az":152.0,"el":45.0,"ss":34.0,"used":true,"health":1}]}
{"class":"TPV","device":"/dev/ttyACM0","mode":3,"time":"2024-06-04T12:17:33.249Z","leapseconds":18,"ept":0.005,"lat":52.315915293,"lon":10.561621675,"altHAE":120.7680,"altMSL":76.8694,"alt":76.8694,"epx":9.280,"epy":14.902,"epv":47.150,"track":111.2768,"magtrack":114.4962,"magvar":3.2,"speed":0.414,"climb":-0.010,"eps":0.37,"epc":380.24,"ecefx":3841078.91,"ecefy":716175.74,"ecefz":5024464.18,"ecefvx":0.04,"ecefvy":0.40,"ecefvz":-0.10,"ecefpAcc":3.83,"ecefvAcc":0.37,"velN":-0.150,"velE":0.386,"velD":0.010,"geoidSep":43.899,"eph":23.750,"sep":45.600}
{"class":"SKY","device":"/dev/ttyACM0","time":"2024-06-04T12:17:33.001Z","gdop":2.78,"hdop":1.25,"pdop":2.40,"tdop":1.41,"xdop":0.62,"ydop":0.99,"vdop":2.05,"uSat":8}
