{"class":"VERSION","release":"3.25","rev":"3.25","proto_major":3,"proto_minor":15}
{"class":"DEVICES","devices":[{"class":"DEVICE","path":"/dev/ttyACM0","driver":"u-blox","subtype":"SW 5.00    May 11 2006 14:40:17,HW 00040001","subtype1":"M4T1.2  May 11 2006 14:40:17","activated":"2024-06-04T12:22:46.138Z","flags":1,"native":1,"bps":57600,"parity":"N","stopbits":1,"cycle":1.00,"mincycle":0.02}]}
{"class":"WATCH","enable":true,"json":true,"nmea":false,"raw":0,"scaled":false,"timing":false,"split24":false,"pps":false}
{"class":"TPV","device":"/dev/ttyACM0","mode":3,"time":"2024-06-04T12:22:46.250Z","leapseconds":18,"ept":0.005,"lat":52.315813821,"lon":10.561696827,"altHAE":122.8561,"altMSL":78.9574,"alt":78.9574,"epx":9.280,"epy":14.902,"epv":43.240,"track":21.2094,"magtrack":24.4289,"magvar":3.2,"speed":0.010,"climb":-0.020,"eps":0.49,"epc":406.15,"ecefx":3841088.01,"ecefy":716182.65,"ecefz":5024458.93,"ecefvx":-0.02,"ecefvy":0.00,"ecefvz":-0.01,"ecefpAcc":3.98,"ecefvAcc":0.49,"velN":0.009,"velE":0.004,"velD":0.020,"geoidSep":43.899,"eph":23.940,"sep":42.940}
{"class":"SKY","device":"/dev/ttyACM0","time":"2024-06-04T12:22:45.998Z","gdop":2.61,"hdop":1.26,"pdop":2.26,"tdop":1.29,"xdop":0.62,"ydop":0.99,"vdop":1.88,"uSat":8}
{"class":"SKY","device":"/dev/ttyACM0","time":"2024-06-04T12:22:45.998Z","gdop":2.61,"hdop":1.26,"pdop":2.26,"tdop":1.29,"xdop":0.62,"ydop":0.99,"vdop":1.88,"uSat":8}
{"class":"TPV","device":"/dev/ttyACM0","mode":3,"time":"2024-06-04T12:22:46.250Z","leapseconds":18,"ept":0.005,"lat":52.315813821,"lon":10.561696827,"altHAE":122.8561,"altMSL":78.9574,"alt":78.9574,"epx":9.280,"epy":14.902,"epv":43.240,"track":21.2094,"magtrack":24.4289,"magvar":3.2,"speed":0.010,"climb":-0.020,"eps":118.27,"epc":406.15,"ecefx":3841088.01,"ecefy":716182.65,"ecefz":5024458.93,"ecefvx":-0.02,"ecefvy":0.00,"ecefvz":-0.01,"ecefpAcc":3.98,"ecefvAcc":0.49,"velN":0.009,"velE":0.004,"velD":0.020,"geoidSep":43.899,"eph":23.940,"sep":42.940}
{"class":"SKY","device":"/dev/ttyACM0","time":"2024-06-04T12:22:46.250Z","gdop":2.61,"hdop":1.26,"pdop":2.26,"tdop":1.29,"xdop":0.62,"ydop":0.99,"vdop":1.88,"nSat":11,"uSat":8,"satellites":[{"PRN":2,"gnssid":0,"svid":2,"az":278.0,"el":42.0,"ss":47.0,"used":true,"health":1},{"PRN":22,"gnssid":0,"svid":22,"az":336.0,"el":6.0,"ss":31.0,"used":true,"health":1},{"PRN":32,"gnssid":0,"svid":32,"az":112.0,"el":33.0,"ss":45.0,"used":true,"health":1},{"PRN":44,"gnssid":1,"svid":131,"az":0.0,"el":-9.0,"ss":0.0,"used":false,"health":1},{"PRN":14,"gnssid":0,"svid":14,"az":320.0,"el":18.0,"ss":26.0,"used":false,"health":1},{"PRN":24,"gnssid":0,"svid":24,"az":35.0,"el":1.0,"ss":12.0,"used":false,"health":1},{"PRN":8,"gnssid":0,"svid":8,"az":200.0,"el":71.0,"ss":49.0,"used":true,"health":1},{"PRN":10,"gnssid":0,"svid":10,"az":62.0,"el":52.0,"ss":47.0,"used":true,"health":1},{"PRN":23,"gnssid":0,"svid":23,"az":50.0,"el":18.0,"ss":39.0,"used":true,"health":1},{"PRN":21,"gnssid":0,"svid":21,"az":281.0,"el":60.0,"ss":49.0,"used":true,"health":1},{"PRN":27,"gnssid":0,"svid":27,"az":153.0,"el":42.0,"ss":34.0,"used":true,"health":1}]}
{"class":"TPV","device":"/dev/ttyACM0","mode":3,"time":"2024-06-04T12:22:46.498Z","leapseconds":18,"ept":0.005,"lat":52.315813657,"lon":10.561697232,"altHAE":122.8575,"altMSL":78.9588,"alt":78.9588,"epx":9.280,"epy":14.902,"epv":43.240,"track":33.7195,"magtrack":36.9389,"magvar":3.2,"speed":0.024,"climb":-0.003,"eps":0.50,"epc":348.71,"ecefx":3841088.02,"ecefy":716182.68,"ecefz":5024458.92,"ecefvx":-0.02,"ecefvy":0.01,"ecefvz":0.01,"ecefpAcc":3.98,"ecefvAcc":0.50,"velN":0.020,"velE":0.013,"velD":0.003,"geoidSep":43.899,"eph":23.940,"sep":42.940}
{"class":"SKY","device":"/dev/ttyACM0","time":"2024-06-04T12:22:46.250Z","gdop":2.61,"hdop":1.26,"pdop":2.26,"tdop":1.29,"xdop":0.62,"ydop":0.99,"vdop":1.88,"uSat":8}
{"class":"SKY","device":"/dev/ttyACM0","time":"2024-06-04T12:22:46.250Z","gdop":2.61,"hdop":1.26,"pdop":2.26,"tdop":1.29,"xdop":0.62,"ydop":0.99,"vdop":1.88,"uSat":8}
{"class":"TPV","device":"/dev/ttyACM0","mode":3,"time":"2024-06-04T12:22:46.498Z","leapseconds":18,"ept":0.005,"lat":52.315813657,"lon":10.561697232,"altHAE":122.8575,"altMSL":78.9588,"alt":78.9588,"epx":9.280,"epy":14.902,"epv":43.240,"track":33.7195,"magtrack":36.9389,"magvar":3.2,"speed":0.024,"climb":-0.003,"eps":120.18,"epc":348.71,"ecefx":3841088.02,"ecefy":716182.68,"ecefz":5024458.92,"ecefvx":-0.02,"ecefvy":0.01,"ecefvz":0.01,"ecefpAcc":3.98,"ecefvAcc":0.50,"velN":0.020,"velE":0.013,"velD":0.003,"geoidSep":43.899,"eph":23.940,"sep":42.940}
{"class":"SKY","device":"/dev/ttyACM0","time":"2024-06-04T12:22:46.498Z","gdop":2.61,"hdop":1.26,"pdop":2.26,"tdop":1.29,"xdop":0.62,"ydop":0.99,"vdop":1.88,"nSat":11,"uSat":8,"satellites":[{"PRN":2,"gnssid":0,"svid":2,"az":278.0,"el":42.0,"ss":47.0,"used":true,"health":1},{"PRN":22,"gnssid":0,"svid":22,"az":336.0,"el":6.0,"ss":31.0,"used":true,"health":1},{"PRN":32,"gnssid":0,"svid":32,"az":112.0,"el":33.0,"ss":45.0,"used":true,"health":1},{"PRN":44,"gnssid":1,"svid":131,"az":0.0,"el":-9.0,"ss":0.0,"used":false,"health":1},{"PRN":14,"gnssid":0,"svid":14,"az":320.0,"el":18.0,"ss":26.0,"used":false,"health":1},{"PRN":24,"gnssid":0,"svid":24,"az":35.0,"el":1.0,"ss":11.0,"used":false,"health":1},{"PRN":8,"gnssid":0,"svid":8,"az":200.0,"el":71.0,"ss":49.0,"used":true,"health":1},{"PRN":10,"gnssid":0,"svid":10,"az":62.0,"el":52.0,"ss":47.0,"used":true,"health":1},{"PRN":23,"gnssid":0,"svid":23,"az":50.0,"el":18.0,"ss":39.0,"used":true,"health":1},{"PRN":21,"gnssid":0,"svid":21,"az":281.0,"el":60.0,"ss":49.0,"used":true,"health":1},{"PRN":27,"gnssid":0,"svid":27,"az":153.0,"el":42.0,"ss":34.0,"used":true,"health":1}]}
{"class":"TPV","device":"/dev/ttyACM0","mode":3,"time":"2024-06-04T12:22:46.750Z","leapseconds":18,"ept":0.005,"lat":52.315813744,"lon":10.561697863,"altHAE":122.8500,"altMSL":78.9513,"alt":78.9513,"epx":9.280,"epy":14.902,"epv":43.240,"track":40.2380,"magtrack":43.4574,"magvar":3.2,"speed":0.153,"climb":-0.002,"eps":0.49,"epc":343.17,"ecefx":3841088.00,"ecefy":716182.72,"ecefz":5024458.92,"ecefvx":-0.11,"ecefvy":0.08,"ecefvz":0.07,"ecefpAcc":3.98,"ecefvAcc":0.49,"velN":0.117,"velE":0.099,"velD":0.002,"geoidSep":43.899,"eph":23.940,"sep":42.940}
{"class":"SKY","device":"/dev/ttyACM0","time":"2024-06-04T12:22:46.498Z","gdop":2.61,"hdop":1.26,"pdop":2.26,"tdop":1.29,"xdop":0.62,"ydop":0.99,"vdop":1.88,"uSat":8}
{"class":"SKY","device":"/dev/ttyACM0","time":"2024-06-04T12:22:46.498Z","gdop":2.61,"hdop":1.26,"pdop":2.26,"tdop":1.29,"xdop":0.62,"ydop":0.99,"vdop":1.88,"uSat":8}
{"class":"TPV","device":"/dev/ttyACM0","mode":3,"time":"2024-06-04T12:22:46.750Z","leapseconds":18,"ept":0.005,"lat":52.315813744,"lon":10.561697863,"altHAE":122.8500,"altMSL":78.9513,"alt":78.9513,"epx":9.280,"epy":14.902,"epv":43.240,"track":40.2380,"magtrack":43.4574,"magvar":3.2,"speed":0.153,"climb":-0.002,"eps":118.27,"epc":343.17,"ecefx":3841088.00,"ecefy":716182.72,"ecefz":5024458.92,"ecefvx":-0.11,"ecefvy":0.08,"ecefvz":0.07,"ecefpAcc":3.98,"ecefvAcc":0.49,"velN":0.117,"velE":0.099,"velD":0.002,"geoidSep":43.899,"eph":23.940,"sep":42.940}
{"class":"SKY","device":"/dev/ttyACM0","time":"2024-06-04T12:22:46.750Z","gdop":2.61,"hdop":1.26,"pdop":2.26,"tdop":1.29,"xdop":0.62,"ydop":0.99,"vdop":1.88,"nSat":11,"uSat":8,"satellites":[{"PRN":2,"gnssid":0,"svid":2,"az":278.0,"el":42.0,"ss":47.0,"used":true,"health":1},{"PRN":22,"gnssid":0,"svid":22,"az":336.0,"el":6.0,"ss":31.0,"used":true,"health":1},{"PRN":32,"gnssid":0,"svid":32,"az":112.0,"el":33.0,"ss":45.0,"used":true,"health":1},{"PRN":44,"gnssid":1,"svid":131,"az":0.0,"el":-9.0,"ss":0.0,"used":false,"health":1},{"PRN":14,"gnssid":0,"svid":14,"az":320.0,"el":18.0,"ss":27.0,"used":false,"health":1},{"PRN":24,"gnssid":0,"svid":24,"az":35.0,"el":1.0,"ss":12.0,"used":false,"health":1},{"PRN":8,"gnssid":0,"svid":8,"az":200.0,"el":71.0,"ss":49.0,"used":true,"health":1},{"PRN":10,"gnssid":0,"svid":10,"az":62.0,"el":52.0,"ss":47.0,"used":true,"health":1},{"PRN":23,"gnssid":0,"svid":23,"az":50.0,"el":18.0,"ss":37.0,"used":true,"health":1},{"PRN":21,"gnssid":0,"svid":21,"az":281.0,"el":60.0,"ss":49.0,"used":true,"health":1},{"PRN":27,"gnssid":0,"svid":27,"az":153.0,"el":42.0,"ss":32.0,"used":true,"health":1}]}
{"class":"TPV","device":"/dev/ttyACM0","mode":3,"time":"2024-06-04T12:22:46.998Z","leapseconds":18,"ept":0.005,"lat":52.315814140,"lon":10.561698483,"altHAE":122.8034,"altMSL":78.9047,"alt":78.9047,"epx":9.280,"epy":14.902,"epv":43.240,"track":43.2636,"magtrack":46.4830,"magvar":3.2,"speed":0.297,"climb":0.010,"eps":0.50,"epc":348.71,"ecefx":3841087.93,"ecefy":716182.75,"ecefz":5024458.91,"ecefvx":-0.20,"ecefvy":0.17,"ecefvz":0.14,"ecefpAcc":3.98,"ecefvAcc":0.50,"velN":0.217,"velE":0.204,"velD":-0.010,"geoidSep":43.899,"eph":23.940,"sep":55.100}
{"class":"SKY","device":"/dev/ttyACM0","time":"2024-06-04T12:22:46.750Z","gdop":2.61,"hdop":1.26,"pdop":2.90,"tdop":1.29,"xdop":0.62,"ydop":0.99,"vdop":1.88,"uSat":8}
{"class":"SKY","device":"/dev/ttyACM0","time":"2024-06-04T12:22:46.750Z","gdop":3.45,"hdop":1.36,"pdop":2.90,"tdop":1.86,"xdop":0.62,"ydop":0.99,"vdop":2.57,"uSat":8}
{"class":"TPV","device":"/dev/ttyACM0","mode":3,"time":"2024-06-04T12:22:46.998Z","leapseconds":18,"ept":0.005,"lat":52.315814140,"lon":10.561698483,"altHAE":122.8034,"altMSL":78.9047,"alt":78.9047,"epx":9.280,"epy":14.902,"epv":43.240,"track":43.2636,"magtrack":46.4830,"magvar":3.2,"speed":0.297,"climb":0.010,"eps":120.18,"epc":348.71,"ecefx":3841087.93,"ecefy":716182.75,"ecefz":5024458.91,"ecefvx":-0.20,"ecefvy":0.17,"ecefvz":0.14,"ecefpAcc":3.98,"ecefvAcc":0.50,"velN":0.217,"velE":0.204,"velD":-0.010,"geoidSep":43.899,"eph":23.940,"sep":55.100}
{"class":"SKY","device":"/dev/ttyACM0","time":"2024-06-04T12:22:46.998Z","gdop":3.45,"hdop":1.36,"pdop":2.90,"tdop":1.86,"xdop":0.62,"ydop":0.99,"vdop":2.57,"nSat":11,"uSat":7,"satellites":[{"PRN":2,"gnssid":0,"svid":2,"az":278.0,"el":42.0,"ss":47.0,"used":true,"health":1},{"PRN":22,"gnssid":0,"svid":22,"az":336.0,"el":6.0,"ss":30.0,"used":false,"health":1},{"PRN":32,"gnssid":0,"svid":32,"az":112.0,"el":33.0,"ss":45.0,"used":true,"health":1},{"PRN":33,"gnssid":1,"svid":120,"az":0.0,"el":-9.0,"ss":0.0,"used":false,"health":1},{"PRN":14,"gnssid":0,"svid":14,"az":320.0,"el":18.0,"ss":36.0,"used":false,"health":1},{"PRN":24,"gnssid":0,"svid":24,"az":35.0,"el":1.0,"ss":11.0,"used":false,"health":1},{"PRN":8,"gnssid":0,"svid":8,"az":200.0,"el":71.0,"ss":49.0,"used":true,"health":1},{"PRN":10,"gnssid":0,"svid":10,"az":62.0,"el":52.0,"ss":47.0,"used":true,"health":1},{"PRN":23,"gnssid":0,"svid":23,"az":50.0,"el":18.0,"ss":38.0,"used":true,"health":1},{"PRN":21,"gnssid":0,"svid":21,"az":281.0,"el":60.0,"ss":49.0,"used":true,"health":1},{"PRN":27,"gnssid":0,"svid":27,"az":153.0,"el":42.0,"ss":33.0,"used":true,"health":1}]}
{"class":"TPV","device":"/dev/ttyACM0","mode":3,"time":"2024-06-04T12:22:47.250Z","leapseconds":18,"ept":0.005,"lat":52.315814871,"lon":10.561700023,"altHAE":122.7910,"altMSL":78.8923,"alt":78.8923,"epx":9.280,"epy":14.902,"epv":59.110,"track":41.5422,"magtrack":44.7617,"magvar":3.2,"speed":0.547,"climb":0.025,"eps":0.49,"epc":406.15,"ecefx":3841087.84,"ecefy":716182.84,"ecefz":5024458.95,"ecefvx":-0.37,"ecefvy":0.30,"ecefvz":0.27,"ecefpAcc":3.97,"ecefvAcc":0.49,"velN":0.409,"velE":0.363,"velD":-0.025,"geoidSep":43.899,"eph":25.840,"sep":54.340}
{"class":"SKY","device":"/dev/ttyACM0","time":"2024-06-04T12:22:46.998Z","gdop":3.45,"hdop":1.36,"pdop":2.86,"tdop":1.86,"xdop":0.62,"ydop":0.99,"vdop":2.57,"uSat":8}
{"class":"SKY","device":"/dev/ttyACM0","time":"2024-06-04T12:22:46.998Z","gdop":3.34,"hdop":1.63,"pdop":2.86,"tdop":1.73,"xdop":0.62,"ydop":0.99,"vdop":2.35,"uSat":8}
{"class":"TPV","device":"/dev/ttyACM0","mode":3,"time":"2024-06-04T12:22:47.250Z","leapseconds":18,"ept":0.005,"lat":52.315814871,"lon":10.561700023,"altHAE":122.7910,"altMSL":78.8923,"alt":78.8923,"epx":9.280,"epy":14.902,"epv":59.110,"track":41.5422,"magtrack":44.7617,"magvar":3.2,"speed":0.547,"climb":0.025,"eps":118.27,"epc":406.15,"ecefx":3841087.84,"ecefy":716182.84,"ecefz":5024458.95,"ecefvx":-0.37,"ecefvy":0.30,"ecefvz":0.27,"ecefpAcc":3.97,"ecefvAcc":0.49,"velN":0.409,"velE":0.363,"velD":-0.025,"geoidSep":43.899,"eph":25.840,"sep":54.340}
{"class":"SKY","device":"/dev/ttyACM0","time":"2024-06-04T12:22:47.250Z","gdop":3.34,"hdop":1.63,"pdop":2.86,"tdop":1.73,"xdop":0.62,"ydop":0.99,"vdop":2.35,"nSat":11,"uSat":7,"satellites":[{"PRN":2,"gnssid":0,"svid":2,"az":278.0,"el":42.0,"ss":47.0,"used":true,"health":1},{"PRN":22,"gnssid":0,"svid":22,"az":336.0,"el":6.0,"ss":24.0,"used":false,"health":1},{"PRN":32,"gnssid":0,"svid":32,"az":112.0,"el":33.0,"ss":45.0,"used":true,"health":1},{"PRN":33,"gnssid":1,"svid":120,"az":0.0,"el":-9.0,"ss":0.0,"used":false,"health":1},{"PRN":14,"gnssid":0,"svid":14,"az":320.0,"el":18.0,"ss":37.0,"used":true,"health":1},{"PRN":24,"gnssid":0,"svid":24,"az":35.0,"el":1.0,"ss":11.0,"used":false,"health":1},{"PRN":8,"gnssid":0,"svid":8,"az":200.0,"el":71.0,"ss":49.0,"used":true,"health":1},{"PRN":10,"gnssid":0,"svid":10,"az":62.0,"el":52.0,"ss":46.0,"used":true,"health":1},{"PRN":23,"gnssid":0,"svid":23,"az":50.0,"el":18.0,"ss":39.0,"used":true,"health":1},{"PRN":21,"gnssid":0,"svid":21,"az":281.0,"el":60.0,"ss":49.0,"used":true,"health":1},{"PRN":27,"gnssid":0,"svid":27,"az":153.0,"el":42.0,"ss":32.0,"used":false,"health":1}]}
{"class":"TPV","device":"/dev/ttyACM0","mode":3,"time":"2024-06-04T12:22:47.498Z","leapseconds":18,"ept":0.005,"lat":52.315816285,"lon":10.561702273,"altHAE":122.8085,"altMSL":78.9098,"alt":78.9098,"epx":9.280,"epy":14.902,"epv":54.050,"track":39.8502,"magtrack":43.0697,"magvar":3.2,"speed":0.959,"climb":0.025,"eps":0.49,"epc":456.29,"ecefx":3841087.70,"ecefy":716182.97,"ecefz":5024459.06,"ecefvx":-0.67,"ecefvy":0.50,"ecefvz":0.47,"ecefpAcc":3.97,"ecefvAcc":0.49,"velN":0.736,"velE":0.614,"velD":-0.025,"geoidSep":43.899,"eph":30.970,"sep":54.530}
{"class":"SKY","device":"/dev/ttyACM0","time":"2024-06-04T12:22:47.250Z","gdop":3.34,"hdop":1.63,"pdop":2.87,"tdop":1.73,"xdop":0.62,"ydop":0.99,"vdop":2.35,"uSat":8}
{"class":"SKY","device":"/dev/ttyACM0","time":"2024-06-04T12:22:47.250Z","gdop":3.35,"hdop":1.63,"pdop":2.87,"tdop":1.73,"xdop":0.62,"ydop":0.99,"vdop":2.36,"uSat":8}
{"class":"TPV","device":"/dev/ttyACM0","mode":3,"time":"2024-06-04T12:22:47.498Z","leapseconds":18,"ept":0.005,"lat":52.315816285,"lon":10.561702273,"altHAE":122.8085,"altMSL":78.9098,"alt":78.9098,"epx":9.280,"epy":14.902,"epv":54.050,"track":39.8502,"magtrack":43.0697,"magvar":3.2,"speed":0.959,"climb":0.025,"eps":120.18,"epc":456.29,"ecefx":3841087.70,"ecefy":716182.97,"ecefz":5024459.06,"ecefvx":-0.67,"ecefvy":0.50,"ecefvz":0.47,"ecefpAcc":3.97,"ecefvAcc":0.49,"velN":0.736,"velE":0.614,"velD":-0.025,"geoidSep":43.899,"eph":30.970,"sep":54.530}
{"class":"SKY","device":"/dev/ttyACM0","time":"2024-06-04T12:22:47.498Z","gdop":3.35,"hdop":1.63,"pdop":2.87,"tdop":1.73,"xdop":0.62,"ydop":0.99,"vdop":2.36,"nSat":11,"uSat":7,"satellites":[{"PRN":2,"gnssid":0,"svid":2,"az":278.0,"el":42.0,"ss":48.0,"used":true,"health":1},{"PRN":22,"gnssid":0,"svid":22,"az":336.0,"el":6.0,"ss":23.0,"used":false,"health":1},{"PRN":32,"gnssid":0,"svid":32,"az":112.0,"el":33.0,"ss":45.0,"used":true,"health":1},{"PRN":33,"gnssid":1,"svid":120,"az":0.0,"el":-9.0,"ss":0.0,"used":false,"health":1},{"PRN":14,"gnssid":0,"svid":14,"az":320.0,"el":18.0,"ss":38.0,"used":true,"health":1},{"PRN":24,"gnssid":0,"svid":24,"az":35.0,"el":1.0,"ss":13.0,"used":false,"health":1},{"PRN":8,"gnssid":0,"svid":8,"az":200.0,"el":71.0,"ss":50.0,"used":true,"health":1},{"PRN":10,"gnssid":0,"svid":10,"az":62.0,"el":52.0,"ss":46.0,"used":true,"health":1},{"PRN":23,"gnssid":0,"svid":23,"az":50.0,"el":18.0,"ss":37.0,"used":true,"health":1},{"PRN":21,"gnssid":0,"svid":21,"az":281.0,"el":60.0,"ss":48.0,"used":true,"health":1},{"PRN":27,"gnssid":0,"svid":27,"az":153.0,"el":42.0,"ss":36.0,"used":false,"health":1}]}
{"class":"TPV","device":"/dev/ttyACM0","mode":3,"time":"2024-06-04T12:22:47.750Z","leapseconds":18,"ept":0.005,"lat":52.315818195,"lon":10.561705630,"altHAE":122.7707,"altMSL":78.8720,"alt":78.8720,"epx":9.280,"epy":14.902,"epv":54.280,"track":42.9281,"magtrack":46.1476,"magvar":3.2,"speed":1.296,"climb":0.000,"eps":0.48,"epc":429.88,"ecefx":3841087.47,"ecefy":716183.16,"ecefz":5024459.16,"ecefvx":-0.90,"ecefvy":0.73,"ecefvz":0.58,"ecefpAcc":3.97,"ecefvAcc":0.48,"velN":0.949,"velE":0.883,"velD":0.000,"geoidSep":43.899,"eph":30.970,"sep":54.340}
{"class":"SKY","device":"/dev/ttyACM0","time":"2024-06-04T12:22:47.498Z","gdop":3.35,"hdop":1.63,"pdop":2.86,"tdop":1.73,"xdop":0.62,"ydop":0.99,"vdop":2.36,"uSat":8}
{"class":"SKY","device":"/dev/ttyACM0","time":"2024-06-04T12:22:47.498Z","gdop":3.34,"hdop":1.63,"pdop":2.86,"tdop":1.73,"xdop":0.62,"ydop":0.99,"vdop":2.35,"uSat":8}
{"class":"TPV","device":"/dev/ttyACM0","mode":3,"time":"2024-06-04T12:22:47.750Z","leapseconds":18,"ept":0.005,"lat":52.315818195,"lon":10.561705630,"altHAE":122.7707,"altMSL":78.8720,"alt":78.8720,"epx":9.280,"epy":14.902,"epv":54.280,"track":42.9281,"magtrack":46.1476,"magvar":3.2,"speed":1.296,"climb":0.000,"eps":118.27,"epc":429.88,"ecefx":3841087.47,"ecefy":716183.16,"ecefz":5024459.16,"ecefvx":-0.90,"ecefvy":0.73,"ecefvz":0.58,"ecefpAcc":3.97,"ecefvAcc":0.48,"velN":0.949,"velE":0.883,"velD":0.000,"geoidSep":43.899,"eph":30.970,"sep":54.340}
{"class":"SKY","device":"/dev/ttyACM0","time":"2024-06-04T12:22:47.750Z","gdop":3.34,"hdop":1.63,"pdop":2.86,"tdop":1.73,"xdop":0.62,"ydop":0.99,"vdop":2.35,"nSat":11,"uSat":7,"satellites":[{"PRN":2,"gnssid":0,"svid":2,"az":278.0,"el":42.0,"ss":47.0,"used":true,"health":1},{"PRN":22,"gnssid":0,"svid":22,"az":336.0,"el":6.0,"ss":25.0,"used":false,"health":1},{"PRN":32,"gnssid":0,"svid":32,"az":112.0,"el":33.0,"ss":44.0,"used":true,"health":1},{"PRN":33,"gnssid":1,"svid":120,"az":0.0,"el":-9.0,"ss":0.0,"used":false,"health":1},{"PRN":14,"gnssid":0,"svid":14,"az":320.0,"el":18.0,"ss":38.0,"used":true,"health":1},{"PRN":24,"gnssid":0,"svid":24,"az":35.0,"el":1.0,"ss":13.0,"used":false,"health":1},{"PRN":8,"gnssid":0,"svid":8,"az":200.0,"el":71.0,"ss":49.0,"used":true,"health":1},{"PRN":10,"gnssid":0,"svid":10,"az":62.0,"el":52.0,"ss":47.0,"used":true,"health":1},{"PRN":23,"gnssid":0,"svid":23,"az":50.0,"el":18.0,"ss":38.0,"used":true,"health":1},{"PRN":21,"gnssid":0,"svid":21,"az":281.0,"el":60.0,"ss":48.0,"used":true,"health":1},{"PRN":27,"gnssid":0,"svid":27,"az":153.0,"el":42.0,"ss":36.0,"used":false,"health":1}]}
{"class":"TPV","device":"/dev/ttyACM0","mode":3,"time":"2024-06-04T12:22:47.998Z","leapseconds":18,"ept":0.005,"lat":52.315820663,"lon":10.561709437,"altHAE":122.7228,"altMSL":78.8242,"alt":78.8242,"epx":9.280,"epy":14.902,"epv":54.050,"track":39.6993,"magtrack":42.9187,"magvar":3.2,"speed":1.629,"climb":-0.008,"eps":0.53,"epc":436.81,"ecefx":3841087.18,"ecefy":716183.37,"ecefz":5024459.29,"ecefvx":-1.17,"ecefvy":0.84,"ecefvz":0.76,"ecefpAcc":3.97,"ecefvAcc":0.53,"velN":1.253,"velE":1.040,"velD":0.008,"geoidSep":43.899,"eph":30.970,"sep":55.100}
{"class":"SKY","device":"/dev/ttyACM0","time":"2024-06-04T12:22:47.750Z","gdop":3.34,"hdop":1.63,"pdop":2.90,"tdop":1.73,"xdop":0.62,"ydop":0.99,"vdop":2.35,"uSat":8}
{"class":"SKY","device":"/dev/ttyACM0","time":"2024-06-04T12:22:47.750Z","gdop":3.45,"hdop":1.36,"pdop":2.90,"tdop":1.86,"xdop":0.62,"ydop":0.99,"vdop":2.57,"uSat":8}
{"class":"TPV","device":"/dev/ttyACM0","mode":3,"time":"2024-06-04T12:22:47.998Z","leapseconds":18,"ept":0.005,"lat":52.315820663,"lon":10.561709437,"altHAE":122.7228,"altMSL":78.8242,"alt":78.8242,"epx":9.280,"epy":14.902,"epv":54.050,"track":39.6993,"magtrack":42.9187,"magvar":3.2,"speed":1.629,"climb":-0.008,"eps":120.18,"epc":436.81,"ecefx":3841087.18,"ecefy":716183.37,"ecefz":5024459.29,"ecefvx":-1.17,"ecefvy":0.84,"ecefvz":0.76,"ecefpAcc":3.97,"ecefvAcc":0.53,"velN":1.253,"velE":1.040,"velD":0.008,"geoidSep":43.899,"eph":30.970,"sep":55.100}
{"class":"SKY","device":"/dev/ttyACM0","time":"2024-06-04T12:22:47.998Z","gdop":3.45,"hdop":1.36,"pdop":2.90,"tdop":1.86,"xdop":0.62,"ydop":0.99,"vdop":2.57,"nSat":11,"uSat":7,"satellites":[{"PRN":2,"gnssid":0,"svid":2,"az":278.0,"el":42.0,"ss":47.0,"used":true,"health":1},{"PRN":22,"gnssid":0,"svid":22,"az":336.0,"el":6.0,"ss":32.0,"used":false,"health":1},{"PRN":32,"gnssid":0,"svid":32,"az":112.0,"el":33.0,"ss":44.0,"used":true,"health":1},{"PRN":33,"gnssid":1,"svid":120,"az":0.0,"el":-9.0,"ss":0.0,"used":false,"health":1},{"PRN":14,"gnssid":0,"svid":14,"az":320.0,"el":18.0,"ss":38.0,"used":false,"health":1},{"PRN":24,"gnssid":0,"svid":24,"az":35.0,"el":1.0,"ss":14.0,"used":false,"health":1},{"PRN":8,"gnssid":0,"svid":8,"az":200.0,"el":71.0,"ss":49.0,"used":true,"health":1},{"PRN":10,"gnssid":0,"svid":10,"az":62.0,"el":52.0,"ss":47.0,"used":true,"health":1},{"PRN":23,"gnssid":0,"svid":23,"az":50.0,"el":18.0,"ss":38.0,"used":true,"health":1},{"PRN":21,"gnssid":0,"svid":21,"az":281.0,"el":60.0,"ss":48.0,"used":true,"health":1},{"PRN":27,"gnssid":0,"svid":27,"az":153.0,"el":42.0,"ss":38.0,"used":true,"health":1}]}
{"class":"TPV","device":"/dev/ttyACM0","mode":3,"time":"2024-06-04T12:22:48.250Z","leapseconds":18,"ept":0.005,"lat":52.315823620,"lon":10.561714072,"altHAE":122.6961,"altMSL":78.7974,"alt":78.7974,"epx":9.280,"epy":14.902,"epv":59.110,"track":41.5737,"magtrack":44.7932,"magvar":3.2,"speed":1.899,"climb":-0.023,"eps":0.53,"epc":449.05,"ecefx":3841086.85,"ecefy":716183.63,"ecefz":5024459.47,"ecefvx":-1.35,"ecefvy":1.03,"ecefvz":0.85,"ecefpAcc":3.96,"ecefvAcc":0.53,"velN":1.420,"velE":1.260,"velD":0.023,"geoidSep":43.899,"eph":25.840,"sep":48.830}
{"class":"SKY","device":"/dev/ttyACM0","time":"2024-06-04T12:22:47.998Z","gdop":3.45,"hdop":1.36,"pdop":2.57,"tdop":1.86,"xdop":0.62,"ydop":0.99,"vdop":2.57,"uSat":8}
{"class":"SKY","device":"/dev/ttyACM0","time":"2024-06-04T12:22:47.998Z","gdop":2.97,"hdop":1.42,"pdop":2.57,"tdop":1.50,"xdop":0.62,"ydop":0.99,"vdop":2.14,"uSat":8}
{"class":"TPV","device":"/dev/ttyACM0","mode":3,"time":"2024-06-04T12:22:48.250Z","leapseconds":18,"ept":0.005,"lat":52.315823620,"lon":10.561714072,"altHAE":122.6961,"altMSL":78.7974,"alt":78.7974,"epx":9.280,"epy":14.902,"epv":59.110,"track":41.5737,"magtrack":44.7932,"magvar":3.2,"speed":1.899,"climb":-0.023,"eps":118.27,"epc":449.05,"ecefx":3841086.85,"ecefy":716183.63,"ecefz":5024459.47,"ecefvx":-1.35,"ecefvy":1.03,"ecefvz":0.85,"ecefpAcc":3.96,"ecefvAcc":0.53,"velN":1.420,"velE":1.260,"velD":0.023,"geoidSep":43.899,"eph":25.840,"sep":48.830}
{"class":"SKY","device":"/dev/ttyACM0","time":"2024-06-04T12:22:48.250Z","gdop":2.97,"hdop":1.42,"pdop":2.57,"tdop":1.50,"xdop":0.62,"ydop":0.99,"vdop":2.14,"nSat":11,"uSat":7,"satellites":[{"PRN":2,"gnssid":0,"svid":2,"az":278.0,"el":42.0,"ss":47.0,"used":true,"health":1},{"PRN":22,"gnssid":0,"svid":22,"az":336.0,"el":6.0,"ss":31.0,"used":false,"health":1},{"PRN":32,"gnssid":0,"svid":32,"az":112.0,"el":33.0,"ss":43.0,"used":true,"health":1},{"PRN":33,"gnssid":1,"svid":120,"az":0.0,"el":-9.0,"ss":0.0,"used":false,"health":1},{"PRN":14,"gnssid":0,"svid":14,"az":320.0,"el":18.0,"ss":39.0,"used":true,"health":1},{"PRN":24,"gnssid":0,"svid":24,"az":35.0,"el":1.0,"ss":15.0,"used":false,"health":1},{"PRN":8,"gnssid":0,"svid":8,"az":200.0,"el":71.0,"ss":49.0,"used":true,"health":1},{"PRN":10,"gnssid":0,"svid":10,"az":62.0,"el":52.0,"ss":47.0,"used":true,"health":1},{"PRN":23,"gnssid":0,"svid":23,"az":50.0,"el":18.0,"ss":39.0,"used":false,"health":1},{"PRN":21,"gnssid":0,"svid":21,"az":281.0,"el":60.0,"ss":48.0,"used":true,"health":1},{"PRN":27,"gnssid":0,"svid":27,"az":153.0,"el":42.0,"ss":40.0,"used":true,"health":1}]}
{"class":"TPV","device":"/dev/ttyACM0","mode":3,"time":"2024-06-04T12:22:48.498Z","leapseconds":18,"ept":0.005,"lat":52.315826941,"lon":10.561719508,"altHAE":122.6886,"altMSL":78.7900,"alt":78.7900,"epx":9.280,"epy":14.902,"epv":49.220,"track":42.1976,"magtrack":45.4170,"magvar":3.2,"speed":2.136,"climb":-0.009,"eps":0.52,"epc":436.81,"ecefx":3841086.49,"ecefy":716183.94,"ecefz":5024459.69,"ecefvx":-1.50,"ecefvy":1.18,"ecefvz":0.96,"ecefpAcc":3.96,"ecefvAcc":0.52,"velN":1.583,"velE":1.435,"velD":0.009,"geoidSep":43.899,"eph":26.980,"sep":45.980}
{"class":"SKY","device":"/dev/ttyACM0","time":"2024-06-04T12:22:48.250Z","gdop":2.97,"hdop":1.42,"pdop":2.42,"tdop":1.50,"xdop":0.62,"ydop":0.99,"vdop":2.14,"uSat":8}
{"class":"SKY","device":"/dev/ttyACM0","time":"2024-06-04T12:22:48.250Z","gdop":2.81,"hdop":1.25,"pdop":2.42,"tdop":1.43,"xdop":0.62,"ydop":0.99,"vdop":2.08,"uSat":8}
{"class":"TPV","device":"/dev/ttyACM0","mode":3,"time":"2024-06-04T12:22:48.498Z","leapseconds":18,"ept":0.005,"lat":52.315826941,"lon":10.561719508,"altHAE":122.6886,"altMSL":78.7900,"alt":78.7900,"epx":9.280,"epy":14.902,"epv":49.220,"track":42.1976,"magtrack":45.4170,"magvar":3.2,"speed":2.136,"climb":-0.009,"eps":120.18,"epc":436.81,"ecefx":3841086.49,"ecefy":716183.94,"ecefz":5024459.69,"ecefvx":-1.50,"ecefvy":1.18,"ecefvz":0.96,"ecefpAcc":3.96,"ecefvAcc":0.52,"velN":1.583,"velE":1.435,"velD":0.009,"geoidSep":43.899,"eph":26.980,"sep":45.980}
{"class":"SKY","device":"/dev/ttyACM0","time":"2024-06-04T12:22:48.498Z","gdop":2.81,"hdop":1.25,"pdop":2.42,"tdop":1.43,"xdop":0.62,"ydop":0.99,"vdop":2.08,"nSat":11,"uSat":8,"satellites":[{"PRN":2,"gnssid":0,"svid":2,"az":278.0,"el":42.0,"ss":46.0,"used":true,"health":1},{"PRN":22,"gnssid":0,"svid":22,"az":336.0,"el":6.0,"ss":24.0,"used":false,"health":1},{"PRN":32,"gnssid":0,"svid":32,"az":112.0,"el":33.0,"ss":41.0,"used":true,"health":1},{"PRN":33,"gnssid":1,"svid":120,"az":0.0,"el":-9.0,"ss":0.0,"used":false,"health":1},{"PRN":14,"gnssid":0,"svid":14,"az":320.0,"el":18.0,"ss":39.0,"used":true,"health":1},{"PRN":24,"gnssid":0,"svid":24,"az":35.0,"el":1.0,"ss":16.0,"used":false,"health":1},{"PRN":8,"gnssid":0,"svid":8,"az":200.0,"el":71.0,"ss":48.0,"used":true,"health":1},{"PRN":10,"gnssid":0,"svid":10,"az":62.0,"el":52.0,"ss":47.0,"used":true,"health":1},{"PRN":23,"gnssid":0,"svid":23,"az":50.0,"el":18.0,"ss":39.0,"used":true,"health":1},{"PRN":21,"gnssid":0,"svid":21,"az":281.0,"el":60.0,"ss":47.0,"used":true,"health":1},{"PRN":27,"gnssid":0,"svid":27,"az":153.0,"el":42.0,"ss":42.0,"used":true,"health":1}]}
{"class":"TPV","device":"/dev/ttyACM0","mode":3,"time":"2024-06-04T12:22:48.750Z","leapseconds":18,"ept":0.005,"lat":52.315830568,"lon":10.561725404,"altHAE":122.7180,"altMSL":78.8194,"alt":78.8194,"epx":9.280,"epy":14.902,"epv":47.840,"track":43.9033,"magtrack":47.1227,"magvar":3.2,"speed":2.267,"climb":0.015,"eps":0.57,"epc":385.16,"ecefx":3841086.12,"ecefy":716184.28,"ecefz":5024459.96,"ecefvx":-1.55,"ecefvy":1.31,"ecefvz":1.01,"ecefpAcc":3.96,"ecefvAcc":0.57,"velN":1.633,"velE":1.572,"velD":-0.015,"geoidSep":43.899,"eph":23.750,"sep":49.210}
{"class":"SKY","device":"/dev/ttyACM0","time":"2024-06-04T12:22:48.498Z","gdop":2.81,"hdop":1.25,"pdop":2.59,"tdop":1.43,"xdop":0.62,"ydop":0.99,"vdop":2.08,"uSat":8}
{"class":"SKY","device":"/dev/ttyACM0","time":"2024-06-04T12:22:48.498Z","gdop":3.03,"hdop":1.35,"pdop":2.59,"tdop":1.58,"xdop":0.62,"ydop":0.99,"vdop":2.21,"uSat":8}
{"class":"TPV","device":"/dev/ttyACM0","mode":3,"time":"2024-06-04T12:22:48.750Z","leapseconds":18,"ept":0.005,"lat":52.315830568,"lon":10.561725404,"altHAE":122.7180,"altMSL":78.8194,"alt":78.8194,"epx":9.280,"epy":14.902,"epv":47.840,"track":43.9033,"magtrack":47.1227,"magvar":3.2,"speed":2.267,"climb":0.015,"eps":118.27,"epc":385.16,"ecefx":3841086.12,"ecefy":716184.28,"ecefz":5024459.96,"ecefvx":-1.55,"ecefvy":1.31,"ecefvz":1.01,"ecefpAcc":3.96,"ecefvAcc":0.57,"velN":1.633,"velE":1.572,"velD":-0.015,"geoidSep":43.899,"eph":23.750,"sep":49.210}
{"class":"SKY","device":"/dev/ttyACM0","time":"2024-06-04T12:22:48.750Z","gdop":3.03,"hdop":1.35,"pdop":2.59,"tdop":1.58,"xdop":0.62,"ydop":0.99,"vdop":2.21,"nSat":11,"uSat":7,"satellites":[{"PRN":2,"gnssid":0,"svid":2,"az":278.0,"el":42.0,"ss":47.0,"used":true,"health":1},{"PRN":22,"gnssid":0,"svid":22,"az":336.0,"el":6.0,"ss":25.0,"used":false,"health":1},{"PRN":32,"gnssid":0,"svid":32,"az":112.0,"el":33.0,"ss":40.0,"used":false,"health":1},{"PRN":33,"gnssid":1,"svid":120,"az":0.0,"el":-9.0,"ss":0.0,"used":false,"health":1},{"PRN":14,"gnssid":0,"svid":14,"az":320.0,"el":18.0,"ss":39.0,"used":true,"health":1},{"PRN":24,"gnssid":0,"svid":24,"az":35.0,"el":1.0,"ss":18.0,"used":false,"health":1},{"PRN":8,"gnssid":0,"svid":8,"az":200.0,"el":71.0,"ss":47.0,"used":true,"health":1},{"PRN":10,"gnssid":0,"svid":10,"az":62.0,"el":52.0,"ss":47.0,"used":true,"health":1},{"PRN":23,"gnssid":0,"svid":23,"az":50.0,"el":18.0,"ss":38.0,"used":true,"health":1},{"PRN":21,"gnssid":0,"svid":21,"az":281.0,"el":60.0,"ss":46.0,"used":true,"health":1},{"PRN":27,"gnssid":0,"svid":27,"az":153.0,"el":42.0,"ss":40.0,"used":true,"health":1}]}
{"class":"TPV","device":"/dev/ttyACM0","mode":3,"time":"2024-06-04T12:22:48.998Z","leapseconds":18,"ept":0.005,"lat":52.315834259,"lon":10.561731749,"altHAE":122.6662,"altMSL":78.7675,"alt":78.7675,"epx":9.280,"epy":14.902,"epv":50.830,"track":45.1821,"magtrack":48.4016,"magvar":3.2,"speed":2.469,"climb":0.008,"eps":0.59,"epc":397.86,"ecefx":3841085.69,"ecefy":716184.64,"ecefz":5024460.17,"ecefvx":-1.67,"ecefvy":1.47,"ecefvz":1.07,"ecefpAcc":3.96,"ecefvAcc":0.59,"velN":1.740,"velE":1.751,"velD":-0.008,"geoidSep":43.899,"eph":25.650,"sep":45.980}
{"class":"SKY","device":"/dev/ttyACM0","time":"2024-06-04T12:22:48.750Z","gdop":3.03,"hdop":1.35,"pdop":2.42,"tdop":1.58,"xdop":0.62,"ydop":0.99,"vdop":2.21,"uSat":8}
{"class":"SKY","device":"/dev/ttyACM0","time":"2024-06-04T12:22:48.750Z","gdop":2.81,"hdop":1.25,"pdop":2.42,"tdop":1.43,"xdop":0.62,"ydop":0.99,"vdop":2.08,"uSat":8}
{"class":"TPV","device":"/dev/ttyACM0","mode":3,"time":"2024-06-04T12:22:48.998Z","leapseconds":18,"ept":0.005,"lat":52.315834259,"lon":10.561731749,"altHAE":122.6662,"altMSL":78.7675,"alt":78.7675,"epx":9.280,"epy":14.902,"epv":50.830,"track":45.1821,"magtrack":48.4016,"magvar":3.2,"speed":2.469,"climb":0.008,"eps":120.18,"epc":397.86,"ecefx":3841085.69,"ecefy":716184.64,"ecefz":5024460.17,"ecefvx":-1.67,"ecefvy":1.47,"ecefvz":1.07,"ecefpAcc":3.96,"ecefvAcc":0.59,"velN":1.740,"velE":1.751,"velD":-0.008,"geoidSep":43.899,"eph":25.650,"sep":45.980}
{"class":"SKY","device":"/dev/ttyACM0","time":"2024-06-04T12:22:48.998Z","gdop":2.81,"hdop":1.25,"pdop":2.42,"tdop":1.43,"xdop":0.62,"ydop":0.99,"vdop":2.08,"nSat":11,"uSat":8,"satellites":[{"PRN":2,"gnssid":0,"svid":2,"az":278.0,"el":42.0,"ss":47.0,"used":true,"health":1},{"PRN":22,"gnssid":0,"svid":22,"az":336.0,"el":6.0,"ss":27.0,"used":false,"health":1},{"PRN":32,"gnssid":0,"svid":32,"az":112.0,"el":33.0,"ss":42.0,"used":true,"health":1},{"PRN":33,"gnssid":1,"svid":120,"az":0.0,"el":-9.0,"ss":0.0,"used":false,"health":1},{"PRN":14,"gnssid":0,"svid":14,"az":320.0,"el":18.0,"ss":41.0,"used":true,"health":1},{"PRN":24,"gnssid":0,"svid":24,"az":35.0,"el":1.0,"ss":18.0,"used":false,"health":1},{"PRN":8,"gnssid":0,"svid":8,"az":200.0,"el":71.0,"ss":48.0,"used":true,"health":1},{"PRN":10,"gnssid":0,"svid":10,"az":62.0,"el":52.0,"ss":47.0,"used":true,"health":1},{"PRN":23,"gnssid":0,"svid":23,"az":50.0,"el":18.0,"ss":36.0,"used":true,"health":1},{"PRN":21,"gnssid":0,"svid":21,"az":281.0,"el":60.0,"ss":45.0,"used":true,"health":1},{"PRN":27,"gnssid":0,"svid":27,"az":153.0,"el":42.0,"ss":38.0,"used":true,"health":1}]}
{"class":"TPV","device":"/dev/ttyACM0","mode":3,"time":"2024-06-04T12:22:49.250Z","leapseconds":18,"ept":0.005,"lat":52.315838009,"lon":10.561738842,"altHAE":122.6218,"altMSL":78.7232,"alt":78.7232,"epx":9.280,"epy":14.902,"epv":47.840,"track":46.7643,"magtrack":49.9837,"magvar":3.2,"speed":2.624,"climb":0.014,"eps":0.60,"epc":391.55,"ecefx":3841085.25,"ecefy":716185.05,"ecefz":5024460.39,"ecefvx":-1.74,"ecefvy":1.62,"ecefvz":1.11,"ecefpAcc":3.96,"ecefvAcc":0.60,"velN":1.797,"velE":1.911,"velD":-0.014,"geoidSep":43.899,"eph":23.750,"sep":48.830}
{"class":"SKY","device":"/dev/ttyACM0","time":"2024-06-04T12:22:48.998Z","gdop":2.81,"hdop":1.25,"pdop":2.57,"tdop":1.43,"xdop":0.62,"ydop":0.99,"vdop":2.08,"uSat":8}
{"class":"SKY","device":"/dev/ttyACM0","time":"2024-06-04T12:22:48.998Z","gdop":2.97,"hdop":1.42,"pdop":2.57,"tdop":1.50,"xdop":0.62,"ydop":0.99,"vdop":2.14,"uSat":8}
{"class":"TPV","device":"/dev/ttyACM0","mode":3,"time":"2024-06-04T12:22:49.250Z","leapseconds":18,"ept":0.005,"lat":52.315838009,"lon":10.561738842,"altHAE":122.6218,"altMSL":78.7232,"alt":78.7232,"epx":9.280,"epy":14.902,"epv":47.840,"track":46.7643,"magtrack":49.9837,"magvar":3.2,"speed":2.624,"climb":0.014,"eps":118.27,"epc":391.55,"ecefx":3841085.25,"ecefy":716185.05,"ecefz":5024460.39,"ecefvx":-1.74,"ecefvy":1.62,"ecefvz":1.11,"ecefpAcc":3.96,"ecefvAcc":0.60,"velN":1.797,"velE":1.911,"velD":-0.014,"geoidSep":43.899,"eph":23.750,"sep":48.830}
{"class":"SKY","device":"/dev/ttyACM0","time":"2024-06-04T12:22:49.250Z","gdop":2.97,"hdop":1.42,"pdop":2.57,"tdop":1.50,"xdop":0.62,"ydop":0.99,"vdop":2.14,"nSat":11,"uSat":7,"satellites":[{"PRN":2,"gnssid":0,"svid":2,"az":278.0,"el":42.0,"ss":47.0,"used":true,"health":1},{"PRN":22,"gnssid":0,"svid":22,"az":336.0,"el":6.0,"ss":27.0,"used":false,"health":1},{"PRN":32,"gnssid":0,"svid":32,"az":112.0,"el":33.0,"ss":45.0,"used":true,"health":1},{"PRN":33,"gnssid":1,"svid":120,"az":0.0,"el":-9.0,"ss":0.0,"used":false,"health":1},{"PRN":14,"gnssid":0,"svid":14,"az":320.0,"el":18.0,"ss":40.0,"used":true,"health":1},{"PRN":24,"gnssid":0,"svid":24,"az":35.0,"el":1.0,"ss":18.0,"used":false,"health":1},{"PRN":8,"gnssid":0,"svid":8,"az":200.0,"el":71.0,"ss":48.0,"used":true,"health":1},{"PRN":10,"gnssid":0,"svid":10,"az":62.0,"el":52.0,"ss":47.0,"used":true,"health":1},{"PRN":23,"gnssid":0,"svid":23,"az":50.0,"el":18.0,"ss":34.0,"used":false,"health":1},{"PRN":21,"gnssid":0,"svid":21,"az":281.0,"el":60.0,"ss":44.0,"used":true,"health":1},{"PRN":27,"gnssid":0,"svid":27,"az":153.0,"el":42.0,"ss":40.0,"used":true,"health":1}]}
{"class":"TPV","device":"/dev/ttyACM0","mode":3,"time":"2024-06-04T12:22:49.498Z","leapseconds":18,"ept":0.005,"lat":52.315841927,"lon":10.561746512,"altHAE":122.6135,"altMSL":78.7149,"alt":78.7149,"epx":9.280,"epy":14.902,"epv":49.220,"track":48.7661,"magtrack":51.9855,"magvar":3.2,"speed":2.779,"climb":0.013,"eps":0.60,"epc":391.37,"ecefx":3841084.81,"ecefy":716185.50,"ecefz":5024460.65,"ecefvx":-1.80,"ecefvy":1.79,"ecefvz":1.13,"ecefpAcc":3.96,"ecefvAcc":0.60,"velN":1.831,"velE":2.090,"velD":-0.013,"geoidSep":43.899,"eph":26.980,"sep":45.980}
{"class":"SKY","device":"/dev/ttyACM0","time":"2024-06-04T12:22:49.250Z","gdop":2.97,"hdop":1.42,"pdop":2.42,"tdop":1.50,"xdop":0.62,"ydop":0.99,"vdop":2.14,"uSat":8}
{"class":"SKY","device":"/dev/ttyACM0","time":"2024-06-04T12:22:49.250Z","gdop":2.81,"hdop":1.25,"pdop":2.42,"tdop":1.43,"xdop":0.62,"ydop":0.99,"vdop":2.08,"uSat":8}
{"class":"TPV","device":"/dev/ttyACM0","mode":3,"time":"2024-06-04T12:22:49.498Z","leapseconds":18,"ept":0.005,"lat":52.315841927,"lon":10.561746512,"altHAE":122.6135,"altMSL":78.7149,"alt":78.7149,"epx":9.280,"epy":14.902,"epv":49.220,"track":48.7661,"magtrack":51.9855,"magvar":3.2,"speed":2.779,"climb":0.013,"eps":120.18,"epc":391.37,"ecefx":3841084.81,"ecefy":716185.50,"ecefz":5024460.65,"ecefvx":-1.80,"ecefvy":1.79,"ecefvz":1.13,"ecefpAcc":3.96,"ecefvAcc":0.60,"velN":1.831,"velE":2.090,"velD":-0.013,"geoidSep":43.899,"eph":26.980,"sep":45.980}
{"class":"SKY","device":"/dev/ttyACM0","time":"2024-06-04T12:22:49.498Z","gdop":2.81,"hdop":1.25,"pdop":2.42,"tdop":1.43,"xdop":0.62,"ydop":0.99,"vdop":2.08,"nSat":11,"uSat":8,"satellites":[{"PRN":2,"gnssid":0,"svid":2,"az":278.0,"el":42.0,"ss":47.0,"used":true,"health":1},{"PRN":22,"gnssid":0,"svid":22,"az":336.0,"el":6.0,"ss":27.0,"used":false,"health":1},{"PRN":32,"gnssid":0,"svid":32,"az":112.0,"el":33.0,"ss":47.0,"used":true,"health":1},{"PRN":33,"gnssid":1,"svid":120,"az":0.0,"el":-9.0,"ss":0.0,"used":false,"health":1},{"PRN":14,"gnssid":0,"svid":14,"az":320.0,"el":18.0,"ss":41.0,"used":true,"health":1},{"PRN":24,"gnssid":0,"svid":24,"az":35.0,"el":1.0,"ss":19.0,"used":false,"health":1},{"PRN":8,"gnssid":0,"svid":8,"az":200.0,"el":71.0,"ss":48.0,"used":true,"health":1},{"PRN":10,"gnssid":0,"svid":10,"az":62.0,"el":52.0,"ss":47.0,"used":true,"health":1},{"PRN":23,"gnssid":0,"svid":23,"az":50.0,"el":18.0,"ss":34.0,"used":true,"health":1},{"PRN":21,"gnssid":0,"svid":21,"az":281.0,"el":60.0,"ss":44.0,"used":true,"health":1},{"PRN":27,"gnssid":0,"svid":27,"az":153.0,"el":42.0,"ss":44.0,"used":true,"health":1}]}
{"class":"TPV","device":"/dev/ttyACM0","mode":3,"time":"2024-06-04T12:22:49.750Z","leapseconds":18,"ept":0.005,"lat":52.315845935,"lon":10.561754983,"altHAE":122.5850,"altMSL":78.6864,"alt":78.6864,"epx":9.280,"epy":14.902,"epv":47.840,"track":51.0739,"magtrack":54.2934,"magvar":3.2,"speed":2.923,"climb":0.009,"eps":0.60,"epc":385.16,"ecefx":3841084.34,"ecefy":716186.00,"ecefz":5024460.90,"ecefvx":-1.84,"ecefvy":1.97,"ecefvz":1.13,"ecefpAcc":3.96,"ecefvAcc":0.60,"velN":1.837,"velE":2.274,"velD":-0.009,"geoidSep":43.899,"eph":23.750,"sep":46.170}
{"class":"SKY","device":"/dev/ttyACM0","time":"2024-06-04T12:22:49.498Z","gdop":2.81,"hdop":1.25,"pdop":2.43,"tdop":1.43,"xdop":0.62,"ydop":0.99,"vdop":2.08,"uSat":8}
{"class":"SKY","device":"/dev/ttyACM0","time":"2024-06-04T12:22:49.498Z","gdop":2.82,"hdop":1.25,"pdop":2.43,"tdop":1.43,"xdop":0.62,"ydop":0.99,"vdop":2.08,"uSat":8}
{"class":"TPV","device":"/dev/ttyACM0","mode":3,"time":"2024-06-04T12:22:49.750Z","leapseconds":18,"ept":0.005,"lat":52.315845935,"lon":10.561754983,"altHAE":122.5850,"altMSL":78.6864,"alt":78.6864,"epx":9.280,"epy":14.902,"epv":47.840,"track":51.0739,"magtrack":54.2934,"magvar":3.2,"speed":2.923,"climb":0.009,"eps":118.27,"epc":385.16,"ecefx":3841084.34,"ecefy":716186.00,"ecefz":5024460.90,"ecefvx":-1.84,"ecefvy":1.97,"ecefvz":1.13,"ecefpAcc":3.96,"ecefvAcc":0.60,"velN":1.837,"velE":2.274,"velD":-0.009,"geoidSep":43.899,"eph":23.750,"sep":46.170}
{"class":"SKY","device":"/dev/ttyACM0","time":"2024-06-04T12:22:49.750Z","gdop":2.82,"hdop":1.25,"pdop":2.43,"tdop":1.43,"xdop":0.62,"ydop":0.99,"vdop":2.08,"nSat":11,"uSat":8,"satellites":[{"PRN":2,"gnssid":0,"svid":2,"az":278.0,"el":42.0,"ss":48.0,"used":true,"health":1},{"PRN":22,"gnssid":0,"svid":22,"az":336.0,"el":6.0,"ss":27.0,"used":false,"health":1},{"PRN":32,"gnssid":0,"svid":32,"az":112.0,"el":33.0,"ss":48.0,"used":true,"health":1},{"PRN":33,"gnssid":1,"svid":120,"az":0.0,"el":-9.0,"ss":0.0,"used":false,"health":1},{"PRN":14,"gnssid":0,"svid":14,"az":320.0,"el":18.0,"ss":42.0,"used":true,"health":1},{"PRN":24,"gnssid":0,"svid":24,"az":35.0,"el":1.0,"ss":19.0,"used":false,"health":1},{"PRN":8,"gnssid":0,"svid":8,"az":200.0,"el":71.0,"ss":48.0,"used":true,"health":1},{"PRN":10,"gnssid":0,"svid":10,"az":62.0,"el":52.0,"ss":46.0,"used":true,"health":1},{"PRN":23,"gnssid":0,"svid":23,"az":50.0,"el":18.0,"ss":35.0,"used":true,"health":1},{"PRN":21,"gnssid":0,"svid":21,"az":281.0,"el":60.0,"ss":44.0,"used":true,"health":1},{"PRN":27,"gnssid":0,"svid":27,"az":153.0,"el":42.0,"ss":45.0,"used":true,"health":1}]}
{"class":"TPV","device":"/dev/ttyACM0","mode":3,"time":"2024-06-04T12:22:49.998Z","leapseconds":18,"ept":0.005,"lat":52.315849958,"lon":10.561763886,"altHAE":122.5677,"altMSL":78.6691,"alt":78.6691,"epx":9.280,"epy":14.902,"epv":47.840,"track":51.4849,"magtrack":54.7044,"magvar":3.2,"speed":3.148,"climb":0.027,"eps":0.61,"epc":385.81,"ecefx":3841083.87,"ecefy":716186.53,"ecefz":5024461.16,"ecefvx":-1.96,"ecefvy":2.14,"ecefvz":1.22,"ecefpAcc":3.97,"ecefvAcc":0.61,"velN":1.960,"velE":2.463,"velD":-0.027,"geoidSep":43.899,"eph":23.750,"sep":48.640}
{"class":"SKY","device":"/dev/ttyACM0","time":"2024-06-04T12:22:49.750Z","gdop":2.82,"hdop":1.25,"pdop":2.56,"tdop":1.43,"xdop":0.62,"ydop":0.99,"vdop":2.08,"uSat":8}
{"class":"SKY","device":"/dev/ttyACM0","time":"2024-06-04T12:22:49.750Z","gdop":2.97,"hdop":1.41,"pdop":2.56,"tdop":1.50,"xdop":0.62,"ydop":0.99,"vdop":2.14,"uSat":8}
{"class":"TPV","device":"/dev/ttyACM0","mode":3,"time":"2024-06-04T12:22:49.998Z","leapseconds":18,"ept":0.005,"lat":52.315849958,"lon":10.561763886,"altHAE":122.5677,"altMSL":78.6691,"alt":78.6691,"epx":9.280,"epy":14.902,"epv":47.840,"track":51.4849,"magtrack":54.7044,"magvar":3.2,"speed":3.148,"climb":0.027,"eps":120.18,"epc":385.81,"ecefx":3841083.87,"ecefy":716186.53,"ecefz":5024461.16,"ecefvx":-1.96,"ecefvy":2.14,"ecefvz":1.22,"ecefpAcc":3.97,"ecefvAcc":0.61,"velN":1.960,"velE":2.463,"velD":-0.027,"geoidSep":43.899,"eph":23.750,"sep":48.640}
{"class":"SKY","device":"/dev/ttyACM0","time":"2024-06-04T12:22:49.998Z","gdop":2.97,"hdop":1.41,"pdop":2.56,"tdop":1.50,"xdop":0.62,"ydop":0.99,"vdop":2.14,"nSat":11,"uSat":7,"satellites":[{"PRN":2,"gnssid":0,"svid":2,"az":278.0,"el":42.0,"ss":49.0,"used":true,"health":1},{"PRN":22,"gnssid":0,"svid":22,"az":336.0,"el":6.0,"ss":26.0,"used":false,"health":1},{"PRN":32,"gnssid":0,"svid":32,"az":112.0,"el":33.0,"ss":47.0,"used":true,"health":1},{"PRN":33,"gnssid":1,"svid":120,"az":0.0,"el":-9.0,"ss":0.0,"used":false,"health":1},{"PRN":14,"gnssid":0,"svid":14,"az":320.0,"el":18.0,"ss":41.0,"used":true,"health":1},{"PRN":24,"gnssid":0,"svid":24,"az":35.0,"el":1.0,"ss":19.0,"used":false,"health":1},{"PRN":8,"gnssid":0,"svid":8,"az":200.0,"el":71.0,"ss":48.0,"used":true,"health":1},{"PRN":10,"gnssid":0,"svid":10,"az":62.0,"el":52.0,"ss":46.0,"used":true,"health":1},{"PRN":23,"gnssid":0,"svid":23,"az":50.0,"el":18.0,"ss":35.0,"used":false,"health":1},{"PRN":21,"gnssid":0,"svid":21,"az":281.0,"el":60.0,"ss":43.0,"used":true,"health":1},{"PRN":27,"gnssid":0,"svid":27,"az":153.0,"el":42.0,"ss":45.0,"used":true,"health":1}]}
{"class":"TPV","device":"/dev/ttyACM0","mode":3,"time":"2024-06-04T12:22:50.250Z","leapseconds":18,"ept":0.005,"lat":52.315854166,"lon":10.561773564,"altHAE":122.5598,"altMSL":78.6612,"alt":78.6612,"epx":9.280,"epy":14.902,"epv":49.220,"track":54.7770,"magtrack":57.9965,"magvar":3.2,"speed":3.280,"climb":0.005,"eps":0.62,"epc":385.16,"ecefx":3841083.38,"ecefy":716187.11,"ecefz":5024461.44,"ecefvx":-1.96,"ecefvy":2.36,"ecefvz":1.16,"ecefpAcc":3.97,"ecefvAcc":0.62,"velN":1.892,"velE":2.679,"velD":-0.005,"geoidSep":43.899,"eph":26.790,"sep":54.530}
{"class":"SKY","device":"/dev/ttyACM0","time":"2024-06-04T12:22:49.998Z","gdop":2.97,"hdop":1.41,"pdop":2.87,"tdop":1.50,"xdop":0.62,"ydop":0.99,"vdop":2.14,"uSat":8}
{"class":"SKY","device":"/dev/ttyACM0","time":"2024-06-04T12:22:49.998Z","gdop":3.39,"hdop":1.53,"pdop":2.87,"tdop":1.82,"xdop":0.62,"ydop":0.99,"vdop":2.43,"uSat":8}
{"class":"TPV","device":"/dev/ttyACM0","mode":3,"time":"2024-06-04T12:22:50.250Z","leapseconds":18,"ept":0.005,"lat":52.315854166,"lon":10.561773564,"altHAE":122.5598,"altMSL":78.6612,"alt":78.6612,"epx":9.280,"epy":14.902,"epv":49.220,"track":54.7770,"magtrack":57.9965,"magvar":3.2,"speed":3.280,"climb":0.005,"eps":118.27,"epc":385.16,"ecefx":3841083.38,"ecefy":716187.11,"ecefz":5024461.44,"ecefvx":-1.96,"ecefvy":2.36,"ecefvz":1.16,"ecefpAcc":3.97,"ecefvAcc":0.62,"velN":1.892,"velE":2.679,"velD":-0.005,"geoidSep":43.899,"eph":26.790,"sep":54.530}
{"class":"SKY","device":"/dev/ttyACM0","time":"2024-06-04T12:22:50.250Z","gdop":3.39,"hdop":1.53,"pdop":2.87,"tdop":1.82,"xdop":0.62,"ydop":0.99,"vdop":2.43,"nSat":11,"uSat":6,"satellites":[{"PRN":2,"gnssid":0,"svid":2,"az":278.0,"el":42.0,"ss":49.0,"used":true,"health":1},{"PRN":22,"gnssid":0,"svid":22,"az":336.0,"el":6.0,"ss":24.0,"used":false,"health":1},{"PRN":32,"gnssid":0,"svid":32,"az":112.0,"el":33.0,"ss":45.0,"used":false,"health":1},{"PRN":33,"gnssid":1,"svid":120,"az":0.0,"el":-9.0,"ss":0.0,"used":false,"health":1},{"PRN":14,"gnssid":0,"svid":14,"az":320.0,"el":18.0,"ss":42.0,"used":true,"health":1},{"PRN":24,"gnssid":0,"svid":24,"az":35.0,"el":1.0,"ss":20.0,"used":false,"health":1},{"PRN":8,"gnssid":0,"svid":8,"az":200.0,"el":71.0,"ss":47.0,"used":true,"health":1},{"PRN":10,"gnssid":0,"svid":10,"az":62.0,"el":52.0,"ss":45.0,"used":true,"health":1},{"PRN":23,"gnssid":0,"svid":23,"az":50.0,"el":18.0,"ss":34.0,"used":false,"health":1},{"PRN":21,"gnssid":0,"svid":21,"az":281.0,"el":60.0,"ss":44.0,"used":true,"health":1},{"PRN":27,"gnssid":0,"svid":27,"az":153.0,"el":42.0,"ss":45.0,"used":true,"health":1}]}
{"class":"TPV","device":"/dev/ttyACM0","mode":3,"time":"2024-06-04T12:22:50.498Z","leapseconds":18,"ept":0.005,"lat":52.315858352,"lon":10.561783872,"altHAE":122.5285,"altMSL":78.6300,"alt":78.6300,"epx":9.280,"epy":14.902,"epv":55.890,"track":55.6952,"magtrack":58.9147,"magvar":3.2,"speed":3.478,"climb":0.002,"eps":0.62,"epc":423.83,"ecefx":3841082.87,"ecefy":716187.73,"ecefz":5024461.70,"ecefvx":-2.05,"ecefvy":2.54,"ecefvz":1.20,"ecefpAcc":3.98,"ecefvAcc":0.62,"velN":1.960,"velE":2.873,"velD":-0.002,"geoidSep":43.899,"eph":29.070,"sep":49.210}
{"class":"SKY","device":"/dev/ttyACM0","time":"2024-06-04T12:22:50.250Z","gdop":3.39,"hdop":1.53,"pdop":2.59,"tdop":1.82,"xdop":0.62,"ydop":0.99,"vdop":2.43,"uSat":8}
{"class":"SKY","device":"/dev/ttyACM0","time":"2024-06-04T12:22:50.250Z","gdop":3.03,"hdop":1.35,"pdop":2.59,"tdop":1.58,"xdop":0.62,"ydop":0.99,"vdop":2.21,"uSat":8}
{"class":"TPV","device":"/dev/ttyACM0","mode":3,"time":"2024-06-04T12:22:50.498Z","leapseconds":18,"ept":0.005,"lat":52.315858352,"lon":10.561783872,"altHAE":122.5285,"altMSL":78.6300,"alt":78.6300,"epx":9.280,"epy":14.902,"epv":55.890,"track":55.6952,"magtrack":58.9147,"magvar":3.2,"speed":3.478,"climb":0.002,"eps":120.18,"epc":423.83,"ecefx":3841082.87,"ecefy":716187.73,"ecefz":5024461.70,"ecefvx":-2.05,"ecefvy":2.54,"ecefvz":1.20,"ecefpAcc":3.98,"ecefvAcc":0.62,"velN":1.960,"velE":2.873,"velD":-0.002,"geoidSep":43.899,"eph":29.070,"sep":49.210}
{"class":"SKY","device":"/dev/ttyACM0","time":"2024-06-04T12:22:50.498Z","gdop":3.03,"hdop":1.35,"pdop":2.59,"tdop":1.58,"xdop":0.62,"ydop":0.99,"vdop":2.21,"nSat":11,"uSat":7,"satellites":[{"PRN":2,"gnssid":0,"svid":2,"az":278.0,"el":42.0,"ss":49.0,"used":true,"health":1},{"PRN":22,"gnssid":0,"svid":22,"az":336.0,"el":6.0,"ss":27.0,"used":false,"health":1},{"PRN":32,"gnssid":0,"svid":32,"az":112.0,"el":33.0,"ss":43.0,"used":false,"health":1},{"PRN":33,"gnssid":1,"svid":120,"az":0.0,"el":-9.0,"ss":0.0,"used":false,"health":1},{"PRN":14,"gnssid":0,"svid":14,"az":320.0,"el":18.0,"ss":39.0,"used":true,"health":1},{"PRN":24,"gnssid":0,"svid":24,"az":35.0,"el":1.0,"ss":20.0,"used":false,"health":1},{"PRN":8,"gnssid":0,"svid":8,"az":200.0,"el":71.0,"ss":47.0,"used":true,"health":1},{"PRN":10,"gnssid":0,"svid":10,"az":62.0,"el":52.0,"ss":46.0,"used":true,"health":1},{"PRN":23,"gnssid":0,"svid":23,"az":50.0,"el":18.0,"ss":35.0,"used":true,"health":1},{"PRN":21,"gnssid":0,"svid":21,"az":281.0,"el":60.0,"ss":43.0,"used":true,"health":1},{"PRN":27,"gnssid":0,"svid":27,"az":153.0,"el":42.0,"ss":44.0,"used":true,"health":1}]}
{"class":"TPV","device":"/dev/ttyACM0","mode":3,"time":"2024-06-04T12:22:50.750Z","leapseconds":18,"ept":0.005,"lat":52.315862394,"lon":10.561795361,"altHAE":122.4844,"altMSL":78.5859,"alt":78.5859,"epx":9.280,"epy":14.902,"epv":50.830,"track":58.2740,"magtrack":61.4935,"magvar":3.2,"speed":3.632,"climb":0.003,"eps":0.61,"epc":423.49,"ecefx":3841082.35,"ecefy":716188.43,"ecefz":5024461.94,"ecefvx":-2.05,"ecefvy":2.76,"ecefvz":1.17,"ecefpAcc":3.98,"ecefvAcc":0.61,"velN":1.910,"velE":3.089,"velD":-0.003,"geoidSep":43.899,"eph":25.650,"sep":45.980}
{"class":"SKY","device":"/dev/ttyACM0","time":"2024-06-04T12:22:50.498Z","gdop":3.03,"hdop":1.35,"pdop":2.42,"tdop":1.58,"xdop":0.62,"ydop":0.99,"vdop":2.21,"uSat":8}
{"class":"SKY","device":"/dev/ttyACM0","time":"2024-06-04T12:22:50.498Z","gdop":2.81,"hdop":1.25,"pdop":2.42,"tdop":1.43,"xdop":0.62,"ydop":0.99,"vdop":2.08,"uSat":8}
{"class":"TPV","device":"/dev/ttyACM0","mode":3,"time":"2024-06-04T12:22:50.750Z","leapseconds":18,"ept":0.005,"lat":52.315862394,"lon":10.561795361,"altHAE":122.4844,"altMSL":78.5859,"alt":78.5859,"epx":9.280,"epy":14.902,"epv":50.830,"track":58.2740,"magtrack":61.4935,"magvar":3.2,"speed":3.632,"climb":0.003,"eps":118.27,"epc":423.49,"ecefx":3841082.35,"ecefy":716188.43,"ecefz":5024461.94,"ecefvx":-2.05,"ecefvy":2.76,"ecefvz":1.17,"ecefpAcc":3.98,"ecefvAcc":0.61,"velN":1.910,"velE":3.089,"velD":-0.003,"geoidSep":43.899,"eph":25.650,"sep":45.980}
{"class":"SKY","device":"/dev/ttyACM0","time":"2024-06-04T12:22:50.750Z","gdop":2.81,"hdop":1.25,"pdop":2.42,"tdop":1.43,"xdop":0.62,"ydop":0.99,"vdop":2.08,"nSat":11,"uSat":8,"satellites":[{"PRN":2,"gnssid":0,"svid":2,"az":278.0,"el":42.0,"ss":49.0,"used":true,"health":1},{"PRN":22,"gnssid":0,"svid":22,"az":336.0,"el":6.0,"ss":27.0,"used":false,"health":1},{"PRN":32,"gnssid":0,"svid":32,"az":112.0,"el":33.0,"ss":43.0,"used":true,"health":1},{"PRN":33,"gnssid":1,"svid":120,"az":0.0,"el":-9.0,"ss":0.0,"used":false,"health":1},{"PRN":14,"gnssid":0,"svid":14,"az":320.0,"el":18.0,"ss":37.0,"used":true,"health":1},{"PRN":24,"gnssid":0,"svid":24,"az":35.0,"el":1.0,"ss":19.0,"used":false,"health":1},{"PRN":8,"gnssid":0,"svid":8,"az":200.0,"el":71.0,"ss":47.0,"used":true,"health":1},{"PRN":10,"gnssid":0,"svid":10,"az":62.0,"el":52.0,"ss":46.0,"used":true,"health":1},{"PRN":23,"gnssid":0,"svid":23,"az":50.0,"el":18.0,"ss":36.0,"used":true,"health":1},{"PRN":21,"gnssid":0,"svid":21,"az":281.0,"el":60.0,"ss":42.0,"used":true,"health":1},{"PRN":27,"gnssid":0,"svid":27,"az":153.0,"el":42.0,"ss":44.0,"used":true,"health":1}]}
{"class":"TPV","device":"/dev/ttyACM0","mode":3,"time":"2024-06-04T12:22:50.998Z","leapseconds":18,"ept":0.005,"lat":52.315866120,"lon":10.561807516,"altHAE":122.4421,"altMSL":78.5436,"alt":78.5436,"epx":9.280,"epy":14.902,"epv":47.840,"track":60.4733,"magtrack":63.6928,"magvar":3.2,"speed":3.814,"climb":0.001,"eps":0.62,"epc":397.86,"ecefx":3841081.85,"ecefy":716189.18,"ecefz":5024462.16,"ecefvx":-2.07,"ecefvy":2.99,"ecefvz":1.15,"ecefpAcc":3.99,"ecefvAcc":0.62,"velN":1.880,"velE":3.319,"velD":-0.001,"geoidSep":43.899,"eph":23.750,"sep":48.640}
{"class":"SKY","device":"/dev/ttyACM0","time":"2024-06-04T12:22:50.750Z","gdop":2.81,"hdop":1.25,"pdop":2.56,"tdop":1.43,"xdop":0.62,"ydop":0.99,"vdop":2.08,"uSat":8}
{"class":"SKY","device":"/dev/ttyACM0","time":"2024-06-04T12:22:50.750Z","gdop":2.97,"hdop":1.41,"pdop":2.56,"tdop":1.50,"xdop":0.62,"ydop":0.99,"vdop":2.14,"uSat":8}
{"class":"TPV","device":"/dev/ttyACM0","mode":3,"time":"2024-06-04T12:22:50.998Z","leapseconds":18,"ept":0.005,"lat":52.315866120,"lon":10.561807516,"altHAE":122.4421,"altMSL":78.5436,"alt":78.5436,"epx":9.280,"epy":14.902,"epv":47.840,"track":60.4733,"magtrack":63.6928,"magvar":3.2,"speed":3.814,"climb":0.001,"eps":120.18,"epc":397.86,"ecefx":3841081.85,"ecefy":716189.18,"ecefz":5024462.16,"ecefvx":-2.07,"ecefvy":2.99,"ecefvz":1.15,"ecefpAcc":3.99,"ecefvAcc":0.62,"velN":1.880,"velE":3.319,"velD":-0.001,"geoidSep":43.899,"eph":23.750,"sep":48.640}
{"class":"SKY","device":"/dev/ttyACM0","time":"2024-06-04T12:22:50.998Z","gdop":2.97,"hdop":1.41,"pdop":2.56,"tdop":1.50,"xdop":0.62,"ydop":0.99,"vdop":2.14,"nSat":11,"uSat":7,"satellites":[{"PRN":2,"gnssid":0,"svid":2,"az":278.0,"el":42.0,"ss":50.0,"used":true,"health":1},{"PRN":22,"gnssid":0,"svid":22,"az":336.0,"el":6.0,"ss":27.0,"used":false,"health":1},{"PRN":32,"gnssid":0,"svid":32,"az":112.0,"el":33.0,"ss":42.0,"used":true,"health":1},{"PRN":33,"gnssid":1,"svid":120,"az":0.0,"el":-9.0,"ss":0.0,"used":false,"health":1},{"PRN":14,"gnssid":0,"svid":14,"az":320.0,"el":18.0,"ss":37.0,"used":true,"health":1},{"PRN":24,"gnssid":0,"svid":24,"az":35.0,"el":1.0,"ss":20.0,"used":false,"health":1},{"PRN":8,"gnssid":0,"svid":8,"az":200.0,"el":71.0,"ss":47.0,"used":true,"health":1},{"PRN":10,"gnssid":0,"svid":10,"az":62.0,"el":52.0,"ss":46.0,"used":true,"health":1},{"PRN":23,"gnssid":0,"svid":23,"az":50.0,"el":18.0,"ss":35.0,"used":false,"health":1},{"PRN":21,"gnssid":0,"svid":21,"az":281.0,"el":60.0,"ss":41.0,"used":true,"health":1},{"PRN":27,"gnssid":0,"svid":27,"az":153.0,"el":42.0,"ss":45.0,"used":true,"health":1}]}
{"class":"TPV","device":"/dev/ttyACM0","mode":3,"time":"2024-06-04T12:22:51.250Z","leapseconds":18,"ept":0.005,"lat":52.315869934,"lon":10.561820537,"altHAE":122.4302,"altMSL":78.5317,"alt":78.5317,"epx":9.280,"epy":14.902,"epv":49.220,"track":63.1990,"magtrack":66.4185,"magvar":3.2,"speed":3.994,"climb":-0.026,"eps":0.61,"epc":385.16,"ecefx":3841081.35,"ecefy":716189.99,"ecefz":5024462.41,"ecefvx":-2.07,"ecefvy":3.24,"ecefvz":1.08,"ecefpAcc":3.99,"ecefvAcc":0.61,"velN":1.801,"velE":3.565,"velD":0.026,"geoidSep":43.898,"eph":26.790,"sep":48.640}
{"class":"SKY","device":"/dev/ttyACM0","time":"2024-06-04T12:22:50.998Z","gdop":2.97,"hdop":1.41,"pdop":2.56,"tdop":1.50,"xdop":0.62,"ydop":0.99,"vdop":2.14,"uSat":8}
{"class":"SKY","device":"/dev/ttyACM0","time":"2024-06-04T12:22:50.998Z","gdop":2.97,"hdop":1.41,"pdop":2.56,"tdop":1.50,"xdop":0.62,"ydop":0.99,"vdop":2.14,"uSat":8}
{"class":"TPV","device":"/dev/ttyACM0","mode":3,"time":"2024-06-04T12:22:51.250Z","leapseconds":18,"ept":0.005,"lat":52.315869934,"lon":10.561820537,"altHAE":122.4302,"altMSL":78.5317,"alt":78.5317,"epx":9.280,"epy":14.902,"epv":49.220,"track":63.1990,"magtrack":66.4185,"magvar":3.2,"speed":3.994,"climb":-0.026,"eps":118.27,"epc":385.16,"ecefx":3841081.35,"ecefy":716189.99,"ecefz":5024462.41,"ecefvx":-2.07,"ecefvy":3.24,"ecefvz":1.08,"ecefpAcc":3.99,"ecefvAcc":0.61,"velN":1.801,"velE":3.565,"velD":0.026,"geoidSep":43.898,"eph":26.790,"sep":48.640}
{"class":"SKY","device":"/dev/ttyACM0","time":"2024-06-04T12:22:51.250Z","gdop":2.97,"hdop":1.41,"pdop":2.56,"tdop":1.50,"xdop":0.62,"ydop":0.99,"vdop":2.14,"nSat":11,"uSat":7,"satellites":[{"PRN":2,"gnssid":0,"svid":2,"az":278.0,"el":42.0,"ss":51.0,"used":true,"health":1},{"PRN":22,"gnssid":0,"svid":22,"az":336.0,"el":6.0,"ss":27.0,"used":false,"health":1},{"PRN":32,"gnssid":0,"svid":32,"az":112.0,"el":33.0,"ss":43.0,"used":true,"health":1},{"PRN":37,"gnssid":1,"svid":124,"az":0.0,"el":-9.0,"ss":0.0,"used":false,"health":1},{"PRN":14,"gnssid":0,"svid":14,"az":320.0,"el":18.0,"ss":39.0,"used":true,"health":1},{"PRN":24,"gnssid":0,"svid":24,"az":35.0,"el":1.0,"ss":19.0,"used":false,"health":1},{"PRN":8,"gnssid":0,"svid":8,"az":200.0,"el":71.0,"ss":47.0,"used":true,"health":1},{"PRN":10,"gnssid":0,"svid":10,"az":62.0,"el":52.0,"ss":46.0,"used":true,"health":1},{"PRN":23,"gnssid":0,"svid":23,"az":50.0,"el":18.0,"ss":35.0,"used":false,"health":1},{"PRN":21,"gnssid":0,"svid":21,"az":281.0,"el":60.0,"ss":41.0,"used":true,"health":1},{"PRN":27,"gnssid":0,"svid":27,"az":153.0,"el":42.0,"ss":45.0,"used":true,"health":1}]}
{"class":"TPV","device":"/dev/ttyACM0","mode":3,"time":"2024-06-04T12:22:51.498Z","leapseconds":18,"ept":0.005,"lat":52.315873435,"lon":10.561834161,"altHAE":122.3693,"altMSL":78.4709,"alt":78.4709,"epx":9.280,"epy":14.902,"epv":49.220,"track":65.0619,"magtrack":68.2814,"magvar":3.2,"speed":4.163,"climb":-0.054,"eps":0.61,"epc":396.93,"ecefx":3841080.84,"ecefy":716190.84,"ecefz":5024462.60,"ecefvx":-2.09,"ecefvy":3.45,"ecefvz":1.03,"ecefpAcc":4.00,"ecefvAcc":0.61,"velN":1.755,"velE":3.775,"velD":0.054,"geoidSep":43.898,"eph":26.790,"sep":48.830}
{"class":"SKY","device":"/dev/ttyACM0","time":"2024-06-04T12:22:51.250Z","gdop":2.97,"hdop":1.41,"pdop":2.57,"tdop":1.50,"xdop":0.62,"ydop":0.99,"vdop":2.14,"uSat":8}
{"class":"SKY","device":"/dev/ttyACM0","time":"2024-06-04T12:22:51.250Z","gdop":2.97,"hdop":1.41,"pdop":2.57,"tdop":1.50,"xdop":0.62,"ydop":0.99,"vdop":2.14,"uSat":8}
{"class":"TPV","device":"/dev/ttyACM0","mode":3,"time":"2024-06-04T12:22:51.498Z","leapseconds":18,"ept":0.005,"lat":52.315873435,"lon":10.561834161,"altHAE":122.3693,"altMSL":78.4709,"alt":78.4709,"epx":9.280,"epy":14.902,"epv":49.220,"track":65.0619,"magtrack":68.2814,"magvar":3.2,"speed":4.163,"climb":-0.054,"eps":120.18,"epc":396.93,"ecefx":3841080.84,"ecefy":716190.84,"ecefz":5024462.60,"ecefvx":-2.09,"ecefvy":3.45,"ecefvz":1.03,"ecefpAcc":4.00,"ecefvAcc":0.61,"velN":1.755,"velE":3.775,"velD":0.054,"geoidSep":43.898,"eph":26.790,"sep":48.830}
{"class":"SKY","device":"/dev/ttyACM0","time":"2024-06-04T12:22:51.498Z","gdop":2.97,"hdop":1.41,"pdop":2.57,"tdop":1.50,"xdop":0.62,"ydop":0.99,"vdop":2.14,"nSat":11,"uSat":7,"satellites":[{"PRN":2,"gnssid":0,"svid":2,"az":278.0,"el":42.0,"ss":51.0,"used":true,"health":1},{"PRN":22,"gnssid":0,"svid":22,"az":336.0,"el":6.0,"ss":27.0,"used":false,"health":1},{"PRN":32,"gnssid":0,"svid":32,"az":112.0,"el":33.0,"ss":44.0,"used":true,"health":1},{"PRN":37,"gnssid":1,"svid":124,"az":0.0,"el":-9.0,"ss":0.0,"used":false,"health":1},{"PRN":14,"gnssid":0,"svid":14,"az":320.0,"el":18.0,"ss":39.0,"used":true,"health":1},{"PRN":24,"gnssid":0,"svid":24,"az":35.0,"el":1.0,"ss":19.0,"used":false,"health":1},{"PRN":8,"gnssid":0,"svid":8,"az":200.0,"el":71.0,"ss":47.0,"used":true,"health":1},{"PRN":10,"gnssid":0,"svid":10,"az":62.0,"el":52.0,"ss":46.0,"used":true,"health":1},{"PRN":23,"gnssid":0,"svid":23,"az":50.0,"el":18.0,"ss":31.0,"used":false,"health":1},{"PRN":21,"gnssid":0,"svid":21,"az":281.0,"el":60.0,"ss":42.0,"used":true,"health":1},{"PRN":27,"gnssid":0,"svid":27,"az":153.0,"el":42.0,"ss":46.0,"used":true,"health":1}]}
{"class":"TPV","device":"/dev/ttyACM0","mode":3,"time":"2024-06-04T12:22:51.750Z","leapseconds":18,"ept":0.005,"lat":52.315876765,"lon":10.561848847,"altHAE":122.2726,"altMSL":78.3742,"alt":78.3742,"epx":9.280,"epy":14.902,"epv":49.220,"track":66.3931,"magtrack":69.6126,"magvar":3.2,"speed":4.298,"climb":-0.015,"eps":0.60,"epc":390.63,"ecefx":3841080.31,"ecefy":716191.76,"ecefz":5024462.75,"ecefvx":-2.07,"ecefvy":3.62,"ecefvz":1.04,"ecefpAcc":4.00,"ecefvAcc":0.60,"velN":1.721,"velE":3.938,"velD":0.015,"geoidSep":43.898,"eph":26.790,"sep":70.870}
{"class":"SKY","device":"/dev/ttyACM0","time":"2024-06-04T12:22:51.498Z","gdop":2.97,"hdop":1.41,"pdop":3.73,"tdop":1.50,"xdop":0.62,"ydop":0.99,"vdop":2.14,"uSat":8}
{"class":"SKY","device":"/dev/ttyACM0","time":"2024-06-04T12:22:51.498Z","gdop":4.55,"hdop":1.60,"pdop":3.73,"tdop":2.60,"xdop":0.62,"ydop":0.99,"vdop":3.37,"uSat":8}
{"class":"TPV","device":"/dev/ttyACM0","mode":3,"time":"2024-06-04T12:22:51.750Z","leapseconds":18,"ept":0.005,"lat":52.315876765,"lon":10.561848847,"altHAE":122.2726,"altMSL":78.3742,"alt":78.3742,"epx":9.280,"epy":14.902,"epv":49.220,"track":66.3931,"magtrack":69.6126,"magvar":3.2,"speed":4.298,"climb":-0.015,"eps":118.27,"epc":390.63,"ecefx":3841080.31,"ecefy":716191.76,"ecefz":5024462.75,"ecefvx":-2.07,"ecefvy":3.62,"ecefvz":1.04,"ecefpAcc":4.00,"ecefvAcc":0.60,"velN":1.721,"velE":3.938,"velD":0.015,"geoidSep":43.898,"eph":26.790,"sep":70.870}
{"class":"SKY","device":"/dev/ttyACM0","time":"2024-06-04T12:22:51.750Z","gdop":4.55,"hdop":1.60,"pdop":3.73,"tdop":2.60,"xdop":0.62,"ydop":0.99,"vdop":3.37,"nSat":11,"uSat":6,"satellites":[{"PRN":2,"gnssid":0,"svid":2,"az":278.0,"el":42.0,"ss":49.0,"used":true,"health":1},{"PRN":22,"gnssid":0,"svid":22,"az":336.0,"el":6.0,"ss":24.0,"used":false,"health":1},{"PRN":32,"gnssid":0,"svid":32,"az":112.0,"el":33.0,"ss":43.0,"used":true,"health":1},{"PRN":37,"gnssid":1,"svid":124,"az":0.0,"el":-9.0,"ss":0.0,"used":false,"health":1},{"PRN":14,"gnssid":0,"svid":14,"az":320.0,"el":18.0,"ss":42.0,"used":false,"health":1},{"PRN":24,"gnssid":0,"svid":24,"az":35.0,"el":1.0,"ss":19.0,"used":false,"health":1},{"PRN":8,"gnssid":0,"svid":8,"az":200.0,"el":71.0,"ss":47.0,"used":true,"health":1},{"PRN":10,"gnssid":0,"svid":10,"az":62.0,"el":52.0,"ss":46.0,"used":true,"health":1},{"PRN":23,"gnssid":0,"svid":23,"az":50.0,"el":18.0,"ss":30.0,"used":false,"health":1},{"PRN":21,"gnssid":0,"svid":21,"az":281.0,"el":60.0,"ss":43.0,"used":true,"health":1},{"PRN":27,"gnssid":0,"svid":27,"az":153.0,"el":42.0,"ss":46.0,"used":true,"health":1}]}
