{"class":"VERSION","release":"3.25","rev":"3.25","proto_major":3,"proto_minor":15}
{"class":"DEVICES","devices":[{"class":"DEVICE","path":"/dev/ttyACM0","driver":"u-blox","subtype":"SW 5.00    May 11 2006 14:40:17,HW 00040001","subtype1":"M4T1.2  May 11 2006 14:40:17","activated":"2024-06-04T12:11:46.374Z","flags":1,"native":1,"bps":57600,"parity":"N","stopbits":1,"cycle":1.00,"mincycle":0.02}]}
{"class":"WATCH","enable":true,"json":true,"nmea":false,"raw":0,"scaled":false,"timing":false,"split24":false,"pps":false}
{"class":"TPV","device":"/dev/ttyACM0","mode":3,"time":"2024-06-04T12:11:46.501Z","leapseconds":18,"ept":0.005,"lat":52.315801169,"lon":10.563188357,"altHAE":115.6670,"altMSL":71.7696,"alt":71.7696,"epx":9.280,"epy":14.902,"epv":57.270,"track":98.3950,"magtrack":101.6149,"magvar":3.2,"speed":0.010,"climb":0.001,"eps":0.40,"epc":454.52,"ecefx":3841066.14,"ecefy":716282.04,"ecefz":5024452.38,"ecefvx":0.00,"ecefvy":0.01,"ecefvz":0.00,"ecefpAcc":3.93,"ecefvAcc":0.40,"velN":-0.001,"velE":0.010,"velD":-0.001,"geoidSep":43.897,"eph":30.400,"sep":56.240}
{"class":"SKY","device":"/dev/ttyACM0","time":"2024-06-04T12:11:46.249Z","gdop":3.49,"hdop":1.60,"pdop":2.96,"tdop":1.86,"xdop":0.62,"ydop":0.99,"vdop":2.49,"uSat":8}
{"class":"SKY","device":"/dev/ttyACM0","time":"2024-06-04T12:11:46.249Z","gdop":3.49,"hdop":1.60,"pdop":2.96,"tdop":1.86,"xdop":0.62,"ydop":0.99,"vdop":2.49,"uSat":8}
{"class":"TPV","device":"/dev/ttyACM0","mode":3,"time":"2024-06-04T12:11:46.501Z","leapseconds":18,"ept":0.005,"lat":52.315801169,"lon":10.563188357,"altHAE":115.6670,"altMSL":71.7696,"alt":71.7696,"epx":9.280,"epy":14.902,"epv":57.270,"track":98.3950,"magtrack":101.6149,"magvar":3.2,"speed":0.010,"climb":0.001,"eps":118.27,"epc":454.52,"ecefx":3841066.14,"ecefy":716282.04,"ecefz":5024452.38,"ecefvx":0.00,"ecefvy":0.01,"ecefvz":0.00,"ecefpAcc":3.93,"ecefvAcc":0.40,"velN":-0.001,"velE":0.010,"velD":-0.001,"geoidSep":43.897,"eph":30.400,"sep":56.240}
{"class":"SKY","device":"/dev/ttyACM0","time":"2024-06-04T12:11:46.501Z","gdop":3.49,"hdop":1.60,"pdop":2.96,"tdop":1.86,"xdop":0.62,"ydop":0.99,"vdop":2.49,"nSat":11,"uSat":6,"satellites":[{"PRN":2,"gnssid":0,"svid":2,"az":275.0,"el":38.0,"ss":0.0,"used":false,"health":1},{"PRN":22,"gnssid":0,"svid":22,"az":338.0,"el":3.0,"ss":29.0,"used":false,"health":1},{"PRN":32,"gnssid":0,"svid":32,"az":116.0,"el":29.0,"ss":0.0,"used":false,"health":1},{"PRN":16,"gnssid":0,"svid":16,"az":188.0,"el":5.0,"ss":0.0,"used":false,"health":1},{"PRN":14,"gnssid":0,"svid":14,"az":324.0,"el":15.0,"ss":34.0,"used":true,"health":1},{"PRN":33,"gnssid":1,"svid":120,"az":0.0,"el":-9.0,"ss":0.0,"used":false,"health":1},{"PRN":8,"gnssid":0,"svid":8,"az":215.0,"el":74.0,"ss":48.0,"used":true,"health":1},{"PRN":10,"gnssid":0,"svid":10,"az":66.0,"el":56.0,"ss":51.0,"used":true,"health":1},{"PRN":23,"gnssid":0,"svid":23,"az":50.0,"el":22.0,"ss":46.0,"used":true,"health":1},{"PRN":21,"gnssid":0,"svid":21,"az":278.0,"el":55.0,"ss":44.0,"used":true,"health":1},{"PRN":27,"gnssid":0,"svid":27,"az":152.0,"el":47.0,"ss":46.0,"used":true,"health":1}]}
{"class":"TPV","device":"/dev/ttyACM0","mode":3,"time":"2024-06-04T12:11:46.749Z","leapseconds":18,"ept":0.005,"lat":52.315801044,"lon":10.563188330,"altHAE":115.6651,"altMSL":71.7677,"alt":71.7677,"epx":9.280,"epy":14.902,"epv":57.270,"track":0.0000,"magtrack":3.2199,"magvar":3.2,"speed":0.000,"climb":0.000,"eps":0.40,"epc":461.85,"ecefx":3841066.15,"ecefy":716282.04,"ecefz":5024452.37,"ecefvx":0.00,"ecefvy":0.00,"ecefvz":0.00,"ecefpAcc":3.93,"ecefvAcc":0.40,"velN":0.000,"velE":0.000,"velD":0.000,"geoidSep":43.897,"eph":30.400,"sep":56.240}
{"class":"SKY","device":"/dev/ttyACM0","time":"2024-06-04T12:11:46.501Z","gdop":3.49,"hdop":1.60,"pdop":2.96,"tdop":1.86,"xdop":0.62,"ydop":0.99,"vdop":2.49,"uSat":8}
{"class":"SKY","device":"/dev/ttyACM0","time":"2024-06-04T12:11:46.501Z","gdop":3.49,"hdop":1.60,"pdop":2.96,"tdop":1.86,"xdop":0.62,"ydop":0.99,"vdop":2.49,"uSat":8}
{"class":"TPV","device":"/dev/ttyACM0","mode":3,"time":"2024-06-04T12:11:46.749Z","leapseconds":18,"ept":0.005,"lat":52.315801044,"lon":10.563188330,"altHAE":115.6651,"altMSL":71.7677,"alt":71.7677,"epx":9.280,"epy":14.902,"epv":57.270,"track":0.0000,"magtrack":3.2199,"magvar":3.2,"speed":0.000,"climb":0.000,"eps":120.18,"epc":461.85,"ecefx":3841066.15,"ecefy":716282.04,"ecefz":5024452.37,"ecefvx":0.00,"ecefvy":0.00,"ecefvz":0.00,"ecefpAcc":3.93,"ecefvAcc":0.40,"velN":0.000,"velE":0.000,"velD":0.000,"geoidSep":43.897,"eph":30.400,"sep":56.240}
{"class":"SKY","device":"/dev/ttyACM0","time":"2024-06-04T12:11:46.749Z","gdop":3.49,"hdop":1.60,"pdop":2.96,"tdop":1.86,"xdop":0.62,"ydop":0.99,"vdop":2.49,"nSat":11,"uSat":6,"satellites":[{"PRN":2,"gnssid":0,"svid":2,"az":275.0,"el":38.0,"ss":0.0,"used":false,"health":1},{"PRN":22,"gnssid":0,"svid":22,"az":338.0,"el":3.0,"ss":29.0,"used":false,"health":1},{"PRN":32,"gnssid":0,"svid":32,"az":116.0,"el":29.0,"ss":0.0,"used":false,"health":1},{"PRN":16,"gnssid":0,"svid":16,"az":188.0,"el":5.0,"ss":0.0,"used":false,"health":1},{"PRN":14,"gnssid":0,"svid":14,"az":324.0,"el":15.0,"ss":34.0,"used":true,"health":1},{"PRN":37,"gnssid":1,"svid":124,"az":0.0,"el":-9.0,"ss":0.0,"used":false,"health":1},{"PRN":8,"gnssid":0,"svid":8,"az":215.0,"el":74.0,"ss":48.0,"used":true,"health":1},{"PRN":10,"gnssid":0,"svid":10,"az":66.0,"el":56.0,"ss":51.0,"used":true,"health":1},{"PRN":23,"gnssid":0,"svid":23,"az":50.0,"el":22.0,"ss":46.0,"used":true,"health":1},{"PRN":21,"gnssid":0,"svid":21,"az":278.0,"el":55.0,"ss":44.0,"used":true,"health":1},{"PRN":27,"gnssid":0,"svid":27,"az":152.0,"el":47.0,"ss":46.0,"used":true,"health":1}]}
{"class":"TPV","device":"/dev/ttyACM0","mode":3,"time":"2024-06-04T12:11:47.001Z","leapseconds":18,"ept":0.005,"lat":52.315800919,"lon":10.563188303,"altHAE":115.6632,"altMSL":71.7658,"alt":71.7658,"epx":9.280,"epy":14.902,"epv":57.270,"track":0.0000,"magtrack":3.2199,"magvar":3.2,"speed":0.000,"climb":0.000,"eps":0.40,"epc":454.52,"ecefx":3841066.16,"ecefy":716282.04,"ecefz":5024452.36,"ecefvx":0.00,"ecefvy":0.00,"ecefvz":0.00,"ecefpAcc":3.94,"ecefvAcc":0.40,"velN":0.000,"velE":0.000,"velD":0.000,"geoidSep":43.897,"eph":30.400,"sep":56.240}
{"class":"SKY","device":"/dev/ttyACM0","time":"2024-06-04T12:11:46.749Z","gdop":3.49,"hdop":1.60,"pdop":2.96,"tdop":1.86,"xdop":0.62,"ydop":0.99,"vdop":2.49,"uSat":8}
{"class":"SKY","device":"/dev/ttyACM0","time":"2024-06-04T12:11:46.749Z","gdop":3.49,"hdop":1.60,"pdop":2.96,"tdop":1.86,"xdop":0.62,"ydop":0.99,"vdop":2.49,"uSat":8}
{"class":"TPV","device":"/dev/ttyACM0","mode":3,"time":"2024-06-04T12:11:47.001Z","leapseconds":18,"ept":0.005,"lat":52.315800919,"lon":10.563188303,"altHAE":115.6632,"altMSL":71.7658,"alt":71.7658,"epx":9.280,"epy":14.902,"epv":57.270,"track":0.0000,"magtrack":3.2199,"magvar":3.2,"speed":0.000,"climb":0.000,"eps":118.27,"epc":454.52,"ecefx":3841066.16,"ecefy":716282.04,"ecefz":5024452.36,"ecefvx":0.00,"ecefvy":0.00,"ecefvz":0.00,"ecefpAcc":3.94,"ecefvAcc":0.40,"velN":0.000,"velE":0.000,"velD":0.000,"geoidSep":43.897,"eph":30.400,"sep":56.240}
{"class":"SKY","device":"/dev/ttyACM0","time":"2024-06-04T12:11:47.001Z","gdop":3.49,"hdop":1.60,"pdop":2.96,"tdop":1.86,"xdop":0.62,"ydop":0.99,"vdop":2.49,"nSat":11,"uSat":6,"satellites":[{"PRN":2,"gnssid":0,"svid":2,"az":275.0,"el":38.0,"ss":0.0,"used":false,"health":1},{"PRN":22,"gnssid":0,"svid":22,"az":338.0,"el":3.0,"ss":30.0,"used":false,"health":1},{"PRN":32,"gnssid":0,"svid":32,"az":116.0,"el":29.0,"ss":0.0,"used":false,"health":1},{"PRN":16,"gnssid":0,"svid":16,"az":188.0,"el":5.0,"ss":0.0,"used":false,"health":1},{"PRN":14,"gnssid":0,"svid":14,"az":324.0,"el":15.0,"ss":34.0,"used":true,"health":1},{"PRN":37,"gnssid":1,"svid":124,"az":0.0,"el":-9.0,"ss":0.0,"used":false,"health":1},{"PRN":8,"gnssid":0,"svid":8,"az":215.0,"el":74.0,"ss":48.0,"used":true,"health":1},{"PRN":10,"gnssid":0,"svid":10,"az":66.0,"el":56.0,"ss":51.0,"used":true,"health":1},{"PRN":23,"gnssid":0,"svid":23,"az":50.0,"el":22.0,"ss":46.0,"used":true,"health":1},{"PRN":21,"gnssid":0,"svid":21,"az":278.0,"el":55.0,"ss":44.0,"used":true,"health":1},{"PRN":27,"gnssid":0,"svid":27,"az":152.0,"el":47.0,"ss":46.0,"used":true,"health":1}]}
{"class":"TPV","device":"/dev/ttyACM0","mode":3,"time":"2024-06-04T12:11:47.249Z","leapseconds":18,"ept":0.005,"lat":52.315800864,"lon":10.563188303,"altHAE":115.6553,"altMSL":71.7579,"alt":71.7579,"epx":9.280,"epy":14.902,"epv":57.270,"track":0.0000,"magtrack":3.2199,"magvar":3.2,"speed":0.000,"climb":0.000,"eps":0.40,"epc":461.85,"ecefx":3841066.16,"ecefy":716282.04,"ecefz":5024452.35,"ecefvx":0.00,"ecefvy":0.00,"ecefvz":0.00,"ecefpAcc":3.94,"ecefvAcc":0.40,"velN":0.000,"velE":0.000,"velD":0.000,"geoidSep":43.897,"eph":30.400,"sep":56.050}
{"class":"SKY","device":"/dev/ttyACM0","time":"2024-06-04T12:11:47.001Z","gdop":3.49,"hdop":1.60,"pdop":2.95,"tdop":1.86,"xdop":0.62,"ydop":0.99,"vdop":2.49,"uSat":8}
{"class":"SKY","device":"/dev/ttyACM0","time":"2024-06-04T12:11:47.001Z","gdop":3.49,"hdop":1.60,"pdop":2.95,"tdop":1.86,"xdop":0.62,"ydop":0.99,"vdop":2.49,"uSat":8}
{"class":"TPV","device":"/dev/ttyACM0","mode":3,"time":"2024-06-04T12:11:47.249Z","leapseconds":18,"ept":0.005,"lat":52.315800864,"lon":10.563188303,"altHAE":115.6553,"altMSL":71.7579,"alt":71.7579,"epx":9.280,"epy":14.902,"epv":57.270,"track":0.0000,"magtrack":3.2199,"magvar":3.2,"speed":0.000,"climb":0.000,"eps":120.18,"epc":461.85,"ecefx":3841066.16,"ecefy":716282.04,"ecefz":5024452.35,"ecefvx":0.00,"ecefvy":0.00,"ecefvz":0.00,"ecefpAcc":3.94,"ecefvAcc":0.40,"velN":0.000,"velE":0.000,"velD":0.000,"geoidSep":43.897,"eph":30.400,"sep":56.050}
{"class":"SKY","device":"/dev/ttyACM0","time":"2024-06-04T12:11:47.249Z","gdop":3.49,"hdop":1.60,"pdop":2.95,"tdop":1.86,"xdop":0.62,"ydop":0.99,"vdop":2.49,"nSat":11,"uSat":6,"satellites":[{"PRN":2,"gnssid":0,"svid":2,"az":275.0,"el":38.0,"ss":0.0,"used":false,"health":1},{"PRN":22,"gnssid":0,"svid":22,"az":338.0,"el":3.0,"ss":30.0,"used":false,"health":1},{"PRN":32,"gnssid":0,"svid":32,"az":116.0,"el":29.0,"ss":0.0,"used":false,"health":1},{"PRN":16,"gnssid":0,"svid":16,"az":188.0,"el":5.0,"ss":0.0,"used":false,"health":1},{"PRN":14,"gnssid":0,"svid":14,"az":324.0,"el":15.0,"ss":34.0,"used":true,"health":1},{"PRN":37,"gnssid":1,"svid":124,"az":0.0,"el":-9.0,"ss":0.0,"used":false,"health":1},{"PRN":8,"gnssid":0,"svid":8,"az":215.0,"el":74.0,"ss":48.0,"used":true,"health":1},{"PRN":10,"gnssid":0,"svid":10,"az":66.0,"el":56.0,"ss":51.0,"used":true,"health":1},{"PRN":23,"gnssid":0,"svid":23,"az":50.0,"el":22.0,"ss":46.0,"used":true,"health":1},{"PRN":21,"gnssid":0,"svid":21,"az":278.0,"el":55.0,"ss":44.0,"used":true,"health":1},{"PRN":27,"gnssid":0,"svid":27,"az":152.0,"el":47.0,"ss":46.0,"used":true,"health":1}]}
{"class":"TPV","device":"/dev/ttyACM0","mode":3,"time":"2024-06-04T12:11:47.501Z","leapseconds":18,"ept":0.005,"lat":52.315800726,"lon":10.563188420,"altHAE":115.6545,"altMSL":71.7571,"alt":71.7571,"epx":9.280,"epy":14.902,"epv":57.270,"track":0.0000,"magtrack":3.2199,"magvar":3.2,"speed":0.000,"climb":0.000,"eps":0.40,"epc":454.52,"ecefx":3841066.17,"ecefy":716282.05,"ecefz":5024452.34,"ecefvx":0.00,"ecefvy":0.00,"ecefvz":0.00,"ecefpAcc":3.94,"ecefvAcc":0.40,"velN":0.000,"velE":0.000,"velD":0.000,"geoidSep":43.897,"eph":30.400,"sep":56.240}
{"class":"SKY","device":"/dev/ttyACM0","time":"2024-06-04T12:11:47.249Z","gdop":3.49,"hdop":1.60,"pdop":2.96,"tdop":1.86,"xdop":0.62,"ydop":0.99,"vdop":2.49,"uSat":8}
{"class":"SKY","device":"/dev/ttyACM0","time":"2024-06-04T12:11:47.249Z","gdop":3.49,"hdop":1.60,"pdop":2.96,"tdop":1.86,"xdop":0.62,"ydop":0.99,"vdop":2.49,"uSat":8}
{"class":"TPV","device":"/dev/ttyACM0","mode":3,"time":"2024-06-04T12:11:47.501Z","leapseconds":18,"ept":0.005,"lat":52.315800726,"lon":10.563188420,"altHAE":115.6545,"altMSL":71.7571,"alt":71.7571,"epx":9.280,"epy":14.902,"epv":57.270,"track":0.0000,"magtrack":3.2199,"magvar":3.2,"speed":0.000,"climb":0.000,"eps":118.27,"epc":454.52,"ecefx":3841066.17,"ecefy":716282.05,"ecefz":5024452.34,"ecefvx":0.00,"ecefvy":0.00,"ecefvz":0.00,"ecefpAcc":3.94,"ecefvAcc":0.40,"velN":0.000,"velE":0.000,"velD":0.000,"geoidSep":43.897,"eph":30.400,"sep":56.240}
{"class":"SKY","device":"/dev/ttyACM0","time":"2024-06-04T12:11:47.501Z","gdop":3.49,"hdop":1.60,"pdop":2.96,"tdop":1.86,"xdop":0.62,"ydop":0.99,"vdop":2.49,"nSat":11,"uSat":6,"satellites":[{"PRN":2,"gnssid":0,"svid":2,"az":275.0,"el":38.0,"ss":0.0,"used":false,"health":1},{"PRN":22,"gnssid":0,"svid":22,"az":338.0,"el":3.0,"ss":30.0,"used":false,"health":1},{"PRN":32,"gnssid":0,"svid":32,"az":116.0,"el":29.0,"ss":0.0,"used":false,"health":1},{"PRN":16,"gnssid":0,"svid":16,"az":188.0,"el":5.0,"ss":0.0,"used":false,"health":1},{"PRN":14,"gnssid":0,"svid":14,"az":324.0,"el":15.0,"ss":34.0,"used":true,"health":1},{"PRN":37,"gnssid":1,"svid":124,"az":0.0,"el":-9.0,"ss":0.0,"used":false,"health":1},{"PRN":8,"gnssid":0,"svid":8,"az":215.0,"el":74.0,"ss":48.0,"used":true,"health":1},{"PRN":10,"gnssid":0,"svid":10,"az":66.0,"el":56.0,"ss":51.0,"used":true,"health":1},{"PRN":23,"gnssid":0,"svid":23,"az":50.0,"el":22.0,"ss":46.0,"used":true,"health":1},{"PRN":21,"gnssid":0,"svid":21,"az":278.0,"el":55.0,"ss":44.0,"used":true,"health":1},{"PRN":27,"gnssid":0,"svid":27,"az":152.0,"el":47.0,"ss":46.0,"used":true,"health":1}]}
{"class":"TPV","device":"/dev/ttyACM0","mode":3,"time":"2024-06-04T12:11:47.749Z","leapseconds":18,"ept":0.005,"lat":52.315800601,"lon":10.563188394,"altHAE":115.6526,"altMSL":71.7552,"alt":71.7552,"epx":9.280,"epy":14.902,"epv":57.270,"track":0.0000,"magtrack":3.2199,"magvar":3.2,"speed":0.006,"climb":0.008,"eps":0.40,"epc":461.85,"ecefx":3841066.18,"ecefy":716282.05,"ecefz":5024452.33,"ecefvx":0.00,"ecefvy":0.00,"ecefvz":0.01,"ecefpAcc":3.94,"ecefvAcc":0.40,"velN":0.006,"velE":0.000,"velD":-0.008,"geoidSep":43.897,"eph":30.400,"sep":56.050}
{"class":"SKY","device":"/dev/ttyACM0","time":"2024-06-04T12:11:47.501Z","gdop":3.49,"hdop":1.60,"pdop":2.95,"tdop":1.86,"xdop":0.62,"ydop":0.99,"vdop":2.49,"uSat":8}
{"class":"SKY","device":"/dev/ttyACM0","time":"2024-06-04T12:11:47.501Z","gdop":3.49,"hdop":1.60,"pdop":2.95,"tdop":1.86,"xdop":0.62,"ydop":0.99,"vdop":2.49,"uSat":8}
{"class":"TPV","device":"/dev/ttyACM0","mode":3,"time":"2024-06-04T12:11:47.749Z","leapseconds":18,"ept":0.005,"lat":52.315800601,"lon":10.563188394,"altHAE":115.6526,"altMSL":71.7552,"alt":71.7552,"epx":9.280,"epy":14.902,"epv":57.270,"track":0.0000,"magtrack":3.2199,"magvar":3.2,"speed":0.006,"climb":0.008,"eps":120.18,"epc":461.85,"ecefx":3841066.18,"ecefy":716282.05,"ecefz":5024452.33,"ecefvx":0.00,"ecefvy":0.00,"ecefvz":0.01,"ecefpAcc":3.94,"ecefvAcc":0.40,"velN":0.006,"velE":0.000,"velD":-0.008,"geoidSep":43.897,"eph":30.400,"sep":56.050}
{"class":"SKY","device":"/dev/ttyACM0","time":"2024-06-04T12:11:47.749Z","gdop":3.49,"hdop":1.60,"pdop":2.95,"tdop":1.86,"xdop":0.62,"ydop":0.99,"vdop":2.49,"nSat":11,"uSat":6,"satellites":[{"PRN":2,"gnssid":0,"svid":2,"az":275.0,"el":38.0,"ss":0.0,"used":false,"health":1},{"PRN":22,"gnssid":0,"svid":22,"az":338.0,"el":3.0,"ss":30.0,"used":false,"health":1},{"PRN":32,"gnssid":0,"svid":32,"az":116.0,"el":29.0,"ss":0.0,"used":false,"health":1},{"PRN":16,"gnssid":0,"svid":16,"az":188.0,"el":5.0,"ss":0.0,"used":false,"health":1},{"PRN":14,"gnssid":0,"svid":14,"az":324.0,"el":15.0,"ss":34.0,"used":true,"health":1},{"PRN":37,"gnssid":1,"svid":124,"az":0.0,"el":-9.0,"ss":0.0,"used":false,"health":1},{"PRN":8,"gnssid":0,"svid":8,"az":215.0,"el":74.0,"ss":48.0,"used":true,"health":1},{"PRN":10,"gnssid":0,"svid":10,"az":66.0,"el":56.0,"ss":51.0,"used":true,"health":1},{"PRN":23,"gnssid":0,"svid":23,"az":50.0,"el":22.0,"ss":46.0,"used":true,"health":1},{"PRN":21,"gnssid":0,"svid":21,"az":278.0,"el":55.0,"ss":44.0,"used":true,"health":1},{"PRN":27,"gnssid":0,"svid":27,"az":152.0,"el":47.0,"ss":46.0,"used":true,"health":1}]}
{"class":"TPV","device":"/dev/ttyACM0","mode":3,"time":"2024-06-04T12:11:48.001Z","leapseconds":18,"ept":0.005,"lat":52.315800546,"lon":10.563188394,"altHAE":115.6447,"altMSL":71.7473,"alt":71.7473,"epx":9.280,"epy":14.902,"epv":57.270,"track":0.0000,"magtrack":3.2199,"magvar":3.2,"speed":0.006,"climb":0.008,"eps":0.40,"epc":454.52,"ecefx":3841066.18,"ecefy":716282.05,"ecefz":5024452.32,"ecefvx":0.00,"ecefvy":0.00,"ecefvz":0.01,"ecefpAcc":3.94,"ecefvAcc":0.40,"velN":0.006,"velE":0.000,"velD":-0.008,"geoidSep":43.897,"eph":30.400,"sep":56.240}
{"class":"SKY","device":"/dev/ttyACM0","time":"2024-06-04T12:11:47.749Z","gdop":3.49,"hdop":1.60,"pdop":2.96,"tdop":1.86,"xdop":0.62,"ydop":0.99,"vdop":2.49,"uSat":8}
{"class":"SKY","device":"/dev/ttyACM0","time":"2024-06-04T12:11:47.749Z","gdop":3.49,"hdop":1.60,"pdop":2.96,"tdop":1.86,"xdop":0.62,"ydop":0.99,"vdop":2.49,"uSat":8}
{"class":"TPV","device":"/dev/ttyACM0","mode":3,"time":"2024-06-04T12:11:48.001Z","leapseconds":18,"ept":0.005,"lat":52.315800546,"lon":10.563188394,"altHAE":115.6447,"altMSL":71.7473,"alt":71.7473,"epx":9.280,"epy":14.902,"epv":57.270,"track":0.0000,"magtrack":3.2199,"magvar":3.2,"speed":0.006,"climb":0.008,"eps":118.27,"epc":454.52,"ecefx":3841066.18,"ecefy":716282.05,"ecefz":5024452.32,"ecefvx":0.00,"ecefvy":0.00,"ecefvz":0.01,"ecefpAcc":3.94,"ecefvAcc":0.40,"velN":0.006,"velE":0.000,"velD":-0.008,"geoidSep":43.897,"eph":30.400,"sep":56.240}
{"class":"SKY","device":"/dev/ttyACM0","time":"2024-06-04T12:11:48.001Z","gdop":3.49,"hdop":1.60,"pdop":2.96,"tdop":1.86,"xdop":0.62,"ydop":0.99,"vdop":2.49,"nSat":11,"uSat":6,"satellites":[{"PRN":2,"gnssid":0,"svid":2,"az":275.0,"el":38.0,"ss":0.0,"used":false,"health":1},{"PRN":22,"gnssid":0,"svid":22,"az":338.0,"el":3.0,"ss":30.0,"used":false,"health":1},{"PRN":32,"gnssid":0,"svid":32,"az":116.0,"el":29.0,"ss":0.0,"used":false,"health":1},{"PRN":16,"gnssid":0,"svid":16,"az":188.0,"el":5.0,"ss":0.0,"used":false,"health":1},{"PRN":14,"gnssid":0,"svid":14,"az":324.0,"el":15.0,"ss":34.0,"used":true,"health":1},{"PRN":37,"gnssid":1,"svid":124,"az":0.0,"el":-9.0,"ss":0.0,"used":false,"health":1},{"PRN":8,"gnssid":0,"svid":8,"az":215.0,"el":74.0,"ss":48.0,"used":true,"health":1},{"PRN":10,"gnssid":0,"svid":10,"az":66.0,"el":56.0,"ss":51.0,"used":true,"health":1},{"PRN":23,"gnssid":0,"svid":23,"az":50.0,"el":22.0,"ss":46.0,"used":true,"health":1},{"PRN":21,"gnssid":0,"svid":21,"az":278.0,"el":55.0,"ss":44.0,"used":true,"health":1},{"PRN":27,"gnssid":0,"svid":27,"az":152.0,"el":47.0,"ss":46.0,"used":true,"health":1}]}
{"class":"TPV","device":"/dev/ttyACM0","mode":3,"time":"2024-06-04T12:11:48.249Z","leapseconds":18,"ept":0.005,"lat":52.315800421,"lon":10.563188367,"altHAE":115.6428,"altMSL":71.7454,"alt":71.7454,"epx":9.280,"epy":14.902,"epv":57.270,"track":187.5169,"magtrack":190.7368,"magvar":3.2,"speed":0.014,"climb":-0.002,"eps":0.40,"epc":461.85,"ecefx":3841066.19,"ecefy":716282.05,"ecefz":5024452.31,"ecefvx":0.01,"ecefvy":0.00,"ecefvz":-0.01,"ecefpAcc":3.94,"ecefvAcc":0.40,"velN":-0.014,"velE":-0.002,"velD":0.002,"geoidSep":43.897,"eph":30.400,"sep":56.050}
{"class":"SKY","device":"/dev/ttyACM0","time":"2024-06-04T12:11:48.001Z","gdop":3.49,"hdop":1.60,"pdop":2.95,"tdop":1.86,"xdop":0.62,"ydop":0.99,"vdop":2.49,"uSat":8}
{"class":"SKY","device":"/dev/ttyACM0","time":"2024-06-04T12:11:48.001Z","gdop":3.49,"hdop":1.60,"pdop":2.95,"tdop":1.86,"xdop":0.62,"ydop":0.99,"vdop":2.48,"uSat":8}
{"class":"TPV","device":"/dev/ttyACM0","mode":3,"time":"2024-06-04T12:11:48.249Z","leapseconds":18,"ept":0.005,"lat":52.315800421,"lon":10.563188367,"altHAE":115.6428,"altMSL":71.7454,"alt":71.7454,"epx":9.280,"epy":14.902,"epv":57.270,"track":187.5169,"magtrack":190.7368,"magvar":3.2,"speed":0.014,"climb":-0.002,"eps":120.18,"epc":461.85,"ecefx":3841066.19,"ecefy":716282.05,"ecefz":5024452.31,"ecefvx":0.01,"ecefvy":0.00,"ecefvz":-0.01,"ecefpAcc":3.94,"ecefvAcc":0.40,"velN":-0.014,"velE":-0.002,"velD":0.002,"geoidSep":43.897,"eph":30.400,"sep":56.050}
{"class":"SKY","device":"/dev/ttyACM0","time":"2024-06-04T12:11:48.249Z","gdop":3.49,"hdop":1.60,"pdop":2.95,"tdop":1.86,"xdop":0.62,"ydop":0.99,"vdop":2.48,"nSat":11,"uSat":6,"satellites":[{"PRN":2,"gnssid":0,"svid":2,"az":275.0,"el":38.0,"ss":0.0,"used":false,"health":1},{"PRN":22,"gnssid":0,"svid":22,"az":338.0,"el":3.0,"ss":30.0,"used":false,"health":1},{"PRN":32,"gnssid":0,"svid":32,"az":116.0,"el":29.0,"ss":0.0,"used":false,"health":1},{"PRN":16,"gnssid":0,"svid":16,"az":188.0,"el":5.0,"ss":0.0,"used":false,"health":1},{"PRN":14,"gnssid":0,"svid":14,"az":324.0,"el":15.0,"ss":34.0,"used":true,"health":1},{"PRN":37,"gnssid":1,"svid":124,"az":0.0,"el":-9.0,"ss":0.0,"used":false,"health":1},{"PRN":8,"gnssid":0,"svid":8,"az":215.0,"el":74.0,"ss":48.0,"used":true,"health":1},{"PRN":10,"gnssid":0,"svid":10,"az":66.0,"el":56.0,"ss":51.0,"used":true,"health":1},{"PRN":23,"gnssid":0,"svid":23,"az":50.0,"el":22.0,"ss":46.0,"used":true,"health":1},{"PRN":21,"gnssid":0,"svid":21,"az":278.0,"el":55.0,"ss":45.0,"used":true,"health":1},{"PRN":27,"gnssid":0,"svid":27,"az":152.0,"el":47.0,"ss":46.0,"used":true,"health":1}]}
{"class":"TPV","device":"/dev/ttyACM0","mode":3,"time":"2024-06-04T12:11:48.501Z","leapseconds":18,"ept":0.005,"lat":52.315800297,"lon":10.563188340,"altHAE":115.6409,"altMSL":71.7435,"alt":71.7435,"epx":9.280,"epy":14.902,"epv":57.040,"track":42.3746,"magtrack":45.5945,"magvar":3.2,"speed":0.015,"climb":0.017,"eps":0.40,"epc":453.61,"ecefx":3841066.20,"ecefy":716282.05,"ecefz":5024452.30,"ecefvx":0.00,"ecefvy":0.01,"ecefvz":0.02,"ecefpAcc":3.94,"ecefvAcc":0.40,"velN":0.011,"velE":0.010,"velD":-0.017,"geoidSep":43.897,"eph":30.400,"sep":56.240}
{"class":"SKY","device":"/dev/ttyACM0","time":"2024-06-04T12:11:48.249Z","gdop":3.49,"hdop":1.60,"pdop":2.96,"tdop":1.86,"xdop":0.62,"ydop":0.99,"vdop":2.48,"uSat":8}
{"class":"SKY","device":"/dev/ttyACM0","time":"2024-06-04T12:11:48.249Z","gdop":3.49,"hdop":1.60,"pdop":2.96,"tdop":1.86,"xdop":0.62,"ydop":0.99,"vdop":2.49,"uSat":8}
{"class":"TPV","device":"/dev/ttyACM0","mode":3,"time":"2024-06-04T12:11:48.501Z","leapseconds":18,"ept":0.005,"lat":52.315800297,"lon":10.563188340,"altHAE":115.6409,"altMSL":71.7435,"alt":71.7435,"epx":9.280,"epy":14.902,"epv":57.040,"track":42.3746,"magtrack":45.5945,"magvar":3.2,"speed":0.015,"climb":0.017,"eps":118.27,"epc":453.61,"ecefx":3841066.20,"ecefy":716282.05,"ecefz":5024452.30,"ecefvx":0.00,"ecefvy":0.01,"ecefvz":0.02,"ecefpAcc":3.94,"ecefvAcc":0.40,"velN":0.011,"velE":0.010,"velD":-0.017,"geoidSep":43.897,"eph":30.400,"sep":56.240}
{"class":"SKY","device":"/dev/ttyACM0","time":"2024-06-04T12:11:48.501Z","gdop":3.49,"hdop":1.60,"pdop":2.96,"tdop":1.86,"xdop":0.62,"ydop":0.99,"vdop":2.49,"nSat":11,"uSat":6,"satellites":[{"PRN":2,"gnssid":0,"svid":2,"az":275.0,"el":38.0,"ss":0.0,"used":false,"health":1},{"PRN":22,"gnssid":0,"svid":22,"az":338.0,"el":3.0,"ss":30.0,"used":false,"health":1},{"PRN":32,"gnssid":0,"svid":32,"az":116.0,"el":29.0,"ss":0.0,"used":false,"health":1},{"PRN":16,"gnssid":0,"svid":16,"az":188.0,"el":5.0,"ss":0.0,"used":false,"health":1},{"PRN":14,"gnssid":0,"svid":14,"az":324.0,"el":15.0,"ss":34.0,"used":true,"health":1},{"PRN":37,"gnssid":1,"svid":124,"az":0.0,"el":-9.0,"ss":0.0,"used":false,"health":1},{"PRN":8,"gnssid":0,"svid":8,"az":215.0,"el":74.0,"ss":48.0,"used":true,"health":1},{"PRN":10,"gnssid":0,"svid":10,"az":66.0,"el":56.0,"ss":51.0,"used":true,"health":1},{"PRN":23,"gnssid":0,"svid":23,"az":50.0,"el":22.0,"ss":46.0,"used":true,"health":1},{"PRN":21,"gnssid":0,"svid":21,"az":278.0,"el":55.0,"ss":45.0,"used":true,"health":1},{"PRN":27,"gnssid":0,"svid":27,"az":152.0,"el":47.0,"ss":46.0,"used":true,"health":1}]}
{"class":"TPV","device":"/dev/ttyACM0","mode":3,"time":"2024-06-04T12:11:48.749Z","leapseconds":18,"ept":0.005,"lat":52.315800283,"lon":10.563188484,"altHAE":115.6420,"altMSL":71.7446,"alt":71.7446,"epx":9.280,"epy":14.902,"epv":57.270,"track":85.0476,"magtrack":88.2675,"magvar":3.2,"speed":0.018,"climb":0.024,"eps":0.40,"epc":460.93,"ecefx":3841066.20,"ecefy":716282.06,"ecefz":5024452.30,"ecefvx":0.01,"ecefvy":0.02,"ecefvz":0.02,"ecefpAcc":3.94,"ecefvAcc":0.40,"velN":0.002,"velE":0.018,"velD":-0.024,"geoidSep":43.897,"eph":30.400,"sep":56.050}
{"class":"SKY","device":"/dev/ttyACM0","time":"2024-06-04T12:11:48.501Z","gdop":3.49,"hdop":1.60,"pdop":2.95,"tdop":1.86,"xdop":0.62,"ydop":0.99,"vdop":2.49,"uSat":8}
{"class":"SKY","device":"/dev/ttyACM0","time":"2024-06-04T12:11:48.501Z","gdop":3.49,"hdop":1.60,"pdop":2.95,"tdop":1.86,"xdop":0.62,"ydop":0.99,"vdop":2.48,"uSat":8}
{"class":"TPV","device":"/dev/ttyACM0","mode":3,"time":"2024-06-04T12:11:48.749Z","leapseconds":18,"ept":0.005,"lat":52.315800283,"lon":10.563188484,"altHAE":115.6420,"altMSL":71.7446,"alt":71.7446,"epx":9.280,"epy":14.902,"epv":57.270,"track":85.0476,"magtrack":88.2675,"magvar":3.2,"speed":0.018,"climb":0.024,"eps":120.18,"epc":460.93,"ecefx":3841066.20,"ecefy":716282.06,"ecefz":5024452.30,"ecefvx":0.01,"ecefvy":0.02,"ecefvz":0.02,"ecefpAcc":3.94,"ecefvAcc":0.40,"velN":0.002,"velE":0.018,"velD":-0.024,"geoidSep":43.897,"eph":30.400,"sep":56.050}
{"class":"SKY","device":"/dev/ttyACM0","time":"2024-06-04T12:11:48.749Z","gdop":3.49,"hdop":1.60,"pdop":2.95,"tdop":1.86,"xdop":0.62,"ydop":0.99,"vdop":2.48,"nSat":11,"uSat":6,"satellites":[{"PRN":2,"gnssid":0,"svid":2,"az":275.0,"el":38.0,"ss":0.0,"used":false,"health":1},{"PRN":22,"gnssid":0,"svid":22,"az":338.0,"el":3.0,"ss":30.0,"used":false,"health":1},{"PRN":32,"gnssid":0,"svid":32,"az":116.0,"el":29.0,"ss":0.0,"used":false,"health":1},{"PRN":16,"gnssid":0,"svid":16,"az":188.0,"el":5.0,"ss":0.0,"used":false,"health":1},{"PRN":14,"gnssid":0,"svid":14,"az":324.0,"el":15.0,"ss":34.0,"used":true,"health":1},{"PRN":37,"gnssid":1,"svid":124,"az":0.0,"el":-9.0,"ss":0.0,"used":false,"health":1},{"PRN":8,"gnssid":0,"svid":8,"az":215.0,"el":74.0,"ss":48.0,"used":true,"health":1},{"PRN":10,"gnssid":0,"svid":10,"az":66.0,"el":56.0,"ss":51.0,"used":true,"health":1},{"PRN":23,"gnssid":0,"svid":23,"az":50.0,"el":22.0,"ss":46.0,"used":true,"health":1},{"PRN":21,"gnssid":0,"svid":21,"az":278.0,"el":55.0,"ss":45.0,"used":true,"health":1},{"PRN":27,"gnssid":0,"svid":27,"az":152.0,"el":47.0,"ss":46.0,"used":true,"health":1}]}
{"class":"TPV","device":"/dev/ttyACM0","mode":3,"time":"2024-06-04T12:11:49.001Z","leapseconds":18,"ept":0.005,"lat":52.315800214,"lon":10.563188457,"altHAE":115.6480,"altMSL":71.7506,"alt":71.7506,"epx":9.280,"epy":14.902,"epv":57.040,"track":350.1512,"magtrack":353.3711,"magvar":3.2,"speed":0.011,"climb":0.030,"eps":0.40,"epc":453.61,"ecefx":3841066.21,"ecefy":716282.06,"ecefz":5024452.30,"ecefvx":0.01,"ecefvy":0.00,"ecefvz":0.03,"ecefpAcc":3.94,"ecefvAcc":0.40,"velN":0.011,"velE":-0.002,"velD":-0.030,"geoidSep":43.897,"eph":30.400,"sep":56.050}
{"class":"SKY","device":"/dev/ttyACM0","time":"2024-06-04T12:11:48.749Z","gdop":3.49,"hdop":1.60,"pdop":2.95,"tdop":1.86,"xdop":0.62,"ydop":0.99,"vdop":2.48,"uSat":8}
{"class":"SKY","device":"/dev/ttyACM0","time":"2024-06-04T12:11:48.749Z","gdop":3.49,"hdop":1.60,"pdop":2.95,"tdop":1.86,"xdop":0.62,"ydop":0.99,"vdop":2.49,"uSat":8}
{"class":"TPV","device":"/dev/ttyACM0","mode":3,"time":"2024-06-04T12:11:49.001Z","leapseconds":18,"ept":0.005,"lat":52.315800214,"lon":10.563188457,"altHAE":115.6480,"altMSL":71.7506,"alt":71.7506,"epx":9.280,"epy":14.902,"epv":57.040,"track":350.1512,"magtrack":353.3711,"magvar":3.2,"speed":0.011,"climb":0.030,"eps":118.27,"epc":453.61,"ecefx":3841066.21,"ecefy":716282.06,"ecefz":5024452.30,"ecefvx":0.01,"ecefvy":0.00,"ecefvz":0.03,"ecefpAcc":3.94,"ecefvAcc":0.40,"velN":0.011,"velE":-0.002,"velD":-0.030,"geoidSep":43.897,"eph":30.400,"sep":56.050}
{"class":"SKY","device":"/dev/ttyACM0","time":"2024-06-04T12:11:49.001Z","gdop":3.49,"hdop":1.60,"pdop":2.95,"tdop":1.86,"xdop":0.62,"ydop":0.99,"vdop":2.49,"nSat":11,"uSat":6,"satellites":[{"PRN":2,"gnssid":0,"svid":2,"az":275.0,"el":38.0,"ss":0.0,"used":false,"health":1},{"PRN":22,"gnssid":0,"svid":22,"az":338.0,"el":3.0,"ss":30.0,"used":false,"health":1},{"PRN":32,"gnssid":0,"svid":32,"az":116.0,"el":29.0,"ss":0.0,"used":false,"health":1},{"PRN":16,"gnssid":0,"svid":16,"az":188.0,"el":5.0,"ss":0.0,"used":false,"health":1},{"PRN":14,"gnssid":0,"svid":14,"az":324.0,"el":15.0,"ss":34.0,"used":true,"health":1},{"PRN":37,"gnssid":1,"svid":124,"az":0.0,"el":-9.0,"ss":0.0,"used":false,"health":1},{"PRN":8,"gnssid":0,"svid":8,"az":215.0,"el":74.0,"ss":48.0,"used":true,"health":1},{"PRN":10,"gnssid":0,"svid":10,"az":66.0,"el":56.0,"ss":51.0,"used":true,"health":1},{"PRN":23,"gnssid":0,"svid":23,"az":50.0,"el":22.0,"ss":46.0,"used":true,"health":1},{"PRN":21,"gnssid":0,"svid":21,"az":278.0,"el":55.0,"ss":44.0,"used":true,"health":1},{"PRN":27,"gnssid":0,"svid":27,"az":152.0,"el":47.0,"ss":46.0,"used":true,"health":1}]}
{"class":"TPV","device":"/dev/ttyACM0","mode":3,"time":"2024-06-04T12:11:49.249Z","leapseconds":18,"ept":0.005,"lat":52.315800159,"lon":10.563188457,"altHAE":115.6401,"altMSL":71.7427,"alt":71.7427,"epx":9.280,"epy":14.902,"epv":57.270,"track":296.8210,"magtrack":300.0409,"magvar":3.2,"speed":0.013,"climb":0.021,"eps":0.40,"epc":460.93,"ecefx":3841066.21,"ecefy":716282.06,"ecefz":5024452.29,"ecefvx":0.01,"ecefvy":-0.01,"ecefvz":0.02,"ecefpAcc":3.94,"ecefvAcc":0.40,"velN":0.006,"velE":-0.012,"velD":-0.021,"geoidSep":43.897,"eph":30.400,"sep":56.050}
{"class":"SKY","device":"/dev/ttyACM0","time":"2024-06-04T12:11:49.001Z","gdop":3.49,"hdop":1.60,"pdop":2.95,"tdop":1.86,"xdop":0.62,"ydop":0.99,"vdop":2.49,"uSat":8}
{"class":"SKY","device":"/dev/ttyACM0","time":"2024-06-04T12:11:49.001Z","gdop":3.49,"hdop":1.60,"pdop":2.95,"tdop":1.86,"xdop":0.62,"ydop":0.99,"vdop":2.48,"uSat":8}
{"class":"TPV","device":"/dev/ttyACM0","mode":3,"time":"2024-06-04T12:11:49.249Z","leapseconds":18,"ept":0.005,"lat":52.315800159,"lon":10.563188457,"altHAE":115.6401,"altMSL":71.7427,"alt":71.7427,"epx":9.280,"epy":14.902,"epv":57.270,"track":296.8210,"magtrack":300.0409,"magvar":3.2,"speed":0.013,"climb":0.021,"eps":120.18,"epc":460.93,"ecefx":3841066.21,"ecefy":716282.06,"ecefz":5024452.29,"ecefvx":0.01,"ecefvy":-0.01,"ecefvz":0.02,"ecefpAcc":3.94,"ecefvAcc":0.40,"velN":0.006,"velE":-0.012,"velD":-0.021,"geoidSep":43.897,"eph":30.400,"sep":56.050}
{"class":"SKY","device":"/dev/ttyACM0","time":"2024-06-04T12:11:49.249Z","gdop":3.49,"hdop":1.60,"pdop":2.95,"tdop":1.86,"xdop":0.62,"ydop":0.99,"vdop":2.48,"nSat":11,"uSat":6,"satellites":[{"PRN":2,"gnssid":0,"svid":2,"az":275.0,"el":38.0,"ss":0.0,"used":false,"health":1},{"PRN":22,"gnssid":0,"svid":22,"az":338.0,"el":3.0,"ss":30.0,"used":false,"health":1},{"PRN":32,"gnssid":0,"svid":32,"az":116.0,"el":29.0,"ss":0.0,"used":false,"health":1},{"PRN":16,"gnssid":0,"svid":16,"az":188.0,"el":5.0,"ss":0.0,"used":false,"health":1},{"PRN":14,"gnssid":0,"svid":14,"az":324.0,"el":15.0,"ss":34.0,"used":true,"health":1},{"PRN":37,"gnssid":1,"svid":124,"az":0.0,"el":-9.0,"ss":0.0,"used":false,"health":1},{"PRN":8,"gnssid":0,"svid":8,"az":215.0,"el":74.0,"ss":48.0,"used":true,"health":1},{"PRN":10,"gnssid":0,"svid":10,"az":66.0,"el":56.0,"ss":51.0,"used":true,"health":1},{"PRN":23,"gnssid":0,"svid":23,"az":50.0,"el":22.0,"ss":46.0,"used":true,"health":1},{"PRN":21,"gnssid":0,"svid":21,"az":278.0,"el":55.0,"ss":45.0,"used":true,"health":1},{"PRN":27,"gnssid":0,"svid":27,"az":152.0,"el":47.0,"ss":46.0,"used":true,"health":1}]}
{"class":"TPV","device":"/dev/ttyACM0","mode":3,"time":"2024-06-04T12:11:49.501Z","leapseconds":18,"ept":0.005,"lat":52.315800172,"lon":10.563188313,"altHAE":115.6390,"altMSL":71.7416,"alt":71.7416,"epx":9.280,"epy":14.902,"epv":57.040,"track":273.3335,"magtrack":276.5534,"magvar":3.2,"speed":0.112,"climb":0.008,"eps":0.40,"epc":453.61,"ecefx":3841066.21,"ecefy":716282.05,"ecefz":5024452.29,"ecefvx":0.02,"ecefvy":-0.11,"ecefvz":0.01,"ecefpAcc":3.94,"ecefvAcc":0.40,"velN":0.007,"velE":-0.112,"velD":-0.008,"geoidSep":43.897,"eph":30.400,"sep":56.050}
{"class":"SKY","device":"/dev/ttyACM0","time":"2024-06-04T12:11:49.249Z","gdop":3.49,"hdop":1.60,"pdop":2.95,"tdop":1.86,"xdop":0.62,"ydop":0.99,"vdop":2.48,"uSat":8}
{"class":"SKY","device":"/dev/ttyACM0","time":"2024-06-04T12:11:49.249Z","gdop":3.49,"hdop":1.60,"pdop":2.95,"tdop":1.86,"xdop":0.62,"ydop":0.99,"vdop":2.48,"uSat":8}
{"class":"TPV","device":"/dev/ttyACM0","mode":3,"time":"2024-06-04T12:11:49.501Z","leapseconds":18,"ept":0.005,"lat":52.315800172,"lon":10.563188313,"altHAE":115.6390,"altMSL":71.7416,"alt":71.7416,"epx":9.280,"epy":14.902,"epv":57.040,"track":273.3335,"magtrack":276.5534,"magvar":3.2,"speed":0.112,"climb":0.008,"eps":118.27,"epc":453.61,"ecefx":3841066.21,"ecefy":716282.05,"ecefz":5024452.29,"ecefvx":0.02,"ecefvy":-0.11,"ecefvz":0.01,"ecefpAcc":3.94,"ecefvAcc":0.40,"velN":0.007,"velE":-0.112,"velD":-0.008,"geoidSep":43.897,"eph":30.400,"sep":56.050}
{"class":"SKY","device":"/dev/ttyACM0","time":"2024-06-04T12:11:49.501Z","gdop":3.49,"hdop":1.60,"pdop":2.95,"tdop":1.86,"xdop":0.62,"ydop":0.99,"vdop":2.48,"nSat":11,"uSat":6,"satellites":[{"PRN":2,"gnssid":0,"svid":2,"az":275.0,"el":38.0,"ss":0.0,"used":false,"health":1},{"PRN":22,"gnssid":0,"svid":22,"az":338.0,"el":3.0,"ss":30.0,"used":false,"health":1},{"PRN":32,"gnssid":0,"svid":32,"az":116.0,"el":29.0,"ss":0.0,"used":false,"health":1},{"PRN":16,"gnssid":0,"svid":16,"az":188.0,"el":5.0,"ss":0.0,"used":false,"health":1},{"PRN":14,"gnssid":0,"svid":14,"az":324.0,"el":15.0,"ss":34.0,"used":true,"health":1},{"PRN":37,"gnssid":1,"svid":124,"az":0.0,"el":-9.0,"ss":0.0,"used":false,"health":1},{"PRN":8,"gnssid":0,"svid":8,"az":215.0,"el":74.0,"ss":48.0,"used":true,"health":1},{"PRN":10,"gnssid":0,"svid":10,"az":66.0,"el":56.0,"ss":51.0,"used":true,"health":1},{"PRN":23,"gnssid":0,"svid":23,"az":50.0,"el":22.0,"ss":46.0,"used":true,"health":1},{"PRN":21,"gnssid":0,"svid":21,"az":278.0,"el":55.0,"ss":44.0,"used":true,"health":1},{"PRN":27,"gnssid":0,"svid":27,"az":152.0,"el":47.0,"ss":47.0,"used":true,"health":1}]}
{"class":"TPV","device":"/dev/ttyACM0","mode":3,"time":"2024-06-04T12:11:49.749Z","leapseconds":18,"ept":0.005,"lat":52.315800195,"lon":10.563187448,"altHAE":115.6243,"altMSL":71.7270,"alt":71.7270,"epx":9.280,"epy":14.902,"epv":57.040,"track":268.5944,"magtrack":271.8143,"magvar":3.2,"speed":0.328,"climb":0.006,"eps":0.41,"epc":460.00,"ecefx":3841066.21,"ecefy":716281.99,"ecefz":5024452.28,"ecefvx":0.07,"ecefvy":-0.32,"ecefvz":0.00,"ecefpAcc":3.94,"ecefvAcc":0.41,"velN":-0.008,"velE":-0.327,"velD":-0.006,"geoidSep":43.897,"eph":30.400,"sep":56.050}
{"class":"SKY","device":"/dev/ttyACM0","time":"2024-06-04T12:11:49.501Z","gdop":3.49,"hdop":1.60,"pdop":2.95,"tdop":1.86,"xdop":0.62,"ydop":0.99,"vdop":2.48,"uSat":8}
{"class":"SKY","device":"/dev/ttyACM0","time":"2024-06-04T12:11:49.501Z","gdop":3.49,"hdop":1.60,"pdop":2.95,"tdop":1.86,"xdop":0.62,"ydop":0.99,"vdop":2.48,"uSat":8}
{"class":"TPV","device":"/dev/ttyACM0","mode":3,"time":"2024-06-04T12:11:49.749Z","leapseconds":18,"ept":0.005,"lat":52.315800195,"lon":10.563187448,"altHAE":115.6243,"altMSL":71.7270,"alt":71.7270,"epx":9.280,"epy":14.902,"epv":57.040,"track":268.5944,"magtrack":271.8143,"magvar":3.2,"speed":0.328,"climb":0.006,"eps":120.18,"epc":460.00,"ecefx":3841066.21,"ecefy":716281.99,"ecefz":5024452.28,"ecefvx":0.07,"ecefvy":-0.32,"ecefvz":0.00,"ecefpAcc":3.94,"ecefvAcc":0.41,"velN":-0.008,"velE":-0.327,"velD":-0.006,"geoidSep":43.897,"eph":30.400,"sep":56.050}
{"class":"SKY","device":"/dev/ttyACM0","time":"2024-06-04T12:11:49.749Z","gdop":3.49,"hdop":1.60,"pdop":2.95,"tdop":1.86,"xdop":0.62,"ydop":0.99,"vdop":2.48,"nSat":11,"uSat":6,"satellites":[{"PRN":2,"gnssid":0,"svid":2,"az":275.0,"el":38.0,"ss":0.0,"used":false,"health":1},{"PRN":22,"gnssid":0,"svid":22,"az":338.0,"el":3.0,"ss":32.0,"used":false,"health":1},{"PRN":32,"gnssid":0,"svid":32,"az":116.0,"el":29.0,"ss":0.0,"used":false,"health":1},{"PRN":16,"gnssid":0,"svid":16,"az":188.0,"el":5.0,"ss":0.0,"used":false,"health":1},{"PRN":14,"gnssid":0,"svid":14,"az":324.0,"el":15.0,"ss":33.0,"used":true,"health":1},{"PRN":37,"gnssid":1,"svid":124,"az":0.0,"el":-9.0,"ss":0.0,"used":false,"health":1},{"PRN":8,"gnssid":0,"svid":8,"az":215.0,"el":74.0,"ss":48.0,"used":true,"health":1},{"PRN":10,"gnssid":0,"svid":10,"az":66.0,"el":56.0,"ss":51.0,"used":true,"health":1},{"PRN":23,"gnssid":0,"svid":23,"az":50.0,"el":22.0,"ss":45.0,"used":true,"health":1},{"PRN":21,"gnssid":0,"svid":21,"az":278.0,"el":55.0,"ss":44.0,"used":true,"health":1},{"PRN":27,"gnssid":0,"svid":27,"az":152.0,"el":47.0,"ss":48.0,"used":true,"health":1}]}
{"class":"TPV","device":"/dev/ttyACM0","mode":3,"time":"2024-06-04T12:11:50.001Z","leapseconds":18,"ept":0.005,"lat":52.315800430,"lon":10.563185259,"altHAE":115.6294,"altMSL":71.7320,"alt":71.7320,"epx":9.280,"epy":14.902,"epv":57.040,"track":277.3652,"magtrack":280.5851,"magvar":3.2,"speed":0.746,"climb":0.015,"eps":0.41,"epc":452.70,"ecefx":3841066.22,"ecefy":716281.84,"ecefz":5024452.30,"ecefvx":0.07,"ecefvy":-0.74,"ecefvz":0.07,"ecefpAcc":3.94,"ecefvAcc":0.41,"velN":0.096,"velE":-0.740,"velD":-0.015,"geoidSep":43.897,"eph":30.400,"sep":56.050}
{"class":"SKY","device":"/dev/ttyACM0","time":"2024-06-04T12:11:49.749Z","gdop":3.49,"hdop":1.60,"pdop":2.95,"tdop":1.86,"xdop":0.62,"ydop":0.99,"vdop":2.48,"uSat":8}
{"class":"SKY","device":"/dev/ttyACM0","time":"2024-06-04T12:11:49.749Z","gdop":3.49,"hdop":1.60,"pdop":2.95,"tdop":1.86,"xdop":0.62,"ydop":0.99,"vdop":2.48,"uSat":8}
{"class":"TPV","device":"/dev/ttyACM0","mode":3,"time":"2024-06-04T12:11:50.001Z","leapseconds":18,"ept":0.005,"lat":52.315800430,"lon":10.563185259,"altHAE":115.6294,"altMSL":71.7320,"alt":71.7320,"epx":9.280,"epy":14.902,"epv":57.040,"track":277.3652,"magtrack":280.5851,"magvar":3.2,"speed":0.746,"climb":0.015,"eps":118.27,"epc":452.70,"ecefx":3841066.22,"ecefy":716281.84,"ecefz":5024452.30,"ecefvx":0.07,"ecefvy":-0.74,"ecefvz":0.07,"ecefpAcc":3.94,"ecefvAcc":0.41,"velN":0.096,"velE":-0.740,"velD":-0.015,"geoidSep":43.897,"eph":30.400,"sep":56.050}
{"class":"SKY","device":"/dev/ttyACM0","time":"2024-06-04T12:11:50.001Z","gdop":3.49,"hdop":1.60,"pdop":2.95,"tdop":1.86,"xdop":0.62,"ydop":0.99,"vdop":2.48,"nSat":11,"uSat":6,"satellites":[{"PRN":2,"gnssid":0,"svid":2,"az":275.0,"el":38.0,"ss":0.0,"used":false,"health":1},{"PRN":22,"gnssid":0,"svid":22,"az":338.0,"el":3.0,"ss":30.0,"used":false,"health":1},{"PRN":32,"gnssid":0,"svid":32,"az":116.0,"el":29.0,"ss":0.0,"used":false,"health":1},{"PRN":16,"gnssid":0,"svid":16,"az":188.0,"el":5.0,"ss":0.0,"used":false,"health":1},{"PRN":14,"gnssid":0,"svid":14,"az":324.0,"el":15.0,"ss":33.0,"used":true,"health":1},{"PRN":37,"gnssid":1,"svid":124,"az":0.0,"el":-9.0,"ss":0.0,"used":false,"health":1},{"PRN":8,"gnssid":0,"svid":8,"az":215.0,"el":74.0,"ss":48.0,"used":true,"health":1},{"PRN":10,"gnssid":0,"svid":10,"az":66.0,"el":56.0,"ss":51.0,"used":true,"health":1},{"PRN":23,"gnssid":0,"svid":23,"az":50.0,"el":22.0,"ss":45.0,"used":true,"health":1},{"PRN":21,"gnssid":0,"svid":21,"az":278.0,"el":55.0,"ss":45.0,"used":true,"health":1},{"PRN":27,"gnssid":0,"svid":27,"az":152.0,"el":47.0,"ss":47.0,"used":true,"health":1}]}
{"class":"TPV","device":"/dev/ttyACM0","mode":3,"time":"2024-06-04T12:11:50.249Z","leapseconds":18,"ept":0.005,"lat":52.315800812,"lon":10.563182061,"altHAE":115.6345,"altMSL":71.7371,"alt":71.7371,"epx":9.280,"epy":14.902,"epv":57.040,"track":275.8958,"magtrack":279.1157,"magvar":3.2,"speed":1.038,"climb":0.006,"eps":0.43,"epc":460.00,"ecefx":3841066.23,"ecefy":716281.62,"ecefz":5024452.33,"ecefvx":0.11,"ecefvy":-1.03,"ecefvz":0.07,"ecefpAcc":3.94,"ecefvAcc":0.43,"velN":0.107,"velE":-1.033,"velD":-0.006,"geoidSep":43.897,"eph":30.400,"sep":56.240}
{"class":"SKY","device":"/dev/ttyACM0","time":"2024-06-04T12:11:50.001Z","gdop":3.49,"hdop":1.60,"pdop":2.96,"tdop":1.86,"xdop":0.62,"ydop":0.99,"vdop":2.48,"uSat":8}
{"class":"SKY","device":"/dev/ttyACM0","time":"2024-06-04T12:11:50.001Z","gdop":3.49,"hdop":1.60,"pdop":2.96,"tdop":1.86,"xdop":0.62,"ydop":0.99,"vdop":2.49,"uSat":8}
{"class":"TPV","device":"/dev/ttyACM0","mode":3,"time":"2024-06-04T12:11:50.249Z","leapseconds":18,"ept":0.005,"lat":52.315800812,"lon":10.563182061,"altHAE":115.6345,"altMSL":71.7371,"alt":71.7371,"epx":9.280,"epy":14.902,"epv":57.040,"track":275.8958,"magtrack":279.1157,"magvar":3.2,"speed":1.038,"climb":0.006,"eps":120.18,"epc":460.00,"ecefx":3841066.23,"ecefy":716281.62,"ecefz":5024452.33,"ecefvx":0.11,"ecefvy":-1.03,"ecefvz":0.07,"ecefpAcc":3.94,"ecefvAcc":0.43,"velN":0.107,"velE":-1.033,"velD":-0.006,"geoidSep":43.897,"eph":30.400,"sep":56.240}
{"class":"SKY","device":"/dev/ttyACM0","time":"2024-06-04T12:11:50.249Z","gdop":3.49,"hdop":1.60,"pdop":2.96,"tdop":1.86,"xdop":0.62,"ydop":0.99,"vdop":2.49,"nSat":11,"uSat":6,"satellites":[{"PRN":2,"gnssid":0,"svid":2,"az":275.0,"el":38.0,"ss":0.0,"used":false,"health":1},{"PRN":22,"gnssid":0,"svid":22,"az":338.0,"el":3.0,"ss":31.0,"used":false,"health":1},{"PRN":32,"gnssid":0,"svid":32,"az":116.0,"el":29.0,"ss":0.0,"used":false,"health":1},{"PRN":16,"gnssid":0,"svid":16,"az":188.0,"el":5.0,"ss":0.0,"used":false,"health":1},{"PRN":14,"gnssid":0,"svid":14,"az":324.0,"el":15.0,"ss":37.0,"used":true,"health":1},{"PRN":37,"gnssid":1,"svid":124,"az":0.0,"el":-9.0,"ss":0.0,"used":false,"health":1},{"PRN":8,"gnssid":0,"svid":8,"az":215.0,"el":74.0,"ss":48.0,"used":true,"health":1},{"PRN":10,"gnssid":0,"svid":10,"az":66.0,"el":56.0,"ss":50.0,"used":true,"health":1},{"PRN":23,"gnssid":0,"svid":23,"az":50.0,"el":22.0,"ss":46.0,"used":true,"health":1},{"PRN":21,"gnssid":0,"svid":21,"az":278.0,"el":55.0,"ss":45.0,"used":true,"health":1},{"PRN":27,"gnssid":0,"svid":27,"az":152.0,"el":47.0,"ss":47.0,"used":true,"health":1}]}
{"class":"TPV","device":"/dev/ttyACM0","mode":3,"time":"2024-06-04T12:11:50.501Z","leapseconds":18,"ept":0.005,"lat":52.315801186,"lon":10.563177538,"altHAE":115.6276,"altMSL":71.7302,"alt":71.7302,"epx":9.280,"epy":14.902,"epv":57.270,"track":275.4855,"magtrack":278.7054,"magvar":3.2,"speed":1.400,"climb":-0.002,"eps":0.42,"epc":453.61,"ecefx":3841066.25,"ecefy":716281.31,"ecefz":5024452.35,"ecefvx":0.15,"ecefvy":-1.39,"ecefvz":0.08,"ecefpAcc":3.94,"ecefvAcc":0.42,"velN":0.134,"velE":-1.394,"velD":0.002,"geoidSep":43.897,"eph":30.400,"sep":56.050}
{"class":"SKY","device":"/dev/ttyACM0","time":"2024-06-04T12:11:50.249Z","gdop":3.49,"hdop":1.60,"pdop":2.95,"tdop":1.86,"xdop":0.62,"ydop":0.99,"vdop":2.49,"uSat":8}
{"class":"SKY","device":"/dev/ttyACM0","time":"2024-06-04T12:11:50.249Z","gdop":3.49,"hdop":1.60,"pdop":2.95,"tdop":1.86,"xdop":0.62,"ydop":0.99,"vdop":2.48,"uSat":8}
{"class":"TPV","device":"/dev/ttyACM0","mode":3,"time":"2024-06-04T12:11:50.501Z","leapseconds":18,"ept":0.005,"lat":52.315801186,"lon":10.563177538,"altHAE":115.6276,"altMSL":71.7302,"alt":71.7302,"epx":9.280,"epy":14.902,"epv":57.270,"track":275.4855,"magtrack":278.7054,"magvar":3.2,"speed":1.400,"climb":-0.002,"eps":118.27,"epc":453.61,"ecefx":3841066.25,"ecefy":716281.31,"ecefz":5024452.35,"ecefvx":0.15,"ecefvy":-1.39,"ecefvz":0.08,"ecefpAcc":3.94,"ecefvAcc":0.42,"velN":0.134,"velE":-1.394,"velD":0.002,"geoidSep":43.897,"eph":30.400,"sep":56.050}
{"class":"SKY","device":"/dev/ttyACM0","time":"2024-06-04T12:11:50.501Z","gdop":3.49,"hdop":1.60,"pdop":2.95,"tdop":1.86,"xdop":0.62,"ydop":0.99,"vdop":2.48,"nSat":11,"uSat":6,"satellites":[{"PRN":2,"gnssid":0,"svid":2,"az":275.0,"el":38.0,"ss":0.0,"used":false,"health":1},{"PRN":22,"gnssid":0,"svid":22,"az":338.0,"el":3.0,"ss":30.0,"used":false,"health":1},{"PRN":32,"gnssid":0,"svid":32,"az":116.0,"el":29.0,"ss":42.0,"used":false,"health":1},{"PRN":16,"gnssid":0,"svid":16,"az":188.0,"el":5.0,"ss":0.0,"used":false,"health":1},{"PRN":14,"gnssid":0,"svid":14,"az":324.0,"el":15.0,"ss":37.0,"used":true,"health":1},{"PRN":37,"gnssid":1,"svid":124,"az":0.0,"el":-9.0,"ss":0.0,"used":false,"health":1},{"PRN":8,"gnssid":0,"svid":8,"az":215.0,"el":74.0,"ss":48.0,"used":true,"health":1},{"PRN":10,"gnssid":0,"svid":10,"az":66.0,"el":56.0,"ss":51.0,"used":true,"health":1},{"PRN":23,"gnssid":0,"svid":23,"az":50.0,"el":22.0,"ss":46.0,"used":true,"health":1},{"PRN":21,"gnssid":0,"svid":21,"az":278.0,"el":55.0,"ss":45.0,"used":true,"health":1},{"PRN":27,"gnssid":0,"svid":27,"az":152.0,"el":47.0,"ss":46.0,"used":true,"health":1}]}
{"class":"TPV","device":"/dev/ttyACM0","mode":3,"time":"2024-06-04T12:11:50.749Z","leapseconds":18,"ept":0.005,"lat":52.315801704,"lon":10.563171430,"altHAE":115.6083,"altMSL":71.7110,"alt":71.7110,"epx":9.280,"epy":14.902,"epv":57.040,"track":276.1510,"magtrack":279.3709,"magvar":3.2,"speed":1.906,"climb":0.019,"eps":0.43,"epc":460.93,"ecefx":3841066.27,"ecefy":716280.89,"ecefz":5024452.37,"ecefvx":0.20,"ecefvy":-1.89,"ecefvz":0.14,"ecefpAcc":3.94,"ecefvAcc":0.43,"velN":0.204,"velE":-1.895,"velD":-0.019,"geoidSep":43.897,"eph":30.400,"sep":67.070}
{"class":"SKY","device":"/dev/ttyACM0","time":"2024-06-04T12:11:50.501Z","gdop":3.49,"hdop":1.60,"pdop":3.53,"tdop":1.86,"xdop":0.62,"ydop":0.99,"vdop":2.48,"uSat":8}
{"class":"SKY","device":"/dev/ttyACM0","time":"2024-06-04T12:11:50.501Z","gdop":4.30,"hdop":1.68,"pdop":3.53,"tdop":2.46,"xdop":0.62,"ydop":0.99,"vdop":3.11,"uSat":8}
{"class":"TPV","device":"/dev/ttyACM0","mode":3,"time":"2024-06-04T12:11:50.749Z","leapseconds":18,"ept":0.005,"lat":52.315801704,"lon":10.563171430,"altHAE":115.6083,"altMSL":71.7110,"alt":71.7110,"epx":9.280,"epy":14.902,"epv":57.040,"track":276.1510,"magtrack":279.3709,"magvar":3.2,"speed":1.906,"climb":0.019,"eps":120.18,"epc":460.93,"ecefx":3841066.27,"ecefy":716280.89,"ecefz":5024452.37,"ecefvx":0.20,"ecefvy":-1.89,"ecefvz":0.14,"ecefpAcc":3.94,"ecefvAcc":0.43,"velN":0.204,"velE":-1.895,"velD":-0.019,"geoidSep":43.897,"eph":30.400,"sep":67.070}
{"class":"SKY","device":"/dev/ttyACM0","time":"2024-06-04T12:11:50.749Z","gdop":4.30,"hdop":1.68,"pdop":3.53,"tdop":2.46,"xdop":0.62,"ydop":0.99,"vdop":3.11,"nSat":11,"uSat":6,"satellites":[{"PRN":2,"gnssid":0,"svid":2,"az":275.0,"el":38.0,"ss":0.0,"used":false,"health":1},{"PRN":22,"gnssid":0,"svid":22,"az":338.0,"el":3.0,"ss":30.0,"used":false,"health":1},{"PRN":32,"gnssid":0,"svid":32,"az":116.0,"el":29.0,"ss":42.0,"used":true,"health":1},{"PRN":16,"gnssid":0,"svid":16,"az":188.0,"el":5.0,"ss":0.0,"used":false,"health":1},{"PRN":14,"gnssid":0,"svid":14,"az":324.0,"el":15.0,"ss":37.0,"used":false,"health":1},{"PRN":37,"gnssid":1,"svid":124,"az":0.0,"el":-9.0,"ss":0.0,"used":false,"health":1},{"PRN":8,"gnssid":0,"svid":8,"az":215.0,"el":74.0,"ss":49.0,"used":true,"health":1},{"PRN":10,"gnssid":0,"svid":10,"az":66.0,"el":56.0,"ss":51.0,"used":true,"health":1},{"PRN":23,"gnssid":0,"svid":23,"az":50.0,"el":22.0,"ss":46.0,"used":true,"health":1},{"PRN":21,"gnssid":0,"svid":21,"az":278.0,"el":55.0,"ss":45.0,"used":true,"health":1},{"PRN":27,"gnssid":0,"svid":27,"az":152.0,"el":47.0,"ss":47.0,"used":true,"health":1}]}
{"class":"TPV","device":"/dev/ttyACM0","mode":3,"time":"2024-06-04T12:11:51.001Z","leapseconds":18,"ept":0.005,"lat":52.315802471,"lon":10.563163394,"altHAE":115.6182,"altMSL":71.7208,"alt":71.7208,"epx":9.280,"epy":14.902,"epv":71.530,"track":276.0947,"magtrack":279.3145,"magvar":3.2,"speed":2.399,"climb":0.018,"eps":0.43,"epc":510.20,"ecefx":3841066.31,"ecefy":716280.34,"ecefz":5024452.43,"ecefvx":0.25,"ecefvy":-2.38,"ecefvz":0.17,"ecefpAcc":3.94,"ecefvAcc":0.43,"velN":0.255,"velE":-2.385,"velD":-0.018,"geoidSep":43.897,"eph":31.920,"sep":67.070}
{"class":"SKY","device":"/dev/ttyACM0","time":"2024-06-04T12:11:50.749Z","gdop":4.30,"hdop":1.68,"pdop":3.53,"tdop":2.46,"xdop":0.62,"ydop":0.99,"vdop":3.11,"uSat":8}
{"class":"SKY","device":"/dev/ttyACM0","time":"2024-06-04T12:11:50.749Z","gdop":4.30,"hdop":1.68,"pdop":3.53,"tdop":2.46,"xdop":0.62,"ydop":0.99,"vdop":3.10,"uSat":8}
{"class":"TPV","device":"/dev/ttyACM0","mode":3,"time":"2024-06-04T12:11:51.001Z","leapseconds":18,"ept":0.005,"lat":52.315802471,"lon":10.563163394,"altHAE":115.6182,"altMSL":71.7208,"alt":71.7208,"epx":9.280,"epy":14.902,"epv":71.530,"track":276.0947,"magtrack":279.3145,"magvar":3.2,"speed":2.399,"climb":0.018,"eps":118.27,"epc":510.20,"ecefx":3841066.31,"ecefy":716280.34,"ecefz":5024452.43,"ecefvx":0.25,"ecefvy":-2.38,"ecefvz":0.17,"ecefpAcc":3.94,"ecefvAcc":0.43,"velN":0.255,"velE":-2.385,"velD":-0.018,"geoidSep":43.897,"eph":31.920,"sep":67.070}
{"class":"SKY","device":"/dev/ttyACM0","time":"2024-06-04T12:11:51.001Z","gdop":4.30,"hdop":1.68,"pdop":3.53,"tdop":2.46,"xdop":0.62,"ydop":0.99,"vdop":3.10,"nSat":11,"uSat":6,"satellites":[{"PRN":2,"gnssid":0,"svid":2,"az":275.0,"el":38.0,"ss":0.0,"used":false,"health":1},{"PRN":22,"gnssid":0,"svid":22,"az":338.0,"el":3.0,"ss":29.0,"used":false,"health":1},{"PRN":32,"gnssid":0,"svid":32,"az":116.0,"el":29.0,"ss":43.0,"used":true,"health":1},{"PRN":16,"gnssid":0,"svid":16,"az":188.0,"el":5.0,"ss":0.0,"used":false,"health":1},{"PRN":14,"gnssid":0,"svid":14,"az":324.0,"el":15.0,"ss":36.0,"used":false,"health":1},{"PRN":39,"gnssid":1,"svid":126,"az":0.0,"el":-9.0,"ss":0.0,"used":false,"health":1},{"PRN":8,"gnssid":0,"svid":8,"az":215.0,"el":74.0,"ss":49.0,"used":true,"health":1},{"PRN":10,"gnssid":0,"svid":10,"az":66.0,"el":56.0,"ss":51.0,"used":true,"health":1},{"PRN":23,"gnssid":0,"svid":23,"az":50.0,"el":22.0,"ss":46.0,"used":true,"health":1},{"PRN":21,"gnssid":0,"svid":21,"az":278.0,"el":55.0,"ss":45.0,"used":true,"health":1},{"PRN":27,"gnssid":0,"svid":27,"az":152.0,"el":47.0,"ss":47.0,"used":true,"health":1}]}
{"class":"TPV","device":"/dev/ttyACM0","mode":3,"time":"2024-06-04T12:11:51.249Z","leapseconds":18,"ept":0.005,"lat":52.315803095,"lon":10.563154322,"altHAE":115.6025,"altMSL":71.7051,"alt":71.7051,"epx":9.280,"epy":14.902,"epv":71.300,"track":275.0168,"magtrack":278.2366,"magvar":3.2,"speed":2.715,"climb":0.031,"eps":0.43,"epc":575.93,"ecefx":3841066.36,"ecefy":716279.72,"ecefz":5024452.46,"ecefvx":0.33,"ecefvy":-2.69,"ecefvz":0.17,"ecefpAcc":3.94,"ecefvAcc":0.43,"velN":0.237,"velE":-2.705,"velD":-0.031,"geoidSep":43.897,"eph":31.920,"sep":46.360}
{"class":"SKY","device":"/dev/ttyACM0","time":"2024-06-04T12:11:51.001Z","gdop":4.30,"hdop":1.68,"pdop":2.44,"tdop":2.46,"xdop":0.62,"ydop":0.99,"vdop":3.10,"uSat":8}
{"class":"SKY","device":"/dev/ttyACM0","time":"2024-06-04T12:11:51.001Z","gdop":2.84,"hdop":1.35,"pdop":2.44,"tdop":1.45,"xdop":0.62,"ydop":0.99,"vdop":2.03,"uSat":8}
{"class":"TPV","device":"/dev/ttyACM0","mode":3,"time":"2024-06-04T12:11:51.249Z","leapseconds":18,"ept":0.005,"lat":52.315803095,"lon":10.563154322,"altHAE":115.6025,"altMSL":71.7051,"alt":71.7051,"epx":9.280,"epy":14.902,"epv":71.300,"track":275.0168,"magtrack":278.2366,"magvar":3.2,"speed":2.715,"climb":0.031,"eps":120.18,"epc":575.93,"ecefx":3841066.36,"ecefy":716279.72,"ecefz":5024452.46,"ecefvx":0.33,"ecefvy":-2.69,"ecefvz":0.17,"ecefpAcc":3.94,"ecefvAcc":0.43,"velN":0.237,"velE":-2.705,"velD":-0.031,"geoidSep":43.897,"eph":31.920,"sep":46.360}
{"class":"SKY","device":"/dev/ttyACM0","time":"2024-06-04T12:11:51.249Z","gdop":2.84,"hdop":1.35,"pdop":2.44,"tdop":1.45,"xdop":0.62,"ydop":0.99,"vdop":2.03,"nSat":11,"uSat":7,"satellites":[{"PRN":2,"gnssid":0,"svid":2,"az":275.0,"el":38.0,"ss":0.0,"used":false,"health":1},{"PRN":22,"gnssid":0,"svid":22,"az":338.0,"el":3.0,"ss":29.0,"used":false,"health":1},{"PRN":32,"gnssid":0,"svid":32,"az":116.0,"el":29.0,"ss":43.0,"used":true,"health":1},{"PRN":16,"gnssid":0,"svid":16,"az":188.0,"el":5.0,"ss":0.0,"used":false,"health":1},{"PRN":14,"gnssid":0,"svid":14,"az":324.0,"el":15.0,"ss":37.0,"used":true,"health":1},{"PRN":39,"gnssid":1,"svid":126,"az":0.0,"el":-9.0,"ss":0.0,"used":false,"health":1},{"PRN":8,"gnssid":0,"svid":8,"az":215.0,"el":74.0,"ss":49.0,"used":true,"health":1},{"PRN":10,"gnssid":0,"svid":10,"az":66.0,"el":56.0,"ss":51.0,"used":true,"health":1},{"PRN":23,"gnssid":0,"svid":23,"az":50.0,"el":22.0,"ss":46.0,"used":true,"health":1},{"PRN":21,"gnssid":0,"svid":21,"az":278.0,"el":55.0,"ss":45.0,"used":true,"health":1},{"PRN":27,"gnssid":0,"svid":27,"az":152.0,"el":47.0,"ss":46.0,"used":true,"health":1}]}
{"class":"TPV","device":"/dev/ttyACM0","mode":3,"time":"2024-06-04T12:11:51.501Z","leapseconds":18,"ept":0.005,"lat":52.315804147,"lon":10.563143349,"altHAE":115.6258,"altMSL":71.7284,"alt":71.7284,"epx":9.280,"epy":14.902,"epv":46.690,"track":276.5624,"magtrack":279.7823,"magvar":3.2,"speed":3.062,"climb":0.008,"eps":0.43,"epc":468.21,"ecefx":3841066.42,"ecefy":716278.97,"ecefz":5024452.55,"ecefvx":0.29,"ecefvy":-3.04,"ecefvz":0.22,"ecefpAcc":3.94,"ecefvAcc":0.43,"velN":0.350,"velE":-3.042,"velD":-0.008,"geoidSep":43.897,"eph":25.650,"sep":67.070}
{"class":"SKY","device":"/dev/ttyACM0","time":"2024-06-04T12:11:51.249Z","gdop":2.84,"hdop":1.35,"pdop":3.53,"tdop":1.45,"xdop":0.62,"ydop":0.99,"vdop":2.03,"uSat":8}
{"class":"SKY","device":"/dev/ttyACM0","time":"2024-06-04T12:11:51.249Z","gdop":4.30,"hdop":1.68,"pdop":3.53,"tdop":2.46,"xdop":0.62,"ydop":0.99,"vdop":3.10,"uSat":8}
{"class":"TPV","device":"/dev/ttyACM0","mode":3,"time":"2024-06-04T12:11:51.501Z","leapseconds":18,"ept":0.005,"lat":52.315804147,"lon":10.563143349,"altHAE":115.6258,"altMSL":71.7284,"alt":71.7284,"epx":9.280,"epy":14.902,"epv":46.690,"track":276.5624,"magtrack":279.7823,"magvar":3.2,"speed":3.062,"climb":0.008,"eps":118.27,"epc":468.21,"ecefx":3841066.42,"ecefy":716278.97,"ecefz":5024452.55,"ecefvx":0.29,"ecefvy":-3.04,"ecefvz":0.22,"ecefpAcc":3.94,"ecefvAcc":0.43,"velN":0.350,"velE":-3.042,"velD":-0.008,"geoidSep":43.897,"eph":25.650,"sep":67.070}
{"class":"SKY","device":"/dev/ttyACM0","time":"2024-06-04T12:11:51.501Z","gdop":4.30,"hdop":1.68,"pdop":3.53,"tdop":2.46,"xdop":0.62,"ydop":0.99,"vdop":3.10,"nSat":11,"uSat":6,"satellites":[{"PRN":2,"gnssid":0,"svid":2,"az":275.0,"el":38.0,"ss":0.0,"used":false,"health":1},{"PRN":22,"gnssid":0,"svid":22,"az":338.0,"el":3.0,"ss":30.0,"used":false,"health":1},{"PRN":32,"gnssid":0,"svid":32,"az":116.0,"el":29.0,"ss":40.0,"used":true,"health":1},{"PRN":16,"gnssid":0,"svid":16,"az":188.0,"el":5.0,"ss":0.0,"used":false,"health":1},{"PRN":14,"gnssid":0,"svid":14,"az":324.0,"el":15.0,"ss":36.0,"used":false,"health":1},{"PRN":39,"gnssid":1,"svid":126,"az":0.0,"el":-9.0,"ss":0.0,"used":false,"health":1},{"PRN":8,"gnssid":0,"svid":8,"az":215.0,"el":74.0,"ss":49.0,"used":true,"health":1},{"PRN":10,"gnssid":0,"svid":10,"az":66.0,"el":56.0,"ss":51.0,"used":true,"health":1},{"PRN":23,"gnssid":0,"svid":23,"az":50.0,"el":22.0,"ss":46.0,"used":true,"health":1},{"PRN":21,"gnssid":0,"svid":21,"az":278.0,"el":55.0,"ss":45.0,"used":true,"health":1},{"PRN":27,"gnssid":0,"svid":27,"az":152.0,"el":47.0,"ss":47.0,"used":true,"health":1}]}
{"class":"TPV","device":"/dev/ttyACM0","mode":3,"time":"2024-06-04T12:11:51.749Z","leapseconds":18,"ept":0.005,"lat":52.315805376,"lon":10.563132061,"altHAE":115.6844,"altMSL":71.7870,"alt":71.7870,"epx":9.280,"epy":14.902,"epv":71.300,"track":275.8077,"magtrack":279.0276,"magvar":3.2,"speed":3.185,"climb":0.016,"eps":0.43,"epc":475.77,"ecefx":3841066.49,"ecefy":716278.20,"ecefz":5024452.68,"ecefvx":0.34,"ecefvy":-3.16,"ecefvz":0.21,"ecefpAcc":3.94,"ecefvAcc":0.43,"velN":0.322,"velE":-3.169,"velD":-0.016,"geoidSep":43.897,"eph":31.920,"sep":46.360}
{"class":"SKY","device":"/dev/ttyACM0","time":"2024-06-04T12:11:51.501Z","gdop":4.30,"hdop":1.68,"pdop":2.44,"tdop":2.46,"xdop":0.62,"ydop":0.99,"vdop":3.10,"uSat":8}
{"class":"SKY","device":"/dev/ttyACM0","time":"2024-06-04T12:11:51.501Z","gdop":2.83,"hdop":1.35,"pdop":2.44,"tdop":1.45,"xdop":0.62,"ydop":0.99,"vdop":2.03,"uSat":8}
{"class":"TPV","device":"/dev/ttyACM0","mode":3,"time":"2024-06-04T12:11:51.749Z","leapseconds":18,"ept":0.005,"lat":52.315805376,"lon":10.563132061,"altHAE":115.6844,"altMSL":71.7870,"alt":71.7870,"epx":9.280,"epy":14.902,"epv":71.300,"track":275.8077,"magtrack":279.0276,"magvar":3.2,"speed":3.185,"climb":0.016,"eps":120.18,"epc":475.77,"ecefx":3841066.49,"ecefy":716278.20,"ecefz":5024452.68,"ecefvx":0.34,"ecefvy":-3.16,"ecefvz":0.21,"ecefpAcc":3.94,"ecefvAcc":0.43,"velN":0.322,"velE":-3.169,"velD":-0.016,"geoidSep":43.897,"eph":31.920,"sep":46.360}
{"class":"SKY","device":"/dev/ttyACM0","time":"2024-06-04T12:11:51.749Z","gdop":2.83,"hdop":1.35,"pdop":2.44,"tdop":1.45,"xdop":0.62,"ydop":0.99,"vdop":2.03,"nSat":11,"uSat":7,"satellites":[{"PRN":2,"gnssid":0,"svid":2,"az":275.0,"el":38.0,"ss":0.0,"used":false,"health":1},{"PRN":22,"gnssid":0,"svid":22,"az":338.0,"el":3.0,"ss":29.0,"used":false,"health":1},{"PRN":32,"gnssid":0,"svid":32,"az":116.0,"el":29.0,"ss":43.0,"used":true,"health":1},{"PRN":16,"gnssid":0,"svid":16,"az":188.0,"el":5.0,"ss":0.0,"used":false,"health":1},{"PRN":14,"gnssid":0,"svid":14,"az":324.0,"el":15.0,"ss":36.0,"used":true,"health":1},{"PRN":39,"gnssid":1,"svid":126,"az":0.0,"el":-9.0,"ss":0.0,"used":false,"health":1},{"PRN":8,"gnssid":0,"svid":8,"az":215.0,"el":74.0,"ss":49.0,"used":true,"health":1},{"PRN":10,"gnssid":0,"svid":10,"az":66.0,"el":56.0,"ss":51.0,"used":true,"health":1},{"PRN":23,"gnssid":0,"svid":23,"az":50.0,"el":22.0,"ss":46.0,"used":true,"health":1},{"PRN":21,"gnssid":0,"svid":21,"az":278.0,"el":55.0,"ss":44.0,"used":true,"health":1},{"PRN":27,"gnssid":0,"svid":27,"az":152.0,"el":47.0,"ss":47.0,"used":true,"health":1}]}
{"class":"TPV","device":"/dev/ttyACM0","mode":3,"time":"2024-06-04T12:11:52.001Z","leapseconds":18,"ept":0.005,"lat":52.315806435,"lon":10.563120025,"altHAE":115.7198,"altMSL":71.8223,"alt":71.8223,"epx":9.280,"epy":14.902,"epv":46.690,"track":276.6030,"magtrack":279.8229,"magvar":3.2,"speed":3.254,"climb":0.014,"eps":0.43,"epc":468.21,"ecefx":3841066.57,"ecefy":716277.38,"ecefz":5024452.78,"ecefvx":0.31,"ecefvy":-3.23,"ecefvz":0.24,"ecefpAcc":3.94,"ecefvAcc":0.43,"velN":0.374,"velE":-3.232,"velD":-0.014,"geoidSep":43.897,"eph":25.650,"sep":46.360}
{"class":"SKY","device":"/dev/ttyACM0","time":"2024-06-04T12:11:51.749Z","gdop":2.83,"hdop":1.35,"pdop":2.44,"tdop":1.45,"xdop":0.62,"ydop":0.99,"vdop":2.03,"uSat":8}
{"class":"SKY","device":"/dev/ttyACM0","time":"2024-06-04T12:11:51.749Z","gdop":2.84,"hdop":1.35,"pdop":2.44,"tdop":1.45,"xdop":0.62,"ydop":0.99,"vdop":2.03,"uSat":8}
{"class":"TPV","device":"/dev/ttyACM0","mode":3,"time":"2024-06-04T12:11:52.001Z","leapseconds":18,"ept":0.005,"lat":52.315806435,"lon":10.563120025,"altHAE":115.7198,"altMSL":71.8223,"alt":71.8223,"epx":9.280,"epy":14.902,"epv":46.690,"track":276.6030,"magtrack":279.8229,"magvar":3.2,"speed":3.254,"climb":0.014,"eps":118.27,"epc":468.21,"ecefx":3841066.57,"ecefy":716277.38,"ecefz":5024452.78,"ecefvx":0.31,"ecefvy":-3.23,"ecefvz":0.24,"ecefpAcc":3.94,"ecefvAcc":0.43,"velN":0.374,"velE":-3.232,"velD":-0.014,"geoidSep":43.897,"eph":25.650,"sep":46.360}
{"class":"SKY","device":"/dev/ttyACM0","time":"2024-06-04T12:11:52.001Z","gdop":2.84,"hdop":1.35,"pdop":2.44,"tdop":1.45,"xdop":0.62,"ydop":0.99,"vdop":2.03,"nSat":11,"uSat":7,"satellites":[{"PRN":2,"gnssid":0,"svid":2,"az":275.0,"el":38.0,"ss":0.0,"used":false,"health":1},{"PRN":22,"gnssid":0,"svid":22,"az":338.0,"el":3.0,"ss":30.0,"used":false,"health":1},{"PRN":32,"gnssid":0,"svid":32,"az":116.0,"el":29.0,"ss":44.0,"used":true,"health":1},{"PRN":16,"gnssid":0,"svid":16,"az":188.0,"el":5.0,"ss":0.0,"used":false,"health":1},{"PRN":14,"gnssid":0,"svid":14,"az":324.0,"el":15.0,"ss":36.0,"used":true,"health":1},{"PRN":39,"gnssid":1,"svid":126,"az":0.0,"el":-9.0,"ss":0.0,"used":false,"health":1},{"PRN":8,"gnssid":0,"svid":8,"az":215.0,"el":74.0,"ss":49.0,"used":true,"health":1},{"PRN":10,"gnssid":0,"svid":10,"az":66.0,"el":56.0,"ss":51.0,"used":true,"health":1},{"PRN":23,"gnssid":0,"svid":23,"az":50.0,"el":22.0,"ss":46.0,"used":true,"health":1},{"PRN":21,"gnssid":0,"svid":21,"az":278.0,"el":55.0,"ss":44.0,"used":true,"health":1},{"PRN":27,"gnssid":0,"svid":27,"az":152.0,"el":47.0,"ss":47.0,"used":true,"health":1}]}
