{"class":"VERSION","release":"3.25","rev":"3.25","proto_major":3,"proto_minor":15}
{"class":"DEVICES","devices":[{"class":"DEVICE","path":"/dev/ttyACM0","driver":"u-blox","subtype":"SW 5.00    May 11 2006 14:40:17,HW 00040001","subtype1":"M4T1.2  May 11 2006 14:40:17","activated":"2024-06-04T12:30:41.642Z","flags":1,"native":1,"bps":57600,"parity":"N","stopbits":1,"cycle":1.00,"mincycle":0.02}]}
{"class":"WATCH","enable":true,"json":true,"nmea":false,"raw":0,"scaled":false,"timing":false,"split24":false,"pps":false}
{"class":"TPV","device":"/dev/ttyACM0","mode":3,"time":"2024-06-04T12:30:41.750Z","leapseconds":18,"ept":0.005,"lat":52.315893845,"lon":10.561986430,"altHAE":121.2216,"altMSL":77.3233,"alt":77.3233,"epx":9.280,"epy":14.902,"epv":46.920,"track":271.3806,"magtrack":274.6002,"magvar":3.2,"speed":1.125,"climb":-0.008,"eps":0.45,"epc":421.67,"ecefx":3841076.48,"ecefy":716200.59,"ecefz":5024463.08,"ecefvx":0.18,"ecefvy":-1.11,"ecefvz":0.01,"ecefpAcc":4.94,"ecefvAcc":0.45,"velN":0.027,"velE":-1.124,"velD":0.008,"geoidSep":43.898,"eph":23.180,"sep":45.220}
{"class":"SKY","device":"/dev/ttyACM0","time":"2024-06-04T12:30:41.498Z","gdop":2.76,"hdop":1.22,"pdop":2.38,"tdop":1.40,"xdop":0.62,"ydop":0.99,"vdop":2.04,"uSat":8}
{"class":"SKY","device":"/dev/ttyACM0","time":"2024-06-04T12:30:41.498Z","gdop":2.76,"hdop":1.22,"pdop":2.38,"tdop":1.40,"xdop":0.62,"ydop":0.99,"vdop":2.04,"uSat":8}
{"class":"TPV","device":"/dev/ttyACM0","mode":3,"time":"2024-06-04T12:30:41.750Z","leapseconds":18,"ept":0.005,"lat":52.315893845,"lon":10.561986430,"altHAE":121.2216,"altMSL":77.3233,"alt":77.3233,"epx":9.280,"epy":14.902,"epv":46.920,"track":271.3806,"magtrack":274.6002,"magvar":3.2,"speed":1.125,"climb":-0.008,"eps":118.27,"epc":421.67,"ecefx":3841076.48,"ecefy":716200.59,"ecefz":5024463.08,"ecefvx":0.18,"ecefvy":-1.11,"ecefvz":0.01,"ecefpAcc":4.94,"ecefvAcc":0.45,"velN":0.027,"velE":-1.124,"velD":0.008,"geoidSep":43.898,"eph":23.180,"sep":45.220}
{"class":"SKY","device":"/dev/ttyACM0","time":"2024-06-04T12:30:41.750Z","gdop":2.76,"hdop":1.22,"pdop":2.38,"tdop":1.40,"xdop":0.62,"ydop":0.99,"vdop":2.04,"nSat":12,"uSat":8,"satellites":[{"PRN":2,"gnssid":0,"svid":2,"az":280.0,"el":45.0,"ss":39.0,"used":true,"health":1},{"PRN":22,"gnssid":0,"svid":22,"az":334.0,"el":8.0,"ss":26.0,"used":false,"health":1},{"PRN":32,"gnssid":0,"svid":32,"az":108.0,"el":35.0,"ss":48.0,"used":true,"health":1},{"PRN":44,"gnssid":1,"svid":131,"az":0.0,"el":-9.0,"ss":0.0,"used":false,"health":1},{"PRN":14,"gnssid":0,"svid":14,"az":317.0,"el":19.0,"ss":36.0,"used":true,"health":1},{"PRN":24,"gnssid":0,"svid":24,"az":32.0,"el":2.0,"ss":25.0,"used":false,"health":1},{"PRN":3,"gnssid":0,"svid":3,"az":221.0,"el":2.0,"ss":0.0,"used":false,"health":1},{"PRN":8,"gnssid":0,"svid":8,"az":194.0,"el":68.0,"ss":47.0,"used":true,"health":1},{"PRN":10,"gnssid":0,"svid":10,"az":60.0,"el":49.0,"ss":50.0,"used":true,"health":1},{"PRN":23,"gnssid":0,"svid":23,"az":50.0,"el":14.0,"ss":37.0,"used":true,"health":1},{"PRN":27,"gnssid":0,"svid":27,"az":154.0,"el":38.0,"ss":47.0,"used":true,"health":1},{"PRN":21,"gnssid":0,"svid":21,"az":283.0,"el":64.0,"ss":43.0,"used":true,"health":1}]}
{"class":"TPV","device":"/dev/ttyACM0","mode":3,"time":"2024-06-04T12:30:41.998Z","leapseconds":18,"ept":0.005,"lat":52.315893993,"lon":10.561982970,"altHAE":121.1709,"altMSL":77.2726,"alt":77.2726,"epx":9.280,"epy":14.902,"epv":46.920,"track":272.5969,"magtrack":275.8164,"magvar":3.2,"speed":0.807,"climb":-0.016,"eps":0.45,"epc":378.39,"ecefx":3841076.48,"ecefy":716200.35,"ecefz":5024463.05,"ecefvx":0.11,"ecefvy":-0.80,"ecefvz":0.01,"ecefpAcc":4.94,"ecefvAcc":0.45,"velN":0.037,"velE":-0.807,"velD":0.016,"geoidSep":43.898,"eph":23.180,"sep":45.220}
{"class":"SKY","device":"/dev/ttyACM0","time":"2024-06-04T12:30:41.750Z","gdop":2.76,"hdop":1.22,"pdop":2.38,"tdop":1.40,"xdop":0.62,"ydop":0.99,"vdop":2.04,"uSat":8}
{"class":"SKY","device":"/dev/ttyACM0","time":"2024-06-04T12:30:41.750Z","gdop":2.76,"hdop":1.22,"pdop":2.38,"tdop":1.40,"xdop":0.62,"ydop":0.99,"vdop":2.04,"uSat":8}
{"class":"TPV","device":"/dev/ttyACM0","mode":3,"time":"2024-06-04T12:30:41.998Z","leapseconds":18,"ept":0.005,"lat":52.315893993,"lon":10.561982970,"altHAE":121.1709,"altMSL":77.2726,"alt":77.2726,"epx":9.280,"epy":14.902,"epv":46.920,"track":272.5969,"magtrack":275.8164,"magvar":3.2,"speed":0.807,"climb":-0.016,"eps":120.18,"epc":378.39,"ecefx":3841076.48,"ecefy":716200.35,"ecefz":5024463.05,"ecefvx":0.11,"ecefvy":-0.80,"ecefvz":0.01,"ecefpAcc":4.94,"ecefvAcc":0.45,"velN":0.037,"velE":-0.807,"velD":0.016,"geoidSep":43.898,"eph":23.180,"sep":45.220}
{"class":"SKY","device":"/dev/ttyACM0","time":"2024-06-04T12:30:41.998Z","gdop":2.76,"hdop":1.22,"pdop":2.38,"tdop":1.40,"xdop":0.62,"ydop":0.99,"vdop":2.04,"nSat":12,"uSat":8,"satellites":[{"PRN":2,"gnssid":0,"svid":2,"az":280.0,"el":45.0,"ss":39.0,"used":true,"health":1},{"PRN":22,"gnssid":0,"svid":22,"az":334.0,"el":8.0,"ss":24.0,"used":false,"health":1},{"PRN":32,"gnssid":0,"svid":32,"az":108.0,"el":35.0,"ss":48.0,"used":true,"health":1},{"PRN":44,"gnssid":1,"svid":131,"az":0.0,"el":-9.0,"ss":0.0,"used":false,"health":1},{"PRN":14,"gnssid":0,"svid":14,"az":317.0,"el":19.0,"ss":35.0,"used":true,"health":1},{"PRN":24,"gnssid":0,"svid":24,"az":32.0,"el":2.0,"ss":26.0,"used":false,"health":1},{"PRN":3,"gnssid":0,"svid":3,"az":221.0,"el":2.0,"ss":0.0,"used":false,"health":1},{"PRN":8,"gnssid":0,"svid":8,"az":194.0,"el":68.0,"ss":47.0,"used":true,"health":1},{"PRN":10,"gnssid":0,"svid":10,"az":60.0,"el":49.0,"ss":50.0,"used":true,"health":1},{"PRN":23,"gnssid":0,"svid":23,"az":50.0,"el":14.0,"ss":39.0,"used":true,"health":1},{"PRN":27,"gnssid":0,"svid":27,"az":154.0,"el":38.0,"ss":47.0,"used":true,"health":1},{"PRN":21,"gnssid":0,"svid":21,"az":283.0,"el":64.0,"ss":44.0,"used":true,"health":1}]}
{"class":"TPV","device":"/dev/ttyACM0","mode":3,"time":"2024-06-04T12:30:42.250Z","leapseconds":18,"ept":0.005,"lat":52.315894006,"lon":10.561980204,"altHAE":121.1319,"altMSL":77.2336,"alt":77.2336,"epx":9.280,"epy":14.902,"epv":46.920,"track":269.1632,"magtrack":272.3827,"magvar":3.2,"speed":0.659,"climb":-0.030,"eps":0.44,"epc":372.38,"ecefx":3841076.49,"ecefy":716200.16,"ecefz":5024463.02,"ecefvx":0.11,"ecefvy":-0.65,"ecefvz":-0.03,"ecefpAcc":4.94,"ecefvAcc":0.44,"velN":-0.010,"velE":-0.659,"velD":0.030,"geoidSep":43.898,"eph":23.180,"sep":55.480}
{"class":"SKY","device":"/dev/ttyACM0","time":"2024-06-04T12:30:41.998Z","gdop":2.76,"hdop":1.22,"pdop":2.92,"tdop":1.40,"xdop":0.62,"ydop":0.99,"vdop":2.04,"uSat":8}
{"class":"SKY","device":"/dev/ttyACM0","time":"2024-06-04T12:30:41.998Z","gdop":3.48,"hdop":1.38,"pdop":2.92,"tdop":1.88,"xdop":0.62,"ydop":0.99,"vdop":2.58,"uSat":8}
{"class":"TPV","device":"/dev/ttyACM0","mode":3,"time":"2024-06-04T12:30:42.250Z","leapseconds":18,"ept":0.005,"lat":52.315894006,"lon":10.561980204,"altHAE":121.1319,"altMSL":77.2336,"alt":77.2336,"epx":9.280,"epy":14.902,"epv":46.920,"track":269.1632,"magtrack":272.3827,"magvar":3.2,"speed":0.659,"climb":-0.030,"eps":118.27,"epc":372.38,"ecefx":3841076.49,"ecefy":716200.16,"ecefz":5024463.02,"ecefvx":0.11,"ecefvy":-0.65,"ecefvz":-0.03,"ecefpAcc":4.94,"ecefvAcc":0.44,"velN":-0.010,"velE":-0.659,"velD":0.030,"geoidSep":43.898,"eph":23.180,"sep":55.480}
{"class":"SKY","device":"/dev/ttyACM0","time":"2024-06-04T12:30:42.250Z","gdop":3.48,"hdop":1.38,"pdop":2.92,"tdop":1.88,"xdop":0.62,"ydop":0.99,"vdop":2.58,"nSat":12,"uSat":7,"satellites":[{"PRN":2,"gnssid":0,"svid":2,"az":280.0,"el":45.0,"ss":40.0,"used":true,"health":1},{"PRN":22,"gnssid":0,"svid":22,"az":334.0,"el":8.0,"ss":26.0,"used":false,"health":1},{"PRN":32,"gnssid":0,"svid":32,"az":108.0,"el":35.0,"ss":48.0,"used":true,"health":1},{"PRN":44,"gnssid":1,"svid":131,"az":0.0,"el":-9.0,"ss":0.0,"used":false,"health":1},{"PRN":14,"gnssid":0,"svid":14,"az":317.0,"el":19.0,"ss":37.0,"used":false,"health":1},{"PRN":24,"gnssid":0,"svid":24,"az":32.0,"el":2.0,"ss":27.0,"used":false,"health":1},{"PRN":3,"gnssid":0,"svid":3,"az":221.0,"el":2.0,"ss":0.0,"used":false,"health":1},{"PRN":8,"gnssid":0,"svid":8,"az":194.0,"el":68.0,"ss":47.0,"used":true,"health":1},{"PRN":10,"gnssid":0,"svid":10,"az":60.0,"el":49.0,"ss":50.0,"used":true,"health":1},{"PRN":23,"gnssid":0,"svid":23,"az":50.0,"el":14.0,"ss":39.0,"used":true,"health":1},{"PRN":27,"gnssid":0,"svid":27,"az":154.0,"el":38.0,"ss":46.0,"used":true,"health":1},{"PRN":21,"gnssid":0,"svid":21,"az":283.0,"el":64.0,"ss":44.0,"used":true,"health":1}]}
{"class":"TPV","device":"/dev/ttyACM0","mode":3,"time":"2024-06-04T12:30:42.498Z","leapseconds":18,"ept":0.005,"lat":52.315894061,"lon":10.561978629,"altHAE":121.1903,"altMSL":77.2920,"alt":77.2920,"epx":9.280,"epy":14.902,"epv":59.340,"track":274.1666,"magtrack":277.3862,"magvar":3.2,"speed":0.484,"climb":-0.002,"eps":0.44,"epc":428.47,"ecefx":3841076.54,"ecefy":716200.06,"ecefz":5024463.07,"ecefvx":0.06,"ecefvy":-0.48,"ecefvz":0.02,"ecefpAcc":4.94,"ecefvAcc":0.44,"velN":0.035,"velE":-0.483,"velD":0.002,"geoidSep":43.898,"eph":26.220,"sep":45.220}
{"class":"SKY","device":"/dev/ttyACM0","time":"2024-06-04T12:30:42.250Z","gdop":3.48,"hdop":1.38,"pdop":2.38,"tdop":1.88,"xdop":0.62,"ydop":0.99,"vdop":2.58,"uSat":8}
{"class":"SKY","device":"/dev/ttyACM0","time":"2024-06-04T12:30:42.250Z","gdop":2.76,"hdop":1.22,"pdop":2.38,"tdop":1.40,"xdop":0.62,"ydop":0.99,"vdop":2.04,"uSat":8}
{"class":"TPV","device":"/dev/ttyACM0","mode":3,"time":"2024-06-04T12:30:42.498Z","leapseconds":18,"ept":0.005,"lat":52.315894061,"lon":10.561978629,"altHAE":121.1903,"altMSL":77.2920,"alt":77.2920,"epx":9.280,"epy":14.902,"epv":59.340,"track":274.1666,"magtrack":277.3862,"magvar":3.2,"speed":0.484,"climb":-0.002,"eps":120.18,"epc":428.47,"ecefx":3841076.54,"ecefy":716200.06,"ecefz":5024463.07,"ecefvx":0.06,"ecefvy":-0.48,"ecefvz":0.02,"ecefpAcc":4.94,"ecefvAcc":0.44,"velN":0.035,"velE":-0.483,"velD":0.002,"geoidSep":43.898,"eph":26.220,"sep":45.220}
{"class":"SKY","device":"/dev/ttyACM0","time":"2024-06-04T12:30:42.498Z","gdop":2.76,"hdop":1.22,"pdop":2.38,"tdop":1.40,"xdop":0.62,"ydop":0.99,"vdop":2.04,"nSat":12,"uSat":8,"satellites":[{"PRN":2,"gnssid":0,"svid":2,"az":280.0,"el":45.0,"ss":41.0,"used":true,"health":1},{"PRN":22,"gnssid":0,"svid":22,"az":334.0,"el":8.0,"ss":26.0,"used":false,"health":1},{"PRN":32,"gnssid":0,"svid":32,"az":108.0,"el":35.0,"ss":48.0,"used":true,"health":1},{"PRN":44,"gnssid":1,"svid":131,"az":0.0,"el":-9.0,"ss":0.0,"used":false,"health":1},{"PRN":14,"gnssid":0,"svid":14,"az":317.0,"el":19.0,"ss":36.0,"used":true,"health":1},{"PRN":24,"gnssid":0,"svid":24,"az":32.0,"el":2.0,"ss":30.0,"used":false,"health":1},{"PRN":3,"gnssid":0,"svid":3,"az":221.0,"el":2.0,"ss":0.0,"used":false,"health":1},{"PRN":8,"gnssid":0,"svid":8,"az":194.0,"el":68.0,"ss":47.0,"used":true,"health":1},{"PRN":10,"gnssid":0,"svid":10,"az":60.0,"el":49.0,"ss":50.0,"used":true,"health":1},{"PRN":23,"gnssid":0,"svid":23,"az":50.0,"el":14.0,"ss":41.0,"used":true,"health":1},{"PRN":27,"gnssid":0,"svid":27,"az":154.0,"el":38.0,"ss":47.0,"used":true,"health":1},{"PRN":21,"gnssid":0,"svid":21,"az":283.0,"el":64.0,"ss":44.0,"used":true,"health":1}]}
{"class":"TPV","device":"/dev/ttyACM0","mode":3,"time":"2024-06-04T12:30:42.750Z","leapseconds":18,"ept":0.005,"lat":52.315894064,"lon":10.561977224,"altHAE":121.2280,"altMSL":77.3297,"alt":77.3297,"epx":9.280,"epy":14.902,"epv":46.920,"track":271.0205,"magtrack":274.2400,"magvar":3.2,"speed":0.496,"climb":-0.007,"eps":0.43,"epc":421.67,"ecefx":3841076.58,"ecefy":716199.97,"ecefz":5024463.10,"ecefvx":0.08,"ecefvy":-0.49,"ecefvz":0.00,"ecefpAcc":4.94,"ecefvAcc":0.43,"velN":0.009,"velE":-0.496,"velD":0.007,"geoidSep":43.898,"eph":23.180,"sep":45.220}
{"class":"SKY","device":"/dev/ttyACM0","time":"2024-06-04T12:30:42.498Z","gdop":2.76,"hdop":1.22,"pdop":2.38,"tdop":1.40,"xdop":0.62,"ydop":0.99,"vdop":2.04,"uSat":8}
{"class":"SKY","device":"/dev/ttyACM0","time":"2024-06-04T12:30:42.498Z","gdop":2.76,"hdop":1.22,"pdop":2.38,"tdop":1.40,"xdop":0.62,"ydop":0.99,"vdop":2.04,"uSat":8}
{"class":"TPV","device":"/dev/ttyACM0","mode":3,"time":"2024-06-04T12:30:42.750Z","leapseconds":18,"ept":0.005,"lat":52.315894064,"lon":10.561977224,"altHAE":121.2280,"altMSL":77.3297,"alt":77.3297,"epx":9.280,"epy":14.902,"epv":46.920,"track":271.0205,"magtrack":274.2400,"magvar":3.2,"speed":0.496,"climb":-0.007,"eps":118.27,"epc":421.67,"ecefx":3841076.58,"ecefy":716199.97,"ecefz":5024463.10,"ecefvx":0.08,"ecefvy":-0.49,"ecefvz":0.00,"ecefpAcc":4.94,"ecefvAcc":0.43,"velN":0.009,"velE":-0.496,"velD":0.007,"geoidSep":43.898,"eph":23.180,"sep":45.220}
{"class":"SKY","device":"/dev/ttyACM0","time":"2024-06-04T12:30:42.750Z","gdop":2.76,"hdop":1.22,"pdop":2.38,"tdop":1.40,"xdop":0.62,"ydop":0.99,"vdop":2.04,"nSat":12,"uSat":8,"satellites":[{"PRN":2,"gnssid":0,"svid":2,"az":280.0,"el":45.0,"ss":41.0,"used":true,"health":1},{"PRN":22,"gnssid":0,"svid":22,"az":334.0,"el":8.0,"ss":26.0,"used":false,"health":1},{"PRN":32,"gnssid":0,"svid":32,"az":108.0,"el":35.0,"ss":48.0,"used":true,"health":1},{"PRN":44,"gnssid":1,"svid":131,"az":0.0,"el":-9.0,"ss":0.0,"used":false,"health":1},{"PRN":14,"gnssid":0,"svid":14,"az":317.0,"el":19.0,"ss":35.0,"used":true,"health":1},{"PRN":24,"gnssid":0,"svid":24,"az":32.0,"el":2.0,"ss":25.0,"used":false,"health":1},{"PRN":3,"gnssid":0,"svid":3,"az":221.0,"el":2.0,"ss":0.0,"used":false,"health":1},{"PRN":8,"gnssid":0,"svid":8,"az":194.0,"el":68.0,"ss":47.0,"used":true,"health":1},{"PRN":10,"gnssid":0,"svid":10,"az":60.0,"el":49.0,"ss":50.0,"used":true,"health":1},{"PRN":23,"gnssid":0,"svid":23,"az":50.0,"el":14.0,"ss":43.0,"used":true,"health":1},{"PRN":27,"gnssid":0,"svid":27,"az":154.0,"el":38.0,"ss":47.0,"used":true,"health":1},{"PRN":21,"gnssid":0,"svid":21,"az":283.0,"el":64.0,"ss":44.0,"used":true,"health":1}]}
{"class":"TPV","device":"/dev/ttyACM0","mode":3,"time":"2024-06-04T12:30:42.998Z","leapseconds":18,"ept":0.005,"lat":52.315894009,"lon":10.561975648,"altHAE":121.2706,"altMSL":77.3723,"alt":77.3723,"epx":9.280,"epy":14.902,"epv":46.920,"track":276.2229,"magtrack":279.4424,"magvar":3.2,"speed":0.522,"climb":-0.018,"eps":0.43,"epc":378.39,"ecefx":3841076.63,"ecefy":716199.87,"ecefz":5024463.13,"ecefvx":0.04,"ecefvy":-0.52,"ecefvz":0.02,"ecefpAcc":4.94,"ecefvAcc":0.43,"velN":0.057,"velE":-0.519,"velD":0.018,"geoidSep":43.898,"eph":23.180,"sep":45.220}
{"class":"SKY","device":"/dev/ttyACM0","time":"2024-06-04T12:30:42.750Z","gdop":2.76,"hdop":1.22,"pdop":2.38,"tdop":1.40,"xdop":0.62,"ydop":0.99,"vdop":2.04,"uSat":8}
{"class":"SKY","device":"/dev/ttyACM0","time":"2024-06-04T12:30:42.750Z","gdop":2.76,"hdop":1.22,"pdop":2.38,"tdop":1.40,"xdop":0.62,"ydop":0.99,"vdop":2.04,"uSat":8}
{"class":"TPV","device":"/dev/ttyACM0","mode":3,"time":"2024-06-04T12:30:42.998Z","leapseconds":18,"ept":0.005,"lat":52.315894009,"lon":10.561975648,"altHAE":121.2706,"altMSL":77.3723,"alt":77.3723,"epx":9.280,"epy":14.902,"epv":46.920,"track":276.2229,"magtrack":279.4424,"magvar":3.2,"speed":0.522,"climb":-0.018,"eps":120.18,"epc":378.39,"ecefx":3841076.63,"ecefy":716199.87,"ecefz":5024463.13,"ecefvx":0.04,"ecefvy":-0.52,"ecefvz":0.02,"ecefpAcc":4.94,"ecefvAcc":0.43,"velN":0.057,"velE":-0.519,"velD":0.018,"geoidSep":43.898,"eph":23.180,"sep":45.220}
{"class":"SKY","device":"/dev/ttyACM0","time":"2024-06-04T12:30:42.998Z","gdop":2.76,"hdop":1.22,"pdop":2.38,"tdop":1.40,"xdop":0.62,"ydop":0.99,"vdop":2.04,"nSat":12,"uSat":8,"satellites":[{"PRN":2,"gnssid":0,"svid":2,"az":280.0,"el":45.0,"ss":41.0,"used":true,"health":1},{"PRN":22,"gnssid":0,"svid":22,"az":334.0,"el":8.0,"ss":24.0,"used":false,"health":1},{"PRN":32,"gnssid":0,"svid":32,"az":108.0,"el":35.0,"ss":48.0,"used":true,"health":1},{"PRN":44,"gnssid":1,"svid":131,"az":0.0,"el":-9.0,"ss":0.0,"used":false,"health":1},{"PRN":14,"gnssid":0,"svid":14,"az":317.0,"el":19.0,"ss":35.0,"used":true,"health":1},{"PRN":24,"gnssid":0,"svid":24,"az":32.0,"el":2.0,"ss":27.0,"used":false,"health":1},{"PRN":3,"gnssid":0,"svid":3,"az":221.0,"el":2.0,"ss":0.0,"used":false,"health":1},{"PRN":8,"gnssid":0,"svid":8,"az":194.0,"el":68.0,"ss":47.0,"used":true,"health":1},{"PRN":10,"gnssid":0,"svid":10,"az":60.0,"el":49.0,"ss":50.0,"used":true,"health":1},{"PRN":23,"gnssid":0,"svid":23,"az":50.0,"el":14.0,"ss":44.0,"used":true,"health":1},{"PRN":27,"gnssid":0,"svid":27,"az":154.0,"el":38.0,"ss":47.0,"used":true,"health":1},{"PRN":21,"gnssid":0,"svid":21,"az":283.0,"el":64.0,"ss":44.0,"used":true,"health":1}]}
{"class":"TPV","device":"/dev/ttyACM0","mode":3,"time":"2024-06-04T12:30:43.250Z","leapseconds":18,"ept":0.005,"lat":52.315894051,"lon":10.561973810,"altHAE":121.3049,"altMSL":77.4066,"alt":77.4066,"epx":9.280,"epy":14.902,"epv":46.920,"track":273.3415,"magtrack":276.5610,"magvar":3.2,"speed":0.655,"climb":-0.017,"eps":0.43,"epc":372.38,"ecefx":3841076.67,"ecefy":716199.75,"ecefz":5024463.16,"ecefvx":0.08,"ecefvy":-0.65,"ecefvz":0.01,"ecefpAcc":4.94,"ecefvAcc":0.43,"velN":0.038,"velE":-0.654,"velD":0.017,"geoidSep":43.898,"eph":23.180,"sep":45.220}
{"class":"SKY","device":"/dev/ttyACM0","time":"2024-06-04T12:30:42.998Z","gdop":2.76,"hdop":1.22,"pdop":2.38,"tdop":1.40,"xdop":0.62,"ydop":0.99,"vdop":2.04,"uSat":8}
{"class":"SKY","device":"/dev/ttyACM0","time":"2024-06-04T12:30:42.998Z","gdop":2.76,"hdop":1.22,"pdop":2.38,"tdop":1.40,"xdop":0.62,"ydop":0.99,"vdop":2.04,"uSat":8}
{"class":"TPV","device":"/dev/ttyACM0","mode":3,"time":"2024-06-04T12:30:43.250Z","leapseconds":18,"ept":0.005,"lat":52.315894051,"lon":10.561973810,"altHAE":121.3049,"altMSL":77.4066,"alt":77.4066,"epx":9.280,"epy":14.902,"epv":46.920,"track":273.3415,"magtrack":276.5610,"magvar":3.2,"speed":0.655,"climb":-0.017,"eps":118.27,"epc":372.38,"ecefx":3841076.67,"ecefy":716199.75,"ecefz":5024463.16,"ecefvx":0.08,"ecefvy":-0.65,"ecefvz":0.01,"ecefpAcc":4.94,"ecefvAcc":0.43,"velN":0.038,"velE":-0.654,"velD":0.017,"geoidSep":43.898,"eph":23.180,"sep":45.220}
{"class":"SKY","device":"/dev/ttyACM0","time":"2024-06-04T12:30:43.250Z","gdop":2.76,"hdop":1.22,"pdop":2.38,"tdop":1.40,"xdop":0.62,"ydop":0.99,"vdop":2.04,"nSat":12,"uSat":8,"satellites":[{"PRN":2,"gnssid":0,"svid":2,"az":280.0,"el":45.0,"ss":40.0,"used":true,"health":1},{"PRN":22,"gnssid":0,"svid":22,"az":334.0,"el":8.0,"ss":28.0,"used":false,"health":1},{"PRN":32,"gnssid":0,"svid":32,"az":108.0,"el":35.0,"ss":47.0,"used":true,"health":1},{"PRN":44,"gnssid":1,"svid":131,"az":0.0,"el":-9.0,"ss":0.0,"used":false,"health":1},{"PRN":14,"gnssid":0,"svid":14,"az":317.0,"el":19.0,"ss":35.0,"used":true,"health":1},{"PRN":24,"gnssid":0,"svid":24,"az":32.0,"el":2.0,"ss":23.0,"used":false,"health":1},{"PRN":3,"gnssid":0,"svid":3,"az":221.0,"el":2.0,"ss":0.0,"used":false,"health":1},{"PRN":8,"gnssid":0,"svid":8,"az":194.0,"el":68.0,"ss":47.0,"used":true,"health":1},{"PRN":10,"gnssid":0,"svid":10,"az":60.0,"el":49.0,"ss":50.0,"used":true,"health":1},{"PRN":23,"gnssid":0,"svid":23,"az":50.0,"el":14.0,"ss":44.0,"used":true,"health":1},{"PRN":27,"gnssid":0,"svid":27,"az":154.0,"el":38.0,"ss":47.0,"used":true,"health":1},{"PRN":21,"gnssid":0,"svid":21,"az":283.0,"el":64.0,"ss":44.0,"used":true,"health":1}]}
{"class":"TPV","device":"/dev/ttyACM0","mode":3,"time":"2024-06-04T12:30:43.498Z","leapseconds":18,"ept":0.005,"lat":52.315894118,"lon":10.561971279,"altHAE":121.3118,"altMSL":77.4135,"alt":77.4135,"epx":9.280,"epy":14.902,"epv":46.920,"track":270.6056,"magtrack":273.8251,"magvar":3.2,"speed":0.734,"climb":0.019,"eps":0.42,"epc":378.39,"ecefx":3841076.70,"ecefy":716199.58,"ecefz":5024463.17,"ecefvx":0.14,"ecefvy":-0.72,"ecefvz":0.02,"ecefpAcc":4.94,"ecefvAcc":0.42,"velN":0.008,"velE":-0.733,"velD":-0.019,"geoidSep":43.898,"eph":23.180,"sep":45.220}
{"class":"SKY","device":"/dev/ttyACM0","time":"2024-06-04T12:30:43.250Z","gdop":2.76,"hdop":1.22,"pdop":2.38,"tdop":1.40,"xdop":0.62,"ydop":0.99,"vdop":2.04,"uSat":8}
{"class":"SKY","device":"/dev/ttyACM0","time":"2024-06-04T12:30:43.250Z","gdop":2.76,"hdop":1.22,"pdop":2.38,"tdop":1.40,"xdop":0.62,"ydop":0.99,"vdop":2.04,"uSat":8}
{"class":"TPV","device":"/dev/ttyACM0","mode":3,"time":"2024-06-04T12:30:43.498Z","leapseconds":18,"ept":0.005,"lat":52.315894118,"lon":10.561971279,"altHAE":121.3118,"altMSL":77.4135,"alt":77.4135,"epx":9.280,"epy":14.902,"epv":46.920,"track":270.6056,"magtrack":273.8251,"magvar":3.2,"speed":0.734,"climb":0.019,"eps":120.18,"epc":378.39,"ecefx":3841076.70,"ecefy":716199.58,"ecefz":5024463.17,"ecefvx":0.14,"ecefvy":-0.72,"ecefvz":0.02,"ecefpAcc":4.94,"ecefvAcc":0.42,"velN":0.008,"velE":-0.733,"velD":-0.019,"geoidSep":43.898,"eph":23.180,"sep":45.220}
{"class":"SKY","device":"/dev/ttyACM0","time":"2024-06-04T12:30:43.498Z","gdop":2.76,"hdop":1.22,"pdop":2.38,"tdop":1.40,"xdop":0.62,"ydop":0.99,"vdop":2.04,"nSat":12,"uSat":8,"satellites":[{"PRN":2,"gnssid":0,"svid":2,"az":280.0,"el":45.0,"ss":40.0,"used":true,"health":1},{"PRN":22,"gnssid":0,"svid":22,"az":334.0,"el":8.0,"ss":28.0,"used":false,"health":1},{"PRN":32,"gnssid":0,"svid":32,"az":108.0,"el":35.0,"ss":48.0,"used":true,"health":1},{"PRN":44,"gnssid":1,"svid":131,"az":0.0,"el":-9.0,"ss":0.0,"used":false,"health":1},{"PRN":14,"gnssid":0,"svid":14,"az":317.0,"el":19.0,"ss":36.0,"used":true,"health":1},{"PRN":24,"gnssid":0,"svid":24,"az":32.0,"el":2.0,"ss":23.0,"used":false,"health":1},{"PRN":3,"gnssid":0,"svid":3,"az":221.0,"el":2.0,"ss":0.0,"used":false,"health":1},{"PRN":8,"gnssid":0,"svid":8,"az":194.0,"el":68.0,"ss":47.0,"used":true,"health":1},{"PRN":10,"gnssid":0,"svid":10,"az":60.0,"el":49.0,"ss":51.0,"used":true,"health":1},{"PRN":23,"gnssid":0,"svid":23,"az":50.0,"el":14.0,"ss":44.0,"used":true,"health":1},{"PRN":27,"gnssid":0,"svid":27,"az":154.0,"el":38.0,"ss":47.0,"used":true,"health":1},{"PRN":21,"gnssid":0,"svid":21,"az":283.0,"el":64.0,"ss":43.0,"used":true,"health":1}]}
{"class":"TPV","device":"/dev/ttyACM0","mode":3,"time":"2024-06-04T12:30:43.750Z","leapseconds":18,"ept":0.005,"lat":52.315894125,"lon":10.561968000,"altHAE":121.3112,"altMSL":77.4129,"alt":77.4129,"epx":9.280,"epy":14.902,"epv":46.920,"track":273.1275,"magtrack":276.3470,"magvar":3.2,"speed":0.951,"climb":0.010,"eps":0.42,"epc":372.38,"ecefx":3841076.74,"ecefy":716199.36,"ecefz":5024463.17,"ecefvx":0.14,"ecefvy":-0.94,"ecefvz":0.04,"ecefpAcc":4.94,"ecefvAcc":0.42,"velN":0.052,"velE":-0.950,"velD":-0.010,"geoidSep":43.898,"eph":23.180,"sep":45.220}
{"class":"SKY","device":"/dev/ttyACM0","time":"2024-06-04T12:30:43.498Z","gdop":2.76,"hdop":1.22,"pdop":2.38,"tdop":1.40,"xdop":0.62,"ydop":0.99,"vdop":2.04,"uSat":8}
{"class":"SKY","device":"/dev/ttyACM0","time":"2024-06-04T12:30:43.498Z","gdop":2.76,"hdop":1.22,"pdop":2.38,"tdop":1.40,"xdop":0.62,"ydop":0.99,"vdop":2.04,"uSat":8}
{"class":"TPV","device":"/dev/ttyACM0","mode":3,"time":"2024-06-04T12:30:43.750Z","leapseconds":18,"ept":0.005,"lat":52.315894125,"lon":10.561968000,"altHAE":121.3112,"altMSL":77.4129,"alt":77.4129,"epx":9.280,"epy":14.902,"epv":46.920,"track":273.1275,"magtrack":276.3470,"magvar":3.2,"speed":0.951,"climb":0.010,"eps":118.27,"epc":372.38,"ecefx":3841076.74,"ecefy":716199.36,"ecefz":5024463.17,"ecefvx":0.14,"ecefvy":-0.94,"ecefvz":0.04,"ecefpAcc":4.94,"ecefvAcc":0.42,"velN":0.052,"velE":-0.950,"velD":-0.010,"geoidSep":43.898,"eph":23.180,"sep":45.220}
{"class":"SKY","device":"/dev/ttyACM0","time":"2024-06-04T12:30:43.750Z","gdop":2.76,"hdop":1.22,"pdop":2.38,"tdop":1.40,"xdop":0.62,"ydop":0.99,"vdop":2.04,"nSat":12,"uSat":8,"satellites":[{"PRN":2,"gnssid":0,"svid":2,"az":280.0,"el":45.0,"ss":40.0,"used":true,"health":1},{"PRN":22,"gnssid":0,"svid":22,"az":334.0,"el":8.0,"ss":28.0,"used":false,"health":1},{"PRN":32,"gnssid":0,"svid":32,"az":108.0,"el":35.0,"ss":48.0,"used":true,"health":1},{"PRN":33,"gnssid":1,"svid":120,"az":0.0,"el":-9.0,"ss":0.0,"used":false,"health":1},{"PRN":14,"gnssid":0,"svid":14,"az":317.0,"el":19.0,"ss":34.0,"used":true,"health":1},{"PRN":24,"gnssid":0,"svid":24,"az":32.0,"el":2.0,"ss":23.0,"used":false,"health":1},{"PRN":3,"gnssid":0,"svid":3,"az":221.0,"el":2.0,"ss":0.0,"used":false,"health":1},{"PRN":8,"gnssid":0,"svid":8,"az":194.0,"el":68.0,"ss":47.0,"used":true,"health":1},{"PRN":10,"gnssid":0,"svid":10,"az":60.0,"el":49.0,"ss":51.0,"used":true,"health":1},{"PRN":23,"gnssid":0,"svid":23,"az":50.0,"el":14.0,"ss":42.0,"used":true,"health":1},{"PRN":27,"gnssid":0,"svid":27,"az":154.0,"el":38.0,"ss":47.0,"used":true,"health":1},{"PRN":21,"gnssid":0,"svid":21,"az":283.0,"el":64.0,"ss":43.0,"used":true,"health":1}]}
{"class":"TPV","device":"/dev/ttyACM0","mode":3,"time":"2024-06-04T12:30:43.998Z","leapseconds":18,"ept":0.005,"lat":52.315894101,"lon":10.561964262,"altHAE":121.3132,"altMSL":77.4149,"alt":77.4149,"epx":9.280,"epy":14.902,"epv":46.920,"track":270.3747,"magtrack":273.5942,"magvar":3.2,"speed":1.098,"climb":0.007,"eps":0.45,"epc":378.39,"ecefx":3841076.79,"ecefy":716199.11,"ecefz":5024463.17,"ecefvx":0.20,"ecefvy":-1.08,"ecefvz":0.01,"ecefpAcc":4.94,"ecefvAcc":0.45,"velN":0.007,"velE":-1.098,"velD":-0.007,"geoidSep":43.898,"eph":23.180,"sep":48.640}
{"class":"SKY","device":"/dev/ttyACM0","time":"2024-06-04T12:30:43.750Z","gdop":2.76,"hdop":1.22,"pdop":2.56,"tdop":1.40,"xdop":0.62,"ydop":0.99,"vdop":2.04,"uSat":8}
{"class":"SKY","device":"/dev/ttyACM0","time":"2024-06-04T12:30:43.750Z","gdop":2.99,"hdop":1.35,"pdop":2.56,"tdop":1.54,"xdop":0.62,"ydop":0.99,"vdop":2.18,"uSat":8}
{"class":"TPV","device":"/dev/ttyACM0","mode":3,"time":"2024-06-04T12:30:43.998Z","leapseconds":18,"ept":0.005,"lat":52.315894101,"lon":10.561964262,"altHAE":121.3132,"altMSL":77.4149,"alt":77.4149,"epx":9.280,"epy":14.902,"epv":46.920,"track":270.3747,"magtrack":273.5942,"magvar":3.2,"speed":1.098,"climb":0.007,"eps":120.18,"epc":378.39,"ecefx":3841076.79,"ecefy":716199.11,"ecefz":5024463.17,"ecefvx":0.20,"ecefvy":-1.08,"ecefvz":0.01,"ecefpAcc":4.94,"ecefvAcc":0.45,"velN":0.007,"velE":-1.098,"velD":-0.007,"geoidSep":43.898,"eph":23.180,"sep":48.640}
{"class":"SKY","device":"/dev/ttyACM0","time":"2024-06-04T12:30:43.998Z","gdop":2.99,"hdop":1.35,"pdop":2.56,"tdop":1.54,"xdop":0.62,"ydop":0.99,"vdop":2.18,"nSat":12,"uSat":7,"satellites":[{"PRN":2,"gnssid":0,"svid":2,"az":280.0,"el":45.0,"ss":41.0,"used":true,"health":1},{"PRN":22,"gnssid":0,"svid":22,"az":334.0,"el":8.0,"ss":28.0,"used":false,"health":1},{"PRN":32,"gnssid":0,"svid":32,"az":108.0,"el":35.0,"ss":49.0,"used":true,"health":1},{"PRN":33,"gnssid":1,"svid":120,"az":0.0,"el":-9.0,"ss":0.0,"used":false,"health":1},{"PRN":14,"gnssid":0,"svid":14,"az":317.0,"el":19.0,"ss":35.0,"used":true,"health":1},{"PRN":24,"gnssid":0,"svid":24,"az":32.0,"el":2.0,"ss":0.0,"used":false,"health":1},{"PRN":3,"gnssid":0,"svid":3,"az":221.0,"el":2.0,"ss":0.0,"used":false,"health":1},{"PRN":8,"gnssid":0,"svid":8,"az":194.0,"el":68.0,"ss":47.0,"used":true,"health":1},{"PRN":10,"gnssid":0,"svid":10,"az":60.0,"el":49.0,"ss":52.0,"used":true,"health":1},{"PRN":23,"gnssid":0,"svid":23,"az":50.0,"el":14.0,"ss":37.0,"used":false,"health":1},{"PRN":27,"gnssid":0,"svid":27,"az":154.0,"el":38.0,"ss":47.0,"used":true,"health":1},{"PRN":21,"gnssid":0,"svid":21,"az":283.0,"el":64.0,"ss":43.0,"used":true,"health":1}]}
{"class":"TPV","device":"/dev/ttyACM0","mode":3,"time":"2024-06-04T12:30:44.250Z","leapseconds":18,"ept":0.005,"lat":52.315893836,"lon":10.561959578,"altHAE":121.3108,"altMSL":77.4124,"alt":77.4124,"epx":9.280,"epy":14.902,"epv":50.140,"track":266.7915,"magtrack":270.0111,"magvar":3.2,"speed":1.417,"climb":-0.002,"eps":0.45,"epc":385.16,"ecefx":3841076.87,"ecefy":716198.80,"ecefz":5024463.15,"ecefvx":0.32,"ecefvy":-1.38,"ecefvz":-0.05,"ecefpAcc":4.95,"ecefvAcc":0.45,"velN":-0.079,"velE":-1.415,"velD":0.002,"geoidSep":43.898,"eph":25.650,"sep":45.220}
{"class":"SKY","device":"/dev/ttyACM0","time":"2024-06-04T12:30:43.998Z","gdop":2.99,"hdop":1.35,"pdop":2.38,"tdop":1.54,"xdop":0.62,"ydop":0.99,"vdop":2.18,"uSat":8}
{"class":"SKY","device":"/dev/ttyACM0","time":"2024-06-04T12:30:43.998Z","gdop":2.76,"hdop":1.22,"pdop":2.38,"tdop":1.40,"xdop":0.62,"ydop":0.99,"vdop":2.04,"uSat":8}
{"class":"TPV","device":"/dev/ttyACM0","mode":3,"time":"2024-06-04T12:30:44.250Z","leapseconds":18,"ept":0.005,"lat":52.315893836,"lon":10.561959578,"altHAE":121.3108,"altMSL":77.4124,"alt":77.4124,"epx":9.280,"epy":14.902,"epv":50.140,"track":266.7915,"magtrack":270.0111,"magvar":3.2,"speed":1.417,"climb":-0.002,"eps":118.27,"epc":385.16,"ecefx":3841076.87,"ecefy":716198.80,"ecefz":5024463.15,"ecefvx":0.32,"ecefvy":-1.38,"ecefvz":-0.05,"ecefpAcc":4.95,"ecefvAcc":0.45,"velN":-0.079,"velE":-1.415,"velD":0.002,"geoidSep":43.898,"eph":25.650,"sep":45.220}
{"class":"SKY","device":"/dev/ttyACM0","time":"2024-06-04T12:30:44.250Z","gdop":2.76,"hdop":1.22,"pdop":2.38,"tdop":1.40,"xdop":0.62,"ydop":0.99,"vdop":2.04,"nSat":12,"uSat":8,"satellites":[{"PRN":2,"gnssid":0,"svid":2,"az":280.0,"el":45.0,"ss":41.0,"used":true,"health":1},{"PRN":22,"gnssid":0,"svid":22,"az":334.0,"el":8.0,"ss":23.0,"used":false,"health":1},{"PRN":32,"gnssid":0,"svid":32,"az":108.0,"el":35.0,"ss":49.0,"used":true,"health":1},{"PRN":33,"gnssid":1,"svid":120,"az":0.0,"el":-9.0,"ss":0.0,"used":false,"health":1},{"PRN":14,"gnssid":0,"svid":14,"az":317.0,"el":19.0,"ss":35.0,"used":true,"health":1},{"PRN":24,"gnssid":0,"svid":24,"az":32.0,"el":2.0,"ss":0.0,"used":false,"health":1},{"PRN":3,"gnssid":0,"svid":3,"az":221.0,"el":2.0,"ss":0.0,"used":false,"health":1},{"PRN":8,"gnssid":0,"svid":8,"az":194.0,"el":68.0,"ss":46.0,"used":true,"health":1},{"PRN":10,"gnssid":0,"svid":10,"az":60.0,"el":49.0,"ss":52.0,"used":true,"health":1},{"PRN":23,"gnssid":0,"svid":23,"az":50.0,"el":14.0,"ss":41.0,"used":true,"health":1},{"PRN":27,"gnssid":0,"svid":27,"az":154.0,"el":38.0,"ss":47.0,"used":true,"health":1},{"PRN":21,"gnssid":0,"svid":21,"az":283.0,"el":64.0,"ss":43.0,"used":true,"health":1}]}
{"class":"TPV","device":"/dev/ttyACM0","mode":3,"time":"2024-06-04T12:30:44.498Z","leapseconds":18,"ept":0.005,"lat":52.315893550,"lon":10.561953309,"altHAE":121.2722,"altMSL":77.3739,"alt":77.3739,"epx":9.280,"epy":14.902,"epv":46.920,"track":266.7909,"magtrack":270.0105,"magvar":3.2,"speed":1.785,"climb":-0.024,"eps":0.46,"epc":391.37,"ecefx":3841076.95,"ecefy":716198.38,"ecefz":5024463.10,"ecefvx":0.39,"ecefvy":-1.74,"ecefvz":-0.08,"ecefpAcc":4.95,"ecefvAcc":0.46,"velN":-0.100,"velE":-1.782,"velD":0.024,"geoidSep":43.898,"eph":23.180,"sep":55.670}
{"class":"SKY","device":"/dev/ttyACM0","time":"2024-06-04T12:30:44.250Z","gdop":2.76,"hdop":1.22,"pdop":2.93,"tdop":1.40,"xdop":0.62,"ydop":0.99,"vdop":2.04,"uSat":8}
{"class":"SKY","device":"/dev/ttyACM0","time":"2024-06-04T12:30:44.250Z","gdop":3.48,"hdop":1.38,"pdop":2.93,"tdop":1.89,"xdop":0.62,"ydop":0.99,"vdop":2.58,"uSat":8}
{"class":"TPV","device":"/dev/ttyACM0","mode":3,"time":"2024-06-04T12:30:44.498Z","leapseconds":18,"ept":0.005,"lat":52.315893550,"lon":10.561953309,"altHAE":121.2722,"altMSL":77.3739,"alt":77.3739,"epx":9.280,"epy":14.902,"epv":46.920,"track":266.7909,"magtrack":270.0105,"magvar":3.2,"speed":1.785,"climb":-0.024,"eps":120.18,"epc":391.37,"ecefx":3841076.95,"ecefy":716198.38,"ecefz":5024463.10,"ecefvx":0.39,"ecefvy":-1.74,"ecefvz":-0.08,"ecefpAcc":4.95,"ecefvAcc":0.46,"velN":-0.100,"velE":-1.782,"velD":0.024,"geoidSep":43.898,"eph":23.180,"sep":55.670}
{"class":"SKY","device":"/dev/ttyACM0","time":"2024-06-04T12:30:44.498Z","gdop":3.48,"hdop":1.38,"pdop":2.93,"tdop":1.89,"xdop":0.62,"ydop":0.99,"vdop":2.58,"nSat":12,"uSat":7,"satellites":[{"PRN":2,"gnssid":0,"svid":2,"az":280.0,"el":45.0,"ss":41.0,"used":true,"health":1},{"PRN":22,"gnssid":0,"svid":22,"az":334.0,"el":8.0,"ss":24.0,"used":false,"health":1},{"PRN":32,"gnssid":0,"svid":32,"az":108.0,"el":35.0,"ss":48.0,"used":true,"health":1},{"PRN":33,"gnssid":1,"svid":120,"az":0.0,"el":-9.0,"ss":0.0,"used":false,"health":1},{"PRN":14,"gnssid":0,"svid":14,"az":317.0,"el":19.0,"ss":34.0,"used":false,"health":1},{"PRN":24,"gnssid":0,"svid":24,"az":32.0,"el":2.0,"ss":0.0,"used":false,"health":1},{"PRN":3,"gnssid":0,"svid":3,"az":221.0,"el":2.0,"ss":0.0,"used":false,"health":1},{"PRN":8,"gnssid":0,"svid":8,"az":194.0,"el":68.0,"ss":46.0,"used":true,"health":1},{"PRN":10,"gnssid":0,"svid":10,"az":60.0,"el":49.0,"ss":52.0,"used":true,"health":1},{"PRN":23,"gnssid":0,"svid":23,"az":50.0,"el":14.0,"ss":43.0,"used":true,"health":1},{"PRN":27,"gnssid":0,"svid":27,"az":154.0,"el":38.0,"ss":47.0,"used":true,"health":1},{"PRN":21,"gnssid":0,"svid":21,"az":283.0,"el":64.0,"ss":44.0,"used":true,"health":1}]}
{"class":"TPV","device":"/dev/ttyACM0","mode":3,"time":"2024-06-04T12:30:44.750Z","leapseconds":18,"ept":0.005,"lat":52.315892978,"lon":10.561945778,"altHAE":121.2329,"altMSL":77.3345,"alt":77.3345,"epx":9.280,"epy":14.902,"epv":59.340,"track":260.9097,"magtrack":264.1292,"magvar":3.2,"speed":2.086,"climb":-0.023,"eps":0.46,"epc":421.67,"ecefx":3841077.07,"ecefy":716197.88,"ecefz":5024463.03,"ecefvx":0.62,"ecefvy":-1.98,"ecefvz":-0.22,"ecefpAcc":4.95,"ecefvAcc":0.46,"velN":-0.330,"velE":-2.060,"velD":0.023,"geoidSep":43.898,"eph":26.220,"sep":78.660}
{"class":"SKY","device":"/dev/ttyACM0","time":"2024-06-04T12:30:44.498Z","gdop":3.48,"hdop":1.38,"pdop":4.14,"tdop":1.89,"xdop":0.62,"ydop":0.99,"vdop":2.58,"uSat":8}
{"class":"SKY","device":"/dev/ttyACM0","time":"2024-06-04T12:30:44.498Z","gdop":5.09,"hdop":1.55,"pdop":4.14,"tdop":2.97,"xdop":0.62,"ydop":0.99,"vdop":3.84,"uSat":8}
{"class":"TPV","device":"/dev/ttyACM0","mode":3,"time":"2024-06-04T12:30:44.750Z","leapseconds":18,"ept":0.005,"lat":52.315892978,"lon":10.561945778,"altHAE":121.2329,"altMSL":77.3345,"alt":77.3345,"epx":9.280,"epy":14.902,"epv":59.340,"track":260.9097,"magtrack":264.1292,"magvar":3.2,"speed":2.086,"climb":-0.023,"eps":118.27,"epc":421.67,"ecefx":3841077.07,"ecefy":716197.88,"ecefz":5024463.03,"ecefvx":0.62,"ecefvy":-1.98,"ecefvz":-0.22,"ecefpAcc":4.95,"ecefvAcc":0.46,"velN":-0.330,"velE":-2.060,"velD":0.023,"geoidSep":43.898,"eph":26.220,"sep":78.660}
{"class":"SKY","device":"/dev/ttyACM0","time":"2024-06-04T12:30:44.750Z","gdop":5.09,"hdop":1.55,"pdop":4.14,"tdop":2.97,"xdop":0.62,"ydop":0.99,"vdop":3.84,"nSat":12,"uSat":6,"satellites":[{"PRN":2,"gnssid":0,"svid":2,"az":280.0,"el":45.0,"ss":42.0,"used":true,"health":1},{"PRN":22,"gnssid":0,"svid":22,"az":334.0,"el":8.0,"ss":24.0,"used":false,"health":1},{"PRN":32,"gnssid":0,"svid":32,"az":108.0,"el":35.0,"ss":47.0,"used":true,"health":1},{"PRN":33,"gnssid":1,"svid":120,"az":0.0,"el":-9.0,"ss":0.0,"used":false,"health":1},{"PRN":14,"gnssid":0,"svid":14,"az":317.0,"el":19.0,"ss":33.0,"used":false,"health":1},{"PRN":24,"gnssid":0,"svid":24,"az":32.0,"el":2.0,"ss":0.0,"used":false,"health":1},{"PRN":3,"gnssid":0,"svid":3,"az":221.0,"el":2.0,"ss":0.0,"used":false,"health":1},{"PRN":8,"gnssid":0,"svid":8,"az":194.0,"el":68.0,"ss":45.0,"used":true,"health":1},{"PRN":10,"gnssid":0,"svid":10,"az":60.0,"el":49.0,"ss":51.0,"used":true,"health":1},{"PRN":23,"gnssid":0,"svid":23,"az":50.0,"el":14.0,"ss":42.0,"used":false,"health":1},{"PRN":27,"gnssid":0,"svid":27,"az":154.0,"el":38.0,"ss":46.0,"used":true,"health":1},{"PRN":21,"gnssid":0,"svid":21,"az":283.0,"el":64.0,"ss":45.0,"used":true,"health":1}]}
{"class":"TPV","device":"/dev/ttyACM0","mode":3,"time":"2024-06-04T12:30:44.998Z","leapseconds":18,"ept":0.005,"lat":52.315891958,"lon":10.561937798,"altHAE":121.2195,"altMSL":77.3211,"alt":77.3211,"epx":9.280,"epy":14.902,"epv":88.320,"track":258.6525,"magtrack":261.8720,"magvar":3.2,"speed":2.264,"climb":-0.022,"eps":0.51,"epc":595.40,"ecefx":3841077.25,"ecefy":716197.36,"ecefz":5024462.95,"ecefvx":0.74,"ecefvy":-2.12,"ecefvz":-0.29,"ecefpAcc":4.96,"ecefvAcc":0.51,"velN":-0.445,"velE":-2.220,"velD":0.022,"geoidSep":43.898,"eph":29.450,"sep":55.480}
{"class":"SKY","device":"/dev/ttyACM0","time":"2024-06-04T12:30:44.750Z","gdop":5.09,"hdop":1.55,"pdop":2.92,"tdop":2.97,"xdop":0.62,"ydop":0.99,"vdop":3.84,"uSat":8}
{"class":"SKY","device":"/dev/ttyACM0","time":"2024-06-04T12:30:44.750Z","gdop":3.48,"hdop":1.38,"pdop":2.92,"tdop":1.88,"xdop":0.62,"ydop":0.99,"vdop":2.58,"uSat":8}
{"class":"TPV","device":"/dev/ttyACM0","mode":3,"time":"2024-06-04T12:30:44.998Z","leapseconds":18,"ept":0.005,"lat":52.315891958,"lon":10.561937798,"altHAE":121.2195,"altMSL":77.3211,"alt":77.3211,"epx":9.280,"epy":14.902,"epv":88.320,"track":258.6525,"magtrack":261.8720,"magvar":3.2,"speed":2.264,"climb":-0.022,"eps":120.18,"epc":595.40,"ecefx":3841077.25,"ecefy":716197.36,"ecefz":5024462.95,"ecefvx":0.74,"ecefvy":-2.12,"ecefvz":-0.29,"ecefpAcc":4.96,"ecefvAcc":0.51,"velN":-0.445,"velE":-2.220,"velD":0.022,"geoidSep":43.898,"eph":29.450,"sep":55.480}
{"class":"SKY","device":"/dev/ttyACM0","time":"2024-06-04T12:30:44.998Z","gdop":3.48,"hdop":1.38,"pdop":2.92,"tdop":1.88,"xdop":0.62,"ydop":0.99,"vdop":2.58,"nSat":12,"uSat":7,"satellites":[{"PRN":2,"gnssid":0,"svid":2,"az":280.0,"el":45.0,"ss":42.0,"used":true,"health":1},{"PRN":22,"gnssid":0,"svid":22,"az":334.0,"el":8.0,"ss":26.0,"used":false,"health":1},{"PRN":32,"gnssid":0,"svid":32,"az":108.0,"el":35.0,"ss":50.0,"used":true,"health":1},{"PRN":33,"gnssid":1,"svid":120,"az":0.0,"el":-9.0,"ss":0.0,"used":false,"health":1},{"PRN":14,"gnssid":0,"svid":14,"az":317.0,"el":19.0,"ss":31.0,"used":false,"health":1},{"PRN":24,"gnssid":0,"svid":24,"az":32.0,"el":2.0,"ss":0.0,"used":false,"health":1},{"PRN":3,"gnssid":0,"svid":3,"az":221.0,"el":2.0,"ss":0.0,"used":false,"health":1},{"PRN":8,"gnssid":0,"svid":8,"az":194.0,"el":68.0,"ss":45.0,"used":true,"health":1},{"PRN":10,"gnssid":0,"svid":10,"az":60.0,"el":49.0,"ss":51.0,"used":true,"health":1},{"PRN":23,"gnssid":0,"svid":23,"az":50.0,"el":14.0,"ss":39.0,"used":true,"health":1},{"PRN":27,"gnssid":0,"svid":27,"az":154.0,"el":38.0,"ss":46.0,"used":true,"health":1},{"PRN":21,"gnssid":0,"svid":21,"az":283.0,"el":64.0,"ss":46.0,"used":true,"health":1}]}
{"class":"TPV","device":"/dev/ttyACM0","mode":3,"time":"2024-06-04T12:30:45.250Z","leapseconds":18,"ept":0.005,"lat":52.315890490,"lon":10.561928729,"altHAE":121.1688,"altMSL":77.2704,"alt":77.2704,"epx":9.280,"epy":14.902,"epv":59.340,"track":253.7094,"magtrack":256.9289,"magvar":3.2,"speed":2.492,"climb":-0.003,"eps":0.46,"epc":585.95,"ecefx":3841077.46,"ecefy":716196.77,"ecefz":5024462.81,"ecefvx":0.98,"ecefvy":-2.25,"ecefvz":-0.43,"ecefpAcc":4.96,"ecefvAcc":0.46,"velN":-0.699,"velE":-2.392,"velD":0.003,"geoidSep":43.898,"eph":26.220,"sep":55.480}
{"class":"SKY","device":"/dev/ttyACM0","time":"2024-06-04T12:30:44.998Z","gdop":3.48,"hdop":1.38,"pdop":2.92,"tdop":1.88,"xdop":0.62,"ydop":0.99,"vdop":2.58,"uSat":8}
{"class":"SKY","device":"/dev/ttyACM0","time":"2024-06-04T12:30:44.998Z","gdop":3.48,"hdop":1.38,"pdop":2.92,"tdop":1.88,"xdop":0.62,"ydop":0.99,"vdop":2.58,"uSat":8}
{"class":"TPV","device":"/dev/ttyACM0","mode":3,"time":"2024-06-04T12:30:45.250Z","leapseconds":18,"ept":0.005,"lat":52.315890490,"lon":10.561928729,"altHAE":121.1688,"altMSL":77.2704,"alt":77.2704,"epx":9.280,"epy":14.902,"epv":59.340,"track":253.7094,"magtrack":256.9289,"magvar":3.2,"speed":2.492,"climb":-0.003,"eps":118.27,"epc":585.95,"ecefx":3841077.46,"ecefy":716196.77,"ecefz":5024462.81,"ecefvx":0.98,"ecefvy":-2.25,"ecefvz":-0.43,"ecefpAcc":4.96,"ecefvAcc":0.46,"velN":-0.699,"velE":-2.392,"velD":0.003,"geoidSep":43.898,"eph":26.220,"sep":55.480}
{"class":"SKY","device":"/dev/ttyACM0","time":"2024-06-04T12:30:45.250Z","gdop":3.48,"hdop":1.38,"pdop":2.92,"tdop":1.88,"xdop":0.62,"ydop":0.99,"vdop":2.58,"nSat":12,"uSat":7,"satellites":[{"PRN":2,"gnssid":0,"svid":2,"az":280.0,"el":45.0,"ss":42.0,"used":true,"health":1},{"PRN":22,"gnssid":0,"svid":22,"az":334.0,"el":8.0,"ss":31.0,"used":false,"health":1},{"PRN":32,"gnssid":0,"svid":32,"az":108.0,"el":35.0,"ss":51.0,"used":true,"health":1},{"PRN":33,"gnssid":1,"svid":120,"az":0.0,"el":-9.0,"ss":0.0,"used":false,"health":1},{"PRN":14,"gnssid":0,"svid":14,"az":317.0,"el":19.0,"ss":33.0,"used":false,"health":1},{"PRN":24,"gnssid":0,"svid":24,"az":32.0,"el":2.0,"ss":0.0,"used":false,"health":1},{"PRN":3,"gnssid":0,"svid":3,"az":221.0,"el":2.0,"ss":0.0,"used":false,"health":1},{"PRN":8,"gnssid":0,"svid":8,"az":194.0,"el":68.0,"ss":45.0,"used":true,"health":1},{"PRN":10,"gnssid":0,"svid":10,"az":60.0,"el":49.0,"ss":50.0,"used":true,"health":1},{"PRN":23,"gnssid":0,"svid":23,"az":50.0,"el":14.0,"ss":39.0,"used":true,"health":1},{"PRN":27,"gnssid":0,"svid":27,"az":154.0,"el":38.0,"ss":48.0,"used":true,"health":1},{"PRN":21,"gnssid":0,"svid":21,"az":283.0,"el":64.0,"ss":46.0,"used":true,"health":1}]}
{"class":"TPV","device":"/dev/ttyACM0","mode":3,"time":"2024-06-04T12:30:45.498Z","leapseconds":18,"ept":0.005,"lat":52.315888573,"lon":10.561919210,"altHAE":121.1440,"altMSL":77.2456,"alt":77.2456,"epx":9.280,"epy":14.902,"epv":59.340,"track":250.7629,"magtrack":253.9825,"magvar":3.2,"speed":2.770,"climb":-0.015,"eps":0.46,"epc":478.55,"ecefx":3841077.73,"ecefy":716196.16,"ecefz":5024462.66,"ecefvx":1.18,"ecefvy":-2.44,"ecefvz":-0.57,"ecefpAcc":4.96,"ecefvAcc":0.46,"velN":-0.913,"velE":-2.615,"velD":0.015,"geoidSep":43.898,"eph":26.220,"sep":48.640}
{"class":"SKY","device":"/dev/ttyACM0","time":"2024-06-04T12:30:45.250Z","gdop":3.48,"hdop":1.38,"pdop":2.56,"tdop":1.88,"xdop":0.62,"ydop":0.99,"vdop":2.58,"uSat":8}
{"class":"SKY","device":"/dev/ttyACM0","time":"2024-06-04T12:30:45.250Z","gdop":2.99,"hdop":1.35,"pdop":2.56,"tdop":1.54,"xdop":0.62,"ydop":0.99,"vdop":2.18,"uSat":8}
{"class":"TPV","device":"/dev/ttyACM0","mode":3,"time":"2024-06-04T12:30:45.498Z","leapseconds":18,"ept":0.005,"lat":52.315888573,"lon":10.561919210,"altHAE":121.1440,"altMSL":77.2456,"alt":77.2456,"epx":9.280,"epy":14.902,"epv":59.340,"track":250.7629,"magtrack":253.9825,"magvar":3.2,"speed":2.770,"climb":-0.015,"eps":120.18,"epc":478.55,"ecefx":3841077.73,"ecefy":716196.16,"ecefz":5024462.66,"ecefvx":1.18,"ecefvy":-2.44,"ecefvz":-0.57,"ecefpAcc":4.96,"ecefvAcc":0.46,"velN":-0.913,"velE":-2.615,"velD":0.015,"geoidSep":43.898,"eph":26.220,"sep":48.640}
{"class":"SKY","device":"/dev/ttyACM0","time":"2024-06-04T12:30:45.498Z","gdop":2.99,"hdop":1.35,"pdop":2.56,"tdop":1.54,"xdop":0.62,"ydop":0.99,"vdop":2.18,"nSat":12,"uSat":7,"satellites":[{"PRN":2,"gnssid":0,"svid":2,"az":280.0,"el":45.0,"ss":42.0,"used":true,"health":1},{"PRN":22,"gnssid":0,"svid":22,"az":334.0,"el":8.0,"ss":33.0,"used":false,"health":1},{"PRN":32,"gnssid":0,"svid":32,"az":108.0,"el":35.0,"ss":52.0,"used":true,"health":1},{"PRN":33,"gnssid":1,"svid":120,"az":0.0,"el":-9.0,"ss":0.0,"used":false,"health":1},{"PRN":14,"gnssid":0,"svid":14,"az":317.0,"el":19.0,"ss":34.0,"used":true,"health":1},{"PRN":24,"gnssid":0,"svid":24,"az":32.0,"el":2.0,"ss":0.0,"used":false,"health":1},{"PRN":3,"gnssid":0,"svid":3,"az":221.0,"el":2.0,"ss":0.0,"used":false,"health":1},{"PRN":8,"gnssid":0,"svid":8,"az":194.0,"el":68.0,"ss":45.0,"used":true,"health":1},{"PRN":10,"gnssid":0,"svid":10,"az":60.0,"el":49.0,"ss":49.0,"used":true,"health":1},{"PRN":23,"gnssid":0,"svid":23,"az":50.0,"el":14.0,"ss":38.0,"used":false,"health":1},{"PRN":27,"gnssid":0,"svid":27,"az":154.0,"el":38.0,"ss":48.0,"used":true,"health":1},{"PRN":21,"gnssid":0,"svid":21,"az":283.0,"el":64.0,"ss":47.0,"used":true,"health":1}]}
{"class":"TPV","device":"/dev/ttyACM0","mode":3,"time":"2024-06-04T12:30:45.750Z","leapseconds":18,"ept":0.005,"lat":52.315886104,"lon":10.561909459,"altHAE":121.2677,"altMSL":77.3693,"alt":77.3693,"epx":9.280,"epy":14.902,"epv":50.140,"track":249.7737,"magtrack":252.9932,"magvar":3.2,"speed":3.086,"climb":0.015,"eps":0.46,"epc":434.44,"ecefx":3841078.14,"ecefy":716195.56,"ecefz":5024462.59,"ecefvx":1.37,"ecefvy":-2.69,"ecefvz":-0.64,"ecefpAcc":4.97,"ecefvAcc":0.46,"velN":-1.067,"velE":-2.896,"velD":-0.015,"geoidSep":43.898,"eph":25.650,"sep":48.640}
{"class":"SKY","device":"/dev/ttyACM0","time":"2024-06-04T12:30:45.498Z","gdop":2.99,"hdop":1.35,"pdop":2.56,"tdop":1.54,"xdop":0.62,"ydop":0.99,"vdop":2.18,"uSat":8}
{"class":"SKY","device":"/dev/ttyACM0","time":"2024-06-04T12:30:45.498Z","gdop":2.99,"hdop":1.35,"pdop":2.56,"tdop":1.54,"xdop":0.62,"ydop":0.99,"vdop":2.18,"uSat":8}
{"class":"TPV","device":"/dev/ttyACM0","mode":3,"time":"2024-06-04T12:30:45.750Z","leapseconds":18,"ept":0.005,"lat":52.315886104,"lon":10.561909459,"altHAE":121.2677,"altMSL":77.3693,"alt":77.3693,"epx":9.280,"epy":14.902,"epv":50.140,"track":249.7737,"magtrack":252.9932,"magvar":3.2,"speed":3.086,"climb":0.015,"eps":118.27,"epc":434.44,"ecefx":3841078.14,"ecefy":716195.56,"ecefz":5024462.59,"ecefvx":1.37,"ecefvy":-2.69,"ecefvz":-0.64,"ecefpAcc":4.97,"ecefvAcc":0.46,"velN":-1.067,"velE":-2.896,"velD":-0.015,"geoidSep":43.898,"eph":25.650,"sep":48.640}
{"class":"SKY","device":"/dev/ttyACM0","time":"2024-06-04T12:30:45.750Z","gdop":2.99,"hdop":1.35,"pdop":2.56,"tdop":1.54,"xdop":0.62,"ydop":0.99,"vdop":2.18,"nSat":12,"uSat":7,"satellites":[{"PRN":2,"gnssid":0,"svid":2,"az":280.0,"el":45.0,"ss":43.0,"used":true,"health":1},{"PRN":22,"gnssid":0,"svid":22,"az":334.0,"el":8.0,"ss":34.0,"used":false,"health":1},{"PRN":32,"gnssid":0,"svid":32,"az":108.0,"el":35.0,"ss":51.0,"used":true,"health":1},{"PRN":33,"gnssid":1,"svid":120,"az":0.0,"el":-9.0,"ss":0.0,"used":false,"health":1},{"PRN":14,"gnssid":0,"svid":14,"az":317.0,"el":19.0,"ss":36.0,"used":true,"health":1},{"PRN":24,"gnssid":0,"svid":24,"az":32.0,"el":2.0,"ss":0.0,"used":false,"health":1},{"PRN":3,"gnssid":0,"svid":3,"az":221.0,"el":2.0,"ss":0.0,"used":false,"health":1},{"PRN":8,"gnssid":0,"svid":8,"az":194.0,"el":68.0,"ss":45.0,"used":true,"health":1},{"PRN":10,"gnssid":0,"svid":10,"az":60.0,"el":49.0,"ss":49.0,"used":true,"health":1},{"PRN":23,"gnssid":0,"svid":23,"az":50.0,"el":14.0,"ss":40.0,"used":false,"health":1},{"PRN":27,"gnssid":0,"svid":27,"az":154.0,"el":38.0,"ss":48.0,"used":true,"health":1},{"PRN":21,"gnssid":0,"svid":21,"az":283.0,"el":64.0,"ss":47.0,"used":true,"health":1}]}
{"class":"TPV","device":"/dev/ttyACM0","mode":3,"time":"2024-06-04T12:30:45.998Z","leapseconds":18,"ept":0.005,"lat":52.315883187,"lon":10.561898618,"altHAE":121.3542,"altMSL":77.4558,"alt":77.4558,"epx":9.280,"epy":14.902,"epv":50.140,"track":246.6972,"magtrack":249.9167,"magvar":3.2,"speed":3.342,"climb":0.048,"eps":0.60,"epc":404.35,"ecefx":3841078.58,"ecefy":716194.89,"ecefz":5024462.46,"ecefvx":1.62,"ecefvy":-2.82,"ecefvz":-0.77,"ecefpAcc":4.97,"ecefvAcc":0.60,"velN":-1.322,"velE":-3.069,"velD":-0.048,"geoidSep":43.898,"eph":25.650,"sep":45.220}
{"class":"SKY","device":"/dev/ttyACM0","time":"2024-06-04T12:30:45.750Z","gdop":2.99,"hdop":1.35,"pdop":2.38,"tdop":1.54,"xdop":0.62,"ydop":0.99,"vdop":2.18,"uSat":8}
{"class":"SKY","device":"/dev/ttyACM0","time":"2024-06-04T12:30:45.750Z","gdop":2.76,"hdop":1.22,"pdop":2.38,"tdop":1.40,"xdop":0.62,"ydop":0.99,"vdop":2.04,"uSat":8}
{"class":"TPV","device":"/dev/ttyACM0","mode":3,"time":"2024-06-04T12:30:45.998Z","leapseconds":18,"ept":0.005,"lat":52.315883187,"lon":10.561898618,"altHAE":121.3542,"altMSL":77.4558,"alt":77.4558,"epx":9.280,"epy":14.902,"epv":50.140,"track":246.6972,"magtrack":249.9167,"magvar":3.2,"speed":3.342,"climb":0.048,"eps":120.18,"epc":404.35,"ecefx":3841078.58,"ecefy":716194.89,"ecefz":5024462.46,"ecefvx":1.62,"ecefvy":-2.82,"ecefvz":-0.77,"ecefpAcc":4.97,"ecefvAcc":0.60,"velN":-1.322,"velE":-3.069,"velD":-0.048,"geoidSep":43.898,"eph":25.650,"sep":45.220}
{"class":"SKY","device":"/dev/ttyACM0","time":"2024-06-04T12:30:45.998Z","gdop":2.76,"hdop":1.22,"pdop":2.38,"tdop":1.40,"xdop":0.62,"ydop":0.99,"vdop":2.04,"nSat":12,"uSat":8,"satellites":[{"PRN":2,"gnssid":0,"svid":2,"az":280.0,"el":45.0,"ss":44.0,"used":true,"health":1},{"PRN":22,"gnssid":0,"svid":22,"az":334.0,"el":8.0,"ss":31.0,"used":false,"health":1},{"PRN":32,"gnssid":0,"svid":32,"az":108.0,"el":35.0,"ss":52.0,"used":true,"health":1},{"PRN":33,"gnssid":1,"svid":120,"az":0.0,"el":-9.0,"ss":0.0,"used":false,"health":1},{"PRN":14,"gnssid":0,"svid":14,"az":317.0,"el":19.0,"ss":36.0,"used":true,"health":1},{"PRN":24,"gnssid":0,"svid":24,"az":32.0,"el":2.0,"ss":0.0,"used":false,"health":1},{"PRN":3,"gnssid":0,"svid":3,"az":221.0,"el":2.0,"ss":0.0,"used":false,"health":1},{"PRN":8,"gnssid":0,"svid":8,"az":194.0,"el":68.0,"ss":46.0,"used":true,"health":1},{"PRN":10,"gnssid":0,"svid":10,"az":60.0,"el":49.0,"ss":48.0,"used":true,"health":1},{"PRN":23,"gnssid":0,"svid":23,"az":50.0,"el":14.0,"ss":40.0,"used":true,"health":1},{"PRN":27,"gnssid":0,"svid":27,"az":154.0,"el":38.0,"ss":46.0,"used":true,"health":1},{"PRN":21,"gnssid":0,"svid":21,"az":283.0,"el":64.0,"ss":47.0,"used":true,"health":1}]}
{"class":"TPV","device":"/dev/ttyACM0","mode":3,"time":"2024-06-04T12:30:46.250Z","leapseconds":18,"ept":0.005,"lat":52.315879924,"lon":10.561886298,"altHAE":121.2935,"altMSL":77.3951,"alt":77.3951,"epx":9.280,"epy":14.902,"epv":46.920,"track":245.0107,"magtrack":248.2302,"magvar":3.2,"speed":3.609,"climb":0.040,"eps":0.46,"epc":385.16,"ecefx":3841078.98,"ecefy":716194.11,"ecefz":5024462.19,"ecefvx":1.81,"ecefvy":-2.99,"ecefvz":-0.90,"ecefpAcc":4.97,"ecefvAcc":0.46,"velN":-1.525,"velE":-3.271,"velD":-0.040,"geoidSep":43.898,"eph":23.180,"sep":55.670}
{"class":"SKY","device":"/dev/ttyACM0","time":"2024-06-04T12:30:45.998Z","gdop":2.76,"hdop":1.22,"pdop":2.93,"tdop":1.40,"xdop":0.62,"ydop":0.99,"vdop":2.04,"uSat":8}
{"class":"SKY","device":"/dev/ttyACM0","time":"2024-06-04T12:30:45.998Z","gdop":3.48,"hdop":1.38,"pdop":2.93,"tdop":1.89,"xdop":0.62,"ydop":0.99,"vdop":2.58,"uSat":8}
{"class":"TPV","device":"/dev/ttyACM0","mode":3,"time":"2024-06-04T12:30:46.250Z","leapseconds":18,"ept":0.005,"lat":52.315879924,"lon":10.561886298,"altHAE":121.2935,"altMSL":77.3951,"alt":77.3951,"epx":9.280,"epy":14.902,"epv":46.920,"track":245.0107,"magtrack":248.2302,"magvar":3.2,"speed":3.609,"climb":0.040,"eps":118.27,"epc":385.16,"ecefx":3841078.98,"ecefy":716194.11,"ecefz":5024462.19,"ecefvx":1.81,"ecefvy":-2.99,"ecefvz":-0.90,"ecefpAcc":4.97,"ecefvAcc":0.46,"velN":-1.525,"velE":-3.271,"velD":-0.040,"geoidSep":43.898,"eph":23.180,"sep":55.670}
{"class":"SKY","device":"/dev/ttyACM0","time":"2024-06-04T12:30:46.250Z","gdop":3.48,"hdop":1.38,"pdop":2.93,"tdop":1.89,"xdop":0.62,"ydop":0.99,"vdop":2.58,"nSat":12,"uSat":7,"satellites":[{"PRN":2,"gnssid":0,"svid":2,"az":280.0,"el":45.0,"ss":44.0,"used":true,"health":1},{"PRN":22,"gnssid":0,"svid":22,"az":334.0,"el":8.0,"ss":30.0,"used":false,"health":1},{"PRN":32,"gnssid":0,"svid":32,"az":108.0,"el":35.0,"ss":51.0,"used":true,"health":1},{"PRN":33,"gnssid":1,"svid":120,"az":0.0,"el":-9.0,"ss":0.0,"used":false,"health":1},{"PRN":14,"gnssid":0,"svid":14,"az":317.0,"el":19.0,"ss":39.0,"used":false,"health":1},{"PRN":24,"gnssid":0,"svid":24,"az":32.0,"el":2.0,"ss":0.0,"used":false,"health":1},{"PRN":3,"gnssid":0,"svid":3,"az":221.0,"el":2.0,"ss":0.0,"used":false,"health":1},{"PRN":8,"gnssid":0,"svid":8,"az":194.0,"el":68.0,"ss":46.0,"used":true,"health":1},{"PRN":10,"gnssid":0,"svid":10,"az":60.0,"el":49.0,"ss":48.0,"used":true,"health":1},{"PRN":23,"gnssid":0,"svid":23,"az":50.0,"el":14.0,"ss":39.0,"used":true,"health":1},{"PRN":27,"gnssid":0,"svid":27,"az":154.0,"el":38.0,"ss":44.0,"used":true,"health":1},{"PRN":21,"gnssid":0,"svid":21,"az":283.0,"el":64.0,"ss":47.0,"used":true,"health":1}]}
{"class":"TPV","device":"/dev/ttyACM0","mode":3,"time":"2024-06-04T12:30:46.498Z","leapseconds":18,"ept":0.005,"lat":52.315876263,"lon":10.561873828,"altHAE":121.3554,"altMSL":77.4570,"alt":77.4570,"epx":9.280,"epy":14.902,"epv":59.340,"track":245.5315,"magtrack":248.7510,"magvar":3.2,"speed":3.873,"climb":0.026,"eps":0.46,"epc":428.47,"ecefx":3841079.49,"ecefy":716193.34,"ecefz":5024461.99,"ecefvx":1.91,"ecefvy":-3.23,"ecefvz":-0.96,"ecefpAcc":4.97,"ecefvAcc":0.46,"velN":-1.604,"velE":-3.525,"velD":-0.026,"geoidSep":43.898,"eph":26.220,"sep":45.220}
{"class":"SKY","device":"/dev/ttyACM0","time":"2024-06-04T12:30:46.250Z","gdop":3.48,"hdop":1.38,"pdop":2.38,"tdop":1.89,"xdop":0.62,"ydop":0.99,"vdop":2.58,"uSat":8}
{"class":"SKY","device":"/dev/ttyACM0","time":"2024-06-04T12:30:46.250Z","gdop":2.76,"hdop":1.22,"pdop":2.38,"tdop":1.40,"xdop":0.62,"ydop":0.99,"vdop":2.04,"uSat":8}
{"class":"TPV","device":"/dev/ttyACM0","mode":3,"time":"2024-06-04T12:30:46.498Z","leapseconds":18,"ept":0.005,"lat":52.315876263,"lon":10.561873828,"altHAE":121.3554,"altMSL":77.4570,"alt":77.4570,"epx":9.280,"epy":14.902,"epv":59.340,"track":245.5315,"magtrack":248.7510,"magvar":3.2,"speed":3.873,"climb":0.026,"eps":120.18,"epc":428.47,"ecefx":3841079.49,"ecefy":716193.34,"ecefz":5024461.99,"ecefvx":1.91,"ecefvy":-3.23,"ecefvz":-0.96,"ecefpAcc":4.97,"ecefvAcc":0.46,"velN":-1.604,"velE":-3.525,"velD":-0.026,"geoidSep":43.898,"eph":26.220,"sep":45.220}
{"class":"SKY","device":"/dev/ttyACM0","time":"2024-06-04T12:30:46.498Z","gdop":2.76,"hdop":1.22,"pdop":2.38,"tdop":1.40,"xdop":0.62,"ydop":0.99,"vdop":2.04,"nSat":12,"uSat":8,"satellites":[{"PRN":2,"gnssid":0,"svid":2,"az":280.0,"el":45.0,"ss":43.0,"used":true,"health":1},{"PRN":22,"gnssid":0,"svid":22,"az":334.0,"el":8.0,"ss":31.0,"used":false,"health":1},{"PRN":32,"gnssid":0,"svid":32,"az":108.0,"el":35.0,"ss":51.0,"used":true,"health":1},{"PRN":33,"gnssid":1,"svid":120,"az":0.0,"el":-9.0,"ss":0.0,"used":false,"health":1},{"PRN":14,"gnssid":0,"svid":14,"az":317.0,"el":19.0,"ss":35.0,"used":true,"health":1},{"PRN":24,"gnssid":0,"svid":24,"az":32.0,"el":2.0,"ss":0.0,"used":false,"health":1},{"PRN":3,"gnssid":0,"svid":3,"az":221.0,"el":2.0,"ss":0.0,"used":false,"health":1},{"PRN":8,"gnssid":0,"svid":8,"az":194.0,"el":68.0,"ss":46.0,"used":true,"health":1},{"PRN":10,"gnssid":0,"svid":10,"az":60.0,"el":49.0,"ss":49.0,"used":true,"health":1},{"PRN":23,"gnssid":0,"svid":23,"az":50.0,"el":14.0,"ss":38.0,"used":true,"health":1},{"PRN":27,"gnssid":0,"svid":27,"az":154.0,"el":38.0,"ss":43.0,"used":true,"health":1},{"PRN":21,"gnssid":0,"svid":21,"az":283.0,"el":64.0,"ss":47.0,"used":true,"health":1}]}
{"class":"TPV","device":"/dev/ttyACM0","mode":3,"time":"2024-06-04T12:30:46.750Z","leapseconds":18,"ept":0.005,"lat":52.315872127,"lon":10.561860385,"altHAE":121.3951,"altMSL":77.4966,"alt":77.4966,"epx":9.280,"epy":14.902,"epv":46.920,"track":243.5448,"magtrack":246.7643,"magvar":3.2,"speed":4.189,"climb":0.051,"eps":0.46,"epc":421.67,"ecefx":3841080.04,"ecefy":716192.51,"ecefz":5024461.74,"ecefvx":2.17,"ecefvy":-3.41,"ecefvz":-1.10,"ecefpAcc":4.97,"ecefvAcc":0.46,"velN":-1.866,"velE":-3.750,"velD":-0.051,"geoidSep":43.898,"eph":23.180,"sep":45.220}
{"class":"SKY","device":"/dev/ttyACM0","time":"2024-06-04T12:30:46.498Z","gdop":2.76,"hdop":1.22,"pdop":2.38,"tdop":1.40,"xdop":0.62,"ydop":0.99,"vdop":2.04,"uSat":8}
{"class":"SKY","device":"/dev/ttyACM0","time":"2024-06-04T12:30:46.498Z","gdop":2.76,"hdop":1.22,"pdop":2.38,"tdop":1.40,"xdop":0.62,"ydop":0.99,"vdop":2.04,"uSat":8}
{"class":"TPV","device":"/dev/ttyACM0","mode":3,"time":"2024-06-04T12:30:46.750Z","leapseconds":18,"ept":0.005,"lat":52.315872127,"lon":10.561860385,"altHAE":121.3951,"altMSL":77.4966,"alt":77.4966,"epx":9.280,"epy":14.902,"epv":46.920,"track":243.5448,"magtrack":246.7643,"magvar":3.2,"speed":4.189,"climb":0.051,"eps":118.27,"epc":421.67,"ecefx":3841080.04,"ecefy":716192.51,"ecefz":5024461.74,"ecefvx":2.17,"ecefvy":-3.41,"ecefvz":-1.10,"ecefpAcc":4.97,"ecefvAcc":0.46,"velN":-1.866,"velE":-3.750,"velD":-0.051,"geoidSep":43.898,"eph":23.180,"sep":45.220}
{"class":"SKY","device":"/dev/ttyACM0","time":"2024-06-04T12:30:46.750Z","gdop":2.76,"hdop":1.22,"pdop":2.38,"tdop":1.40,"xdop":0.62,"ydop":0.99,"vdop":2.04,"nSat":12,"uSat":8,"satellites":[{"PRN":2,"gnssid":0,"svid":2,"az":280.0,"el":45.0,"ss":42.0,"used":true,"health":1},{"PRN":22,"gnssid":0,"svid":22,"az":334.0,"el":8.0,"ss":34.0,"used":false,"health":1},{"PRN":32,"gnssid":0,"svid":32,"az":108.0,"el":35.0,"ss":51.0,"used":true,"health":1},{"PRN":33,"gnssid":1,"svid":120,"az":0.0,"el":-9.0,"ss":0.0,"used":false,"health":1},{"PRN":14,"gnssid":0,"svid":14,"az":317.0,"el":19.0,"ss":34.0,"used":true,"health":1},{"PRN":24,"gnssid":0,"svid":24,"az":32.0,"el":2.0,"ss":0.0,"used":false,"health":1},{"PRN":3,"gnssid":0,"svid":3,"az":221.0,"el":2.0,"ss":0.0,"used":false,"health":1},{"PRN":8,"gnssid":0,"svid":8,"az":194.0,"el":68.0,"ss":47.0,"used":true,"health":1},{"PRN":10,"gnssid":0,"svid":10,"az":60.0,"el":49.0,"ss":49.0,"used":true,"health":1},{"PRN":23,"gnssid":0,"svid":23,"az":50.0,"el":14.0,"ss":38.0,"used":true,"health":1},{"PRN":27,"gnssid":0,"svid":27,"az":154.0,"el":38.0,"ss":44.0,"used":true,"health":1},{"PRN":21,"gnssid":0,"svid":21,"az":283.0,"el":64.0,"ss":47.0,"used":true,"health":1}]}
{"class":"TPV","device":"/dev/ttyACM0","mode":3,"time":"2024-06-04T12:30:46.998Z","leapseconds":18,"ept":0.005,"lat":52.315867305,"lon":10.561846934,"altHAE":121.5189,"altMSL":77.6205,"alt":77.6205,"epx":9.280,"epy":14.902,"epv":46.920,"track":241.8595,"magtrack":245.0790,"magvar":3.2,"speed":4.424,"climb":0.020,"eps":0.46,"epc":378.39,"ecefx":3841080.70,"ecefy":716191.70,"ecefz":5024461.51,"ecefvx":2.35,"ecefvy":-3.53,"ecefvz":-1.26,"ecefpAcc":4.98,"ecefvAcc":0.46,"velN":-2.086,"velE":-3.901,"velD":-0.020,"geoidSep":43.898,"eph":23.180,"sep":48.640}
{"class":"SKY","device":"/dev/ttyACM0","time":"2024-06-04T12:30:46.750Z","gdop":2.76,"hdop":1.22,"pdop":2.56,"tdop":1.40,"xdop":0.62,"ydop":0.99,"vdop":2.04,"uSat":8}
{"class":"SKY","device":"/dev/ttyACM0","time":"2024-06-04T12:30:46.750Z","gdop":2.99,"hdop":1.35,"pdop":2.56,"tdop":1.54,"xdop":0.62,"ydop":0.99,"vdop":2.18,"uSat":8}
{"class":"TPV","device":"/dev/ttyACM0","mode":3,"time":"2024-06-04T12:30:46.998Z","leapseconds":18,"ept":0.005,"lat":52.315867305,"lon":10.561846934,"altHAE":121.5189,"altMSL":77.6205,"alt":77.6205,"epx":9.280,"epy":14.902,"epv":46.920,"track":241.8595,"magtrack":245.0790,"magvar":3.2,"speed":4.424,"climb":0.020,"eps":120.18,"epc":378.39,"ecefx":3841080.70,"ecefy":716191.70,"ecefz":5024461.51,"ecefvx":2.35,"ecefvy":-3.53,"ecefvz":-1.26,"ecefpAcc":4.98,"ecefvAcc":0.46,"velN":-2.086,"velE":-3.901,"velD":-0.020,"geoidSep":43.898,"eph":23.180,"sep":48.640}
{"class":"SKY","device":"/dev/ttyACM0","time":"2024-06-04T12:30:46.998Z","gdop":2.99,"hdop":1.35,"pdop":2.56,"tdop":1.54,"xdop":0.62,"ydop":0.99,"vdop":2.18,"nSat":12,"uSat":7,"satellites":[{"PRN":2,"gnssid":0,"svid":2,"az":280.0,"el":45.0,"ss":42.0,"used":true,"health":1},{"PRN":22,"gnssid":0,"svid":22,"az":334.0,"el":8.0,"ss":32.0,"used":false,"health":1},{"PRN":32,"gnssid":0,"svid":32,"az":108.0,"el":35.0,"ss":51.0,"used":true,"health":1},{"PRN":33,"gnssid":1,"svid":120,"az":0.0,"el":-9.0,"ss":0.0,"used":false,"health":1},{"PRN":14,"gnssid":0,"svid":14,"az":317.0,"el":19.0,"ss":39.0,"used":true,"health":1},{"PRN":24,"gnssid":0,"svid":24,"az":32.0,"el":2.0,"ss":0.0,"used":false,"health":1},{"PRN":3,"gnssid":0,"svid":3,"az":221.0,"el":2.0,"ss":0.0,"used":false,"health":1},{"PRN":8,"gnssid":0,"svid":8,"az":194.0,"el":68.0,"ss":47.0,"used":true,"health":1},{"PRN":10,"gnssid":0,"svid":10,"az":60.0,"el":49.0,"ss":49.0,"used":true,"health":1},{"PRN":23,"gnssid":0,"svid":23,"az":50.0,"el":14.0,"ss":38.0,"used":false,"health":1},{"PRN":27,"gnssid":0,"svid":27,"az":154.0,"el":38.0,"ss":44.0,"used":true,"health":1},{"PRN":21,"gnssid":0,"svid":21,"az":283.0,"el":64.0,"ss":47.0,"used":true,"health":1}]}
{"class":"TPV","device":"/dev/ttyACM0","mode":3,"time":"2024-06-04T12:30:47.250Z","leapseconds":18,"ept":0.005,"lat":52.315861879,"lon":10.561832548,"altHAE":121.6694,"altMSL":77.7709,"alt":77.7709,"epx":9.280,"epy":14.902,"epv":50.140,"track":240.2176,"magtrack":243.4370,"magvar":3.2,"speed":4.755,"climb":0.043,"eps":0.45,"epc":385.16,"ecefx":3841081.44,"ecefy":716190.84,"ecefz":5024461.26,"ecefvx":2.62,"ecefvy":-3.71,"ecefvz":-1.41,"ecefpAcc":4.97,"ecefvAcc":0.45,"velN":-2.362,"velE":-4.127,"velD":-0.043,"geoidSep":43.898,"eph":25.650,"sep":45.220}
{"class":"SKY","device":"/dev/ttyACM0","time":"2024-06-04T12:30:46.998Z","gdop":2.99,"hdop":1.35,"pdop":2.38,"tdop":1.54,"xdop":0.62,"ydop":0.99,"vdop":2.18,"uSat":8}
