{"class":"VERSION","release":"3.25","rev":"3.25","proto_major":3,"proto_minor":15}
{"class":"DEVICES","devices":[{"class":"DEVICE","path":"/dev/ttyACM0","driver":"u-blox","subtype":"SW 5.00    May 11 2006 14:40:17,HW 00040001","subtype1":"M4T1.2  May 11 2006 14:40:17","activated":"2024-06-04T12:15:21.892Z","flags":1,"native":1,"bps":57600,"parity":"N","stopbits":1,"cycle":1.00,"mincycle":0.02}]}
{"class":"WATCH","enable":true,"json":true,"nmea":false,"raw":0,"scaled":false,"timing":false,"split24":false,"pps":false}
{"class":"TPV","device":"/dev/ttyACM0","mode":3,"time":"2024-06-04T12:15:22.001Z","leapseconds":18,"ept":0.005,"lat":52.315826091,"lon":10.563041859,"altHAE":120.0702,"altMSL":76.1728,"alt":76.1728,"epx":9.280,"epy":14.902,"epv":46.460,"track":88.9392,"magtrack":92.1590,"magvar":3.2,"speed":0.012,"climb":-0.013,"eps":0.37,"epc":368.73,"ecefx":3841068.46,"ecefy":716272.31,"ecefz":5024457.56,"ecefvx":-0.01,"ecefvy":0.01,"ecefvz":-0.01,"ecefpAcc":3.78,"ecefvAcc":0.37,"velN":0.000,"velE":0.012,"velD":0.013,"geoidSep":43.897,"eph":23.750,"sep":45.220}
{"class":"SKY","device":"/dev/ttyACM0","time":"2024-06-04T12:15:21.749Z","gdop":2.75,"hdop":1.25,"pdop":2.38,"tdop":1.39,"xdop":0.62,"ydop":0.99,"vdop":2.02,"uSat":8}
{"class":"SKY","device":"/dev/ttyACM0","time":"2024-06-04T12:15:21.749Z","gdop":2.75,"hdop":1.25,"pdop":2.38,"tdop":1.39,"xdop":0.62,"ydop":0.99,"vdop":2.02,"uSat":8}
{"class":"TPV","device":"/dev/ttyACM0","mode":3,"time":"2024-06-04T12:15:22.001Z","leapseconds":18,"ept":0.005,"lat":52.315826091,"lon":10.563041859,"altHAE":120.0702,"altMSL":76.1728,"alt":76.1728,"epx":9.280,"epy":14.902,"epv":46.460,"track":88.9392,"magtrack":92.1590,"magvar":3.2,"speed":0.012,"climb":-0.013,"eps":118.27,"epc":368.73,"ecefx":3841068.46,"ecefy":716272.31,"ecefz":5024457.56,"ecefvx":-0.01,"ecefvy":0.01,"ecefvz":-0.01,"ecefpAcc":3.78,"ecefvAcc":0.37,"velN":0.000,"velE":0.012,"velD":0.013,"geoidSep":43.897,"eph":23.750,"sep":45.220}
{"class":"SKY","device":"/dev/ttyACM0","time":"2024-06-04T12:15:22.001Z","gdop":2.75,"hdop":1.25,"pdop":2.38,"tdop":1.39,"xdop":0.62,"ydop":0.99,"vdop":2.02,"nSat":11,"uSat":8,"satellites":[{"PRN":2,"gnssid":0,"svid":2,"az":276.0,"el":39.0,"ss":35.0,"used":true,"health":1},{"PRN":22,"gnssid":0,"svid":22,"az":337.0,"el":4.0,"ss":30.0,"used":false,"health":1},{"PRN":32,"gnssid":0,"svid":32,"az":115.0,"el":30.0,"ss":46.0,"used":true,"health":1},{"PRN":16,"gnssid":0,"svid":16,"az":188.0,"el":3.0,"ss":0.0,"used":false,"health":1},{"PRN":14,"gnssid":0,"svid":14,"az":322.0,"el":16.0,"ss":37.0,"used":true,"health":1},{"PRN":44,"gnssid":1,"svid":131,"az":0.0,"el":-9.0,"ss":0.0,"used":false,"health":1},{"PRN":8,"gnssid":0,"svid":8,"az":209.0,"el":73.0,"ss":49.0,"used":true,"health":1},{"PRN":10,"gnssid":0,"svid":10,"az":64.0,"el":55.0,"ss":51.0,"used":true,"health":1},{"PRN":23,"gnssid":0,"svid":23,"az":50.0,"el":21.0,"ss":45.0,"used":true,"health":1},{"PRN":21,"gnssid":0,"svid":21,"az":279.0,"el":57.0,"ss":45.0,"used":true,"health":1},{"PRN":27,"gnssid":0,"svid":27,"az":152.0,"el":46.0,"ss":43.0,"used":true,"health":1}]}
{"class":"TPV","device":"/dev/ttyACM0","mode":3,"time":"2024-06-04T12:15:22.249Z","leapseconds":18,"ept":0.005,"lat":52.315825998,"lon":10.563042057,"altHAE":120.0277,"altMSL":76.1302,"alt":76.1302,"epx":9.280,"epy":14.902,"epv":46.460,"track":13.2589,"magtrack":16.4787,"magvar":3.2,"speed":0.008,"climb":-0.006,"eps":0.37,"epc":374.68,"ecefx":3841068.44,"ecefy":716272.32,"ecefz":5024457.52,"ecefvx":-0.01,"ecefvy":0.00,"ecefvz":0.00,"ecefpAcc":3.78,"ecefvAcc":0.37,"velN":0.008,"velE":0.002,"velD":0.006,"geoidSep":43.897,"eph":23.750,"sep":45.220}
{"class":"SKY","device":"/dev/ttyACM0","time":"2024-06-04T12:15:22.001Z","gdop":2.75,"hdop":1.25,"pdop":2.38,"tdop":1.39,"xdop":0.62,"ydop":0.99,"vdop":2.02,"uSat":8}
{"class":"SKY","device":"/dev/ttyACM0","time":"2024-06-04T12:15:22.001Z","gdop":2.75,"hdop":1.25,"pdop":2.38,"tdop":1.39,"xdop":0.62,"ydop":0.99,"vdop":2.02,"uSat":8}
{"class":"TPV","device":"/dev/ttyACM0","mode":3,"time":"2024-06-04T12:15:22.249Z","leapseconds":18,"ept":0.005,"lat":52.315825998,"lon":10.563042057,"altHAE":120.0277,"altMSL":76.1302,"alt":76.1302,"epx":9.280,"epy":14.902,"epv":46.460,"track":13.2589,"magtrack":16.4787,"magvar":3.2,"speed":0.008,"climb":-0.006,"eps":120.18,"epc":374.68,"ecefx":3841068.44,"ecefy":716272.32,"ecefz":5024457.52,"ecefvx":-0.01,"ecefvy":0.00,"ecefvz":0.00,"ecefpAcc":3.78,"ecefvAcc":0.37,"velN":0.008,"velE":0.002,"velD":0.006,"geoidSep":43.897,"eph":23.750,"sep":45.220}
{"class":"SKY","device":"/dev/ttyACM0","time":"2024-06-04T12:15:22.249Z","gdop":2.75,"hdop":1.25,"pdop":2.38,"tdop":1.39,"xdop":0.62,"ydop":0.99,"vdop":2.02,"nSat":11,"uSat":8,"satellites":[{"PRN":2,"gnssid":0,"svid":2,"az":276.0,"el":39.0,"ss":35.0,"used":true,"health":1},{"PRN":22,"gnssid":0,"svid":22,"az":337.0,"el":4.0,"ss":30.0,"used":false,"health":1},{"PRN":32,"gnssid":0,"svid":32,"az":115.0,"el":30.0,"ss":46.0,"used":true,"health":1},{"PRN":16,"gnssid":0,"svid":16,"az":188.0,"el":3.0,"ss":0.0,"used":false,"health":1},{"PRN":14,"gnssid":0,"svid":14,"az":322.0,"el":16.0,"ss":38.0,"used":true,"health":1},{"PRN":44,"gnssid":1,"svid":131,"az":0.0,"el":-9.0,"ss":0.0,"used":false,"health":1},{"PRN":8,"gnssid":0,"svid":8,"az":209.0,"el":73.0,"ss":49.0,"used":true,"health":1},{"PRN":10,"gnssid":0,"svid":10,"az":64.0,"el":55.0,"ss":51.0,"used":true,"health":1},{"PRN":23,"gnssid":0,"svid":23,"az":50.0,"el":21.0,"ss":46.0,"used":true,"health":1},{"PRN":21,"gnssid":0,"svid":21,"az":279.0,"el":57.0,"ss":45.0,"used":true,"health":1},{"PRN":27,"gnssid":0,"svid":27,"az":152.0,"el":46.0,"ss":42.0,"used":true,"health":1}]}
{"class":"TPV","device":"/dev/ttyACM0","mode":3,"time":"2024-06-04T12:15:22.501Z","leapseconds":18,"ept":0.005,"lat":52.315825780,"lon":10.563042228,"altHAE":119.9832,"altMSL":76.0858,"alt":76.0858,"epx":9.280,"epy":14.902,"epv":46.460,"track":180.0000,"magtrack":183.2198,"magvar":3.2,"speed":0.006,"climb":-0.008,"eps":0.36,"epc":368.73,"ecefx":3841068.43,"ecefy":716272.33,"ecefz":5024457.47,"ecefvx":0.00,"ecefvy":0.00,"ecefvz":-0.01,"ecefpAcc":3.77,"ecefvAcc":0.36,"velN":-0.006,"velE":0.000,"velD":0.008,"geoidSep":43.897,"eph":23.750,"sep":45.220}
{"class":"SKY","device":"/dev/ttyACM0","time":"2024-06-04T12:15:22.249Z","gdop":2.75,"hdop":1.25,"pdop":2.38,"tdop":1.39,"xdop":0.62,"ydop":0.99,"vdop":2.02,"uSat":8}
{"class":"SKY","device":"/dev/ttyACM0","time":"2024-06-04T12:15:22.249Z","gdop":2.75,"hdop":1.25,"pdop":2.38,"tdop":1.39,"xdop":0.62,"ydop":0.99,"vdop":2.02,"uSat":8}
{"class":"TPV","device":"/dev/ttyACM0","mode":3,"time":"2024-06-04T12:15:22.501Z","leapseconds":18,"ept":0.005,"lat":52.315825780,"lon":10.563042228,"altHAE":119.9832,"altMSL":76.0858,"alt":76.0858,"epx":9.280,"epy":14.902,"epv":46.460,"track":180.0000,"magtrack":183.2198,"magvar":3.2,"speed":0.006,"climb":-0.008,"eps":118.27,"epc":368.73,"ecefx":3841068.43,"ecefy":716272.33,"ecefz":5024457.47,"ecefvx":0.00,"ecefvy":0.00,"ecefvz":-0.01,"ecefpAcc":3.77,"ecefvAcc":0.36,"velN":-0.006,"velE":0.000,"velD":0.008,"geoidSep":43.897,"eph":23.750,"sep":45.220}
{"class":"SKY","device":"/dev/ttyACM0","time":"2024-06-04T12:15:22.501Z","gdop":2.75,"hdop":1.25,"pdop":2.38,"tdop":1.39,"xdop":0.62,"ydop":0.99,"vdop":2.02,"nSat":11,"uSat":8,"satellites":[{"PRN":2,"gnssid":0,"svid":2,"az":276.0,"el":39.0,"ss":35.0,"used":true,"health":1},{"PRN":22,"gnssid":0,"svid":22,"az":337.0,"el":4.0,"ss":30.0,"used":false,"health":1},{"PRN":32,"gnssid":0,"svid":32,"az":115.0,"el":30.0,"ss":46.0,"used":true,"health":1},{"PRN":16,"gnssid":0,"svid":16,"az":188.0,"el":3.0,"ss":0.0,"used":false,"health":1},{"PRN":14,"gnssid":0,"svid":14,"az":322.0,"el":16.0,"ss":38.0,"used":true,"health":1},{"PRN":44,"gnssid":1,"svid":131,"az":0.0,"el":-9.0,"ss":0.0,"used":false,"health":1},{"PRN":8,"gnssid":0,"svid":8,"az":209.0,"el":73.0,"ss":49.0,"used":true,"health":1},{"PRN":10,"gnssid":0,"svid":10,"az":64.0,"el":55.0,"ss":51.0,"used":true,"health":1},{"PRN":23,"gnssid":0,"svid":23,"az":50.0,"el":21.0,"ss":46.0,"used":true,"health":1},{"PRN":21,"gnssid":0,"svid":21,"az":279.0,"el":57.0,"ss":45.0,"used":true,"health":1},{"PRN":27,"gnssid":0,"svid":27,"az":152.0,"el":46.0,"ss":43.0,"used":true,"health":1}]}
{"class":"TPV","device":"/dev/ttyACM0","mode":3,"time":"2024-06-04T12:15:22.749Z","leapseconds":18,"ept":0.005,"lat":52.315825604,"lon":10.563042543,"altHAE":119.9478,"altMSL":76.0503,"alt":76.0503,"epx":9.280,"epy":14.902,"epv":46.460,"track":244.6264,"magtrack":247.8463,"magvar":3.2,"speed":0.011,"climb":-0.009,"eps":0.36,"epc":374.68,"ecefx":3841068.42,"ecefy":716272.35,"ecefz":5024457.43,"ecefvx":0.00,"ecefvy":-0.01,"ecefvz":-0.01,"ecefpAcc":3.77,"ecefvAcc":0.36,"velN":-0.005,"velE":-0.010,"velD":0.009,"geoidSep":43.897,"eph":23.750,"sep":45.220}
{"class":"SKY","device":"/dev/ttyACM0","time":"2024-06-04T12:15:22.501Z","gdop":2.75,"hdop":1.25,"pdop":2.38,"tdop":1.39,"xdop":0.62,"ydop":0.99,"vdop":2.02,"uSat":8}
{"class":"SKY","device":"/dev/ttyACM0","time":"2024-06-04T12:15:22.501Z","gdop":2.75,"hdop":1.25,"pdop":2.38,"tdop":1.39,"xdop":0.62,"ydop":0.99,"vdop":2.02,"uSat":8}
{"class":"TPV","device":"/dev/ttyACM0","mode":3,"time":"2024-06-04T12:15:22.749Z","leapseconds":18,"ept":0.005,"lat":52.315825604,"lon":10.563042543,"altHAE":119.9478,"altMSL":76.0503,"alt":76.0503,"epx":9.280,"epy":14.902,"epv":46.460,"track":244.6264,"magtrack":247.8463,"magvar":3.2,"speed":0.011,"climb":-0.009,"eps":120.18,"epc":374.68,"ecefx":3841068.42,"ecefy":716272.35,"ecefz":5024457.43,"ecefvx":0.00,"ecefvy":-0.01,"ecefvz":-0.01,"ecefpAcc":3.77,"ecefvAcc":0.36,"velN":-0.005,"velE":-0.010,"velD":0.009,"geoidSep":43.897,"eph":23.750,"sep":45.220}
{"class":"SKY","device":"/dev/ttyACM0","time":"2024-06-04T12:15:22.749Z","gdop":2.75,"hdop":1.25,"pdop":2.38,"tdop":1.39,"xdop":0.62,"ydop":0.99,"vdop":2.02,"nSat":11,"uSat":8,"satellites":[{"PRN":2,"gnssid":0,"svid":2,"az":276.0,"el":39.0,"ss":35.0,"used":true,"health":1},{"PRN":22,"gnssid":0,"svid":22,"az":337.0,"el":4.0,"ss":29.0,"used":false,"health":1},{"PRN":32,"gnssid":0,"svid":32,"az":115.0,"el":30.0,"ss":46.0,"used":true,"health":1},{"PRN":16,"gnssid":0,"svid":16,"az":188.0,"el":3.0,"ss":0.0,"used":false,"health":1},{"PRN":14,"gnssid":0,"svid":14,"az":322.0,"el":16.0,"ss":38.0,"used":true,"health":1},{"PRN":44,"gnssid":1,"svid":131,"az":0.0,"el":-9.0,"ss":0.0,"used":false,"health":1},{"PRN":8,"gnssid":0,"svid":8,"az":209.0,"el":73.0,"ss":49.0,"used":true,"health":1},{"PRN":10,"gnssid":0,"svid":10,"az":64.0,"el":55.0,"ss":51.0,"used":true,"health":1},{"PRN":23,"gnssid":0,"svid":23,"az":50.0,"el":21.0,"ss":46.0,"used":true,"health":1},{"PRN":21,"gnssid":0,"svid":21,"az":279.0,"el":57.0,"ss":45.0,"used":true,"health":1},{"PRN":27,"gnssid":0,"svid":27,"az":152.0,"el":46.0,"ss":43.0,"used":true,"health":1}]}
{"class":"TPV","device":"/dev/ttyACM0","mode":3,"time":"2024-06-04T12:15:23.001Z","leapseconds":18,"ept":0.005,"lat":52.315825455,"lon":10.563042570,"altHAE":119.9101,"altMSL":76.0127,"alt":76.0127,"epx":9.280,"epy":14.902,"epv":46.460,"track":300.9273,"magtrack":304.1472,"magvar":3.2,"speed":0.021,"climb":-0.008,"eps":0.36,"epc":368.73,"ecefx":3841068.41,"ecefy":716272.35,"ecefz":5024457.39,"ecefvx":-0.01,"ecefvy":-0.02,"ecefvz":0.00,"ecefpAcc":3.77,"ecefvAcc":0.36,"velN":0.011,"velE":-0.018,"velD":0.008,"geoidSep":43.897,"eph":23.750,"sep":45.030}
{"class":"SKY","device":"/dev/ttyACM0","time":"2024-06-04T12:15:22.749Z","gdop":2.75,"hdop":1.25,"pdop":2.37,"tdop":1.39,"xdop":0.62,"ydop":0.99,"vdop":2.02,"uSat":8}
{"class":"SKY","device":"/dev/ttyACM0","time":"2024-06-04T12:15:22.749Z","gdop":2.75,"hdop":1.25,"pdop":2.37,"tdop":1.39,"xdop":0.62,"ydop":0.99,"vdop":2.02,"uSat":8}
{"class":"TPV","device":"/dev/ttyACM0","mode":3,"time":"2024-06-04T12:15:23.001Z","leapseconds":18,"ept":0.005,"lat":52.315825455,"lon":10.563042570,"altHAE":119.9101,"altMSL":76.0127,"alt":76.0127,"epx":9.280,"epy":14.902,"epv":46.460,"track":300.9273,"magtrack":304.1472,"magvar":3.2,"speed":0.021,"climb":-0.008,"eps":118.27,"epc":368.73,"ecefx":3841068.41,"ecefy":716272.35,"ecefz":5024457.39,"ecefvx":-0.01,"ecefvy":-0.02,"ecefvz":0.00,"ecefpAcc":3.77,"ecefvAcc":0.36,"velN":0.011,"velE":-0.018,"velD":0.008,"geoidSep":43.897,"eph":23.750,"sep":45.030}
{"class":"SKY","device":"/dev/ttyACM0","time":"2024-06-04T12:15:23.001Z","gdop":2.75,"hdop":1.25,"pdop":2.37,"tdop":1.39,"xdop":0.62,"ydop":0.99,"vdop":2.02,"nSat":11,"uSat":8,"satellites":[{"PRN":2,"gnssid":0,"svid":2,"az":276.0,"el":39.0,"ss":35.0,"used":true,"health":1},{"PRN":22,"gnssid":0,"svid":22,"az":337.0,"el":4.0,"ss":29.0,"used":false,"health":1},{"PRN":32,"gnssid":0,"svid":32,"az":115.0,"el":30.0,"ss":46.0,"used":true,"health":1},{"PRN":16,"gnssid":0,"svid":16,"az":188.0,"el":3.0,"ss":0.0,"used":false,"health":1},{"PRN":14,"gnssid":0,"svid":14,"az":322.0,"el":16.0,"ss":38.0,"used":true,"health":1},{"PRN":44,"gnssid":1,"svid":131,"az":0.0,"el":-9.0,"ss":0.0,"used":false,"health":1},{"PRN":8,"gnssid":0,"svid":8,"az":209.0,"el":73.0,"ss":49.0,"used":true,"health":1},{"PRN":10,"gnssid":0,"svid":10,"az":64.0,"el":55.0,"ss":51.0,"used":true,"health":1},{"PRN":23,"gnssid":0,"svid":23,"az":50.0,"el":21.0,"ss":46.0,"used":true,"health":1},{"PRN":21,"gnssid":0,"svid":21,"az":279.0,"el":57.0,"ss":45.0,"used":true,"health":1},{"PRN":27,"gnssid":0,"svid":27,"az":152.0,"el":46.0,"ss":43.0,"used":true,"health":1}]}
{"class":"TPV","device":"/dev/ttyACM0","mode":3,"time":"2024-06-04T12:15:23.249Z","leapseconds":18,"ept":0.005,"lat":52.315825360,"lon":10.563042597,"altHAE":119.8804,"altMSL":75.9829,"alt":75.9829,"epx":9.280,"epy":14.902,"epv":46.460,"track":271.4380,"magtrack":274.6579,"magvar":3.2,"speed":0.132,"climb":-0.003,"eps":0.36,"epc":374.68,"ecefx":3841068.40,"ecefy":716272.35,"ecefz":5024457.36,"ecefvx":0.02,"ecefvy":-0.13,"ecefvz":0.00,"ecefpAcc":3.77,"ecefvAcc":0.36,"velN":0.003,"velE":-0.131,"velD":0.003,"geoidSep":43.897,"eph":23.750,"sep":45.220}
{"class":"SKY","device":"/dev/ttyACM0","time":"2024-06-04T12:15:23.001Z","gdop":2.75,"hdop":1.25,"pdop":2.38,"tdop":1.39,"xdop":0.62,"ydop":0.99,"vdop":2.02,"uSat":8}
{"class":"SKY","device":"/dev/ttyACM0","time":"2024-06-04T12:15:23.001Z","gdop":2.75,"hdop":1.25,"pdop":2.38,"tdop":1.39,"xdop":0.62,"ydop":0.99,"vdop":2.02,"uSat":8}
{"class":"TPV","device":"/dev/ttyACM0","mode":3,"time":"2024-06-04T12:15:23.249Z","leapseconds":18,"ept":0.005,"lat":52.315825360,"lon":10.563042597,"altHAE":119.8804,"altMSL":75.9829,"alt":75.9829,"epx":9.280,"epy":14.902,"epv":46.460,"track":271.4380,"magtrack":274.6579,"magvar":3.2,"speed":0.132,"climb":-0.003,"eps":120.18,"epc":374.68,"ecefx":3841068.40,"ecefy":716272.35,"ecefz":5024457.36,"ecefvx":0.02,"ecefvy":-0.13,"ecefvz":0.00,"ecefpAcc":3.77,"ecefvAcc":0.36,"velN":0.003,"velE":-0.131,"velD":0.003,"geoidSep":43.897,"eph":23.750,"sep":45.220}
{"class":"SKY","device":"/dev/ttyACM0","time":"2024-06-04T12:15:23.249Z","gdop":2.75,"hdop":1.25,"pdop":2.38,"tdop":1.39,"xdop":0.62,"ydop":0.99,"vdop":2.02,"nSat":11,"uSat":8,"satellites":[{"PRN":2,"gnssid":0,"svid":2,"az":276.0,"el":39.0,"ss":34.0,"used":true,"health":1},{"PRN":22,"gnssid":0,"svid":22,"az":337.0,"el":4.0,"ss":29.0,"used":false,"health":1},{"PRN":32,"gnssid":0,"svid":32,"az":115.0,"el":30.0,"ss":47.0,"used":true,"health":1},{"PRN":16,"gnssid":0,"svid":16,"az":188.0,"el":3.0,"ss":0.0,"used":false,"health":1},{"PRN":14,"gnssid":0,"svid":14,"az":322.0,"el":16.0,"ss":40.0,"used":true,"health":1},{"PRN":44,"gnssid":1,"svid":131,"az":0.0,"el":-9.0,"ss":0.0,"used":false,"health":1},{"PRN":8,"gnssid":0,"svid":8,"az":209.0,"el":73.0,"ss":49.0,"used":true,"health":1},{"PRN":10,"gnssid":0,"svid":10,"az":64.0,"el":55.0,"ss":51.0,"used":true,"health":1},{"PRN":23,"gnssid":0,"svid":23,"az":50.0,"el":21.0,"ss":46.0,"used":true,"health":1},{"PRN":21,"gnssid":0,"svid":21,"az":279.0,"el":57.0,"ss":45.0,"used":true,"health":1},{"PRN":27,"gnssid":0,"svid":27,"az":152.0,"el":46.0,"ss":43.0,"used":true,"health":1}]}
{"class":"TPV","device":"/dev/ttyACM0","mode":3,"time":"2024-06-04T12:15:23.501Z","leapseconds":18,"ept":0.005,"lat":52.315825190,"lon":10.563041849,"altHAE":119.8571,"altMSL":75.9596,"alt":75.9596,"epx":9.280,"epy":14.902,"epv":46.460,"track":271.3316,"magtrack":274.5514,"magvar":3.2,"speed":0.324,"climb":-0.006,"eps":0.36,"epc":368.73,"ecefx":3841068.41,"ecefy":716272.30,"ecefz":5024457.33,"ecefvx":0.05,"ecefvy":-0.32,"ecefvz":0.00,"ecefpAcc":3.76,"ecefvAcc":0.36,"velN":0.008,"velE":-0.324,"velD":0.006,"geoidSep":43.897,"eph":23.750,"sep":45.030}
{"class":"SKY","device":"/dev/ttyACM0","time":"2024-06-04T12:15:23.249Z","gdop":2.75,"hdop":1.25,"pdop":2.37,"tdop":1.39,"xdop":0.62,"ydop":0.99,"vdop":2.02,"uSat":8}
{"class":"SKY","device":"/dev/ttyACM0","time":"2024-06-04T12:15:23.249Z","gdop":2.75,"hdop":1.25,"pdop":2.37,"tdop":1.39,"xdop":0.62,"ydop":0.99,"vdop":2.02,"uSat":8}
{"class":"TPV","device":"/dev/ttyACM0","mode":3,"time":"2024-06-04T12:15:23.501Z","leapseconds":18,"ept":0.005,"lat":52.315825190,"lon":10.563041849,"altHAE":119.8571,"altMSL":75.9596,"alt":75.9596,"epx":9.280,"epy":14.902,"epv":46.460,"track":271.3316,"magtrack":274.5514,"magvar":3.2,"speed":0.324,"climb":-0.006,"eps":118.27,"epc":368.73,"ecefx":3841068.41,"ecefy":716272.30,"ecefz":5024457.33,"ecefvx":0.05,"ecefvy":-0.32,"ecefvz":0.00,"ecefpAcc":3.76,"ecefvAcc":0.36,"velN":0.008,"velE":-0.324,"velD":0.006,"geoidSep":43.897,"eph":23.750,"sep":45.030}
{"class":"SKY","device":"/dev/ttyACM0","time":"2024-06-04T12:15:23.501Z","gdop":2.75,"hdop":1.25,"pdop":2.37,"tdop":1.39,"xdop":0.62,"ydop":0.99,"vdop":2.02,"nSat":11,"uSat":8,"satellites":[{"PRN":2,"gnssid":0,"svid":2,"az":276.0,"el":39.0,"ss":34.0,"used":true,"health":1},{"PRN":22,"gnssid":0,"svid":22,"az":337.0,"el":4.0,"ss":27.0,"used":false,"health":1},{"PRN":32,"gnssid":0,"svid":32,"az":115.0,"el":30.0,"ss":47.0,"used":true,"health":1},{"PRN":16,"gnssid":0,"svid":16,"az":188.0,"el":3.0,"ss":0.0,"used":false,"health":1},{"PRN":14,"gnssid":0,"svid":14,"az":322.0,"el":16.0,"ss":40.0,"used":true,"health":1},{"PRN":44,"gnssid":1,"svid":131,"az":0.0,"el":-9.0,"ss":0.0,"used":false,"health":1},{"PRN":8,"gnssid":0,"svid":8,"az":209.0,"el":73.0,"ss":49.0,"used":true,"health":1},{"PRN":10,"gnssid":0,"svid":10,"az":64.0,"el":55.0,"ss":52.0,"used":true,"health":1},{"PRN":23,"gnssid":0,"svid":23,"az":50.0,"el":21.0,"ss":44.0,"used":true,"health":1},{"PRN":21,"gnssid":0,"svid":21,"az":279.0,"el":57.0,"ss":45.0,"used":true,"health":1},{"PRN":27,"gnssid":0,"svid":27,"az":152.0,"el":46.0,"ss":44.0,"used":true,"health":1}]}
{"class":"TPV","device":"/dev/ttyACM0","mode":3,"time":"2024-06-04T12:15:23.749Z","leapseconds":18,"ept":0.005,"lat":52.315825207,"lon":10.563040066,"altHAE":119.8556,"altMSL":75.9582,"alt":75.9582,"epx":9.280,"epy":14.902,"epv":46.460,"track":269.9034,"magtrack":273.1232,"magvar":3.2,"speed":0.686,"climb":0.039,"eps":0.38,"epc":374.68,"ecefx":3841068.43,"ecefy":716272.18,"ecefz":5024457.33,"ecefvx":0.15,"ecefvy":-0.67,"ecefvz":0.03,"ecefpAcc":3.77,"ecefvAcc":0.38,"velN":-0.001,"velE":-0.686,"velD":-0.039,"geoidSep":43.897,"eph":23.750,"sep":52.820}
{"class":"SKY","device":"/dev/ttyACM0","time":"2024-06-04T12:15:23.501Z","gdop":2.75,"hdop":1.25,"pdop":2.78,"tdop":1.39,"xdop":0.62,"ydop":0.99,"vdop":2.02,"uSat":8}
{"class":"SKY","device":"/dev/ttyACM0","time":"2024-06-04T12:15:23.501Z","gdop":3.29,"hdop":1.33,"pdop":2.78,"tdop":1.76,"xdop":0.62,"ydop":0.99,"vdop":2.44,"uSat":8}
{"class":"TPV","device":"/dev/ttyACM0","mode":3,"time":"2024-06-04T12:15:23.749Z","leapseconds":18,"ept":0.005,"lat":52.315825207,"lon":10.563040066,"altHAE":119.8556,"altMSL":75.9582,"alt":75.9582,"epx":9.280,"epy":14.902,"epv":46.460,"track":269.9034,"magtrack":273.1232,"magvar":3.2,"speed":0.686,"climb":0.039,"eps":120.18,"epc":374.68,"ecefx":3841068.43,"ecefy":716272.18,"ecefz":5024457.33,"ecefvx":0.15,"ecefvy":-0.67,"ecefvz":0.03,"ecefpAcc":3.77,"ecefvAcc":0.38,"velN":-0.001,"velE":-0.686,"velD":-0.039,"geoidSep":43.897,"eph":23.750,"sep":52.820}
{"class":"SKY","device":"/dev/ttyACM0","time":"2024-06-04T12:15:23.749Z","gdop":3.29,"hdop":1.33,"pdop":2.78,"tdop":1.76,"xdop":0.62,"ydop":0.99,"vdop":2.44,"nSat":11,"uSat":7,"satellites":[{"PRN":2,"gnssid":0,"svid":2,"az":276.0,"el":39.0,"ss":33.0,"used":true,"health":1},{"PRN":22,"gnssid":0,"svid":22,"az":337.0,"el":4.0,"ss":32.0,"used":false,"health":1},{"PRN":32,"gnssid":0,"svid":32,"az":115.0,"el":30.0,"ss":47.0,"used":true,"health":1},{"PRN":16,"gnssid":0,"svid":16,"az":188.0,"el":3.0,"ss":0.0,"used":false,"health":1},{"PRN":14,"gnssid":0,"svid":14,"az":322.0,"el":16.0,"ss":39.0,"used":false,"health":1},{"PRN":44,"gnssid":1,"svid":131,"az":0.0,"el":-9.0,"ss":0.0,"used":false,"health":1},{"PRN":8,"gnssid":0,"svid":8,"az":209.0,"el":73.0,"ss":48.0,"used":true,"health":1},{"PRN":10,"gnssid":0,"svid":10,"az":64.0,"el":55.0,"ss":52.0,"used":true,"health":1},{"PRN":23,"gnssid":0,"svid":23,"az":50.0,"el":21.0,"ss":44.0,"used":true,"health":1},{"PRN":21,"gnssid":0,"svid":21,"az":279.0,"el":57.0,"ss":45.0,"used":true,"health":1},{"PRN":27,"gnssid":0,"svid":27,"az":152.0,"el":46.0,"ss":43.0,"used":true,"health":1}]}
{"class":"TPV","device":"/dev/ttyACM0","mode":3,"time":"2024-06-04T12:15:24.001Z","leapseconds":18,"ept":0.005,"lat":52.315825244,"lon":10.563036841,"altHAE":119.8272,"altMSL":75.9297,"alt":75.9297,"epx":9.280,"epy":14.902,"epv":56.120,"track":276.6004,"magtrack":279.8202,"magvar":3.2,"speed":1.121,"climb":0.027,"eps":0.38,"epc":407.06,"ecefx":3841068.45,"ecefy":716271.96,"ecefz":5024457.31,"ecefvx":0.12,"ecefvy":-1.11,"ecefvz":0.10,"ecefpAcc":3.77,"ecefvAcc":0.38,"velN":0.129,"velE":-1.113,"velD":-0.027,"geoidSep":43.897,"eph":25.270,"sep":45.220}
{"class":"SKY","device":"/dev/ttyACM0","time":"2024-06-04T12:15:23.749Z","gdop":3.29,"hdop":1.33,"pdop":2.38,"tdop":1.76,"xdop":0.62,"ydop":0.99,"vdop":2.44,"uSat":8}
{"class":"SKY","device":"/dev/ttyACM0","time":"2024-06-04T12:15:23.749Z","gdop":2.75,"hdop":1.25,"pdop":2.38,"tdop":1.39,"xdop":0.62,"ydop":0.99,"vdop":2.02,"uSat":8}
{"class":"TPV","device":"/dev/ttyACM0","mode":3,"time":"2024-06-04T12:15:24.001Z","leapseconds":18,"ept":0.005,"lat":52.315825244,"lon":10.563036841,"altHAE":119.8272,"altMSL":75.9297,"alt":75.9297,"epx":9.280,"epy":14.902,"epv":56.120,"track":276.6004,"magtrack":279.8202,"magvar":3.2,"speed":1.121,"climb":0.027,"eps":118.27,"epc":407.06,"ecefx":3841068.45,"ecefy":716271.96,"ecefz":5024457.31,"ecefvx":0.12,"ecefvy":-1.11,"ecefvz":0.10,"ecefpAcc":3.77,"ecefvAcc":0.38,"velN":0.129,"velE":-1.113,"velD":-0.027,"geoidSep":43.897,"eph":25.270,"sep":45.220}
{"class":"SKY","device":"/dev/ttyACM0","time":"2024-06-04T12:15:24.001Z","gdop":2.75,"hdop":1.25,"pdop":2.38,"tdop":1.39,"xdop":0.62,"ydop":0.99,"vdop":2.02,"nSat":11,"uSat":8,"satellites":[{"PRN":2,"gnssid":0,"svid":2,"az":276.0,"el":39.0,"ss":33.0,"used":true,"health":1},{"PRN":22,"gnssid":0,"svid":22,"az":337.0,"el":4.0,"ss":32.0,"used":false,"health":1},{"PRN":32,"gnssid":0,"svid":32,"az":115.0,"el":30.0,"ss":47.0,"used":true,"health":1},{"PRN":16,"gnssid":0,"svid":16,"az":188.0,"el":3.0,"ss":0.0,"used":false,"health":1},{"PRN":14,"gnssid":0,"svid":14,"az":322.0,"el":16.0,"ss":38.0,"used":true,"health":1},{"PRN":33,"gnssid":1,"svid":120,"az":0.0,"el":-9.0,"ss":0.0,"used":false,"health":1},{"PRN":8,"gnssid":0,"svid":8,"az":209.0,"el":73.0,"ss":49.0,"used":true,"health":1},{"PRN":10,"gnssid":0,"svid":10,"az":64.0,"el":55.0,"ss":52.0,"used":true,"health":1},{"PRN":23,"gnssid":0,"svid":23,"az":50.0,"el":21.0,"ss":45.0,"used":true,"health":1},{"PRN":21,"gnssid":0,"svid":21,"az":279.0,"el":57.0,"ss":45.0,"used":true,"health":1},{"PRN":27,"gnssid":0,"svid":27,"az":152.0,"el":46.0,"ss":43.0,"used":true,"health":1}]}
{"class":"TPV","device":"/dev/ttyACM0","mode":3,"time":"2024-06-04T12:15:24.249Z","leapseconds":18,"ept":0.005,"lat":52.315825547,"lon":10.563031886,"altHAE":119.8011,"altMSL":75.9036,"alt":75.9036,"epx":9.280,"epy":14.902,"epv":46.460,"track":276.0014,"magtrack":279.2212,"magvar":3.2,"speed":1.504,"climb":0.030,"eps":0.39,"epc":413.63,"ecefx":3841068.47,"ecefy":716271.62,"ecefz":5024457.31,"ecefvx":0.17,"ecefvy":-1.49,"ecefvz":0.12,"ecefpAcc":3.77,"ecefvAcc":0.39,"velN":0.157,"velE":-1.496,"velD":-0.030,"geoidSep":43.897,"eph":23.750,"sep":69.160}
{"class":"SKY","device":"/dev/ttyACM0","time":"2024-06-04T12:15:24.001Z","gdop":2.75,"hdop":1.25,"pdop":3.64,"tdop":1.39,"xdop":0.62,"ydop":0.99,"vdop":2.02,"uSat":8}
{"class":"SKY","device":"/dev/ttyACM0","time":"2024-06-04T12:15:24.001Z","gdop":4.44,"hdop":1.72,"pdop":3.64,"tdop":2.54,"xdop":0.62,"ydop":0.99,"vdop":3.20,"uSat":8}
{"class":"TPV","device":"/dev/ttyACM0","mode":3,"time":"2024-06-04T12:15:24.249Z","leapseconds":18,"ept":0.005,"lat":52.315825547,"lon":10.563031886,"altHAE":119.8011,"altMSL":75.9036,"alt":75.9036,"epx":9.280,"epy":14.902,"epv":46.460,"track":276.0014,"magtrack":279.2212,"magvar":3.2,"speed":1.504,"climb":0.030,"eps":120.18,"epc":413.63,"ecefx":3841068.47,"ecefy":716271.62,"ecefz":5024457.31,"ecefvx":0.17,"ecefvy":-1.49,"ecefvz":0.12,"ecefpAcc":3.77,"ecefvAcc":0.39,"velN":0.157,"velE":-1.496,"velD":-0.030,"geoidSep":43.897,"eph":23.750,"sep":69.160}
{"class":"SKY","device":"/dev/ttyACM0","time":"2024-06-04T12:15:24.249Z","gdop":4.44,"hdop":1.72,"pdop":3.64,"tdop":2.54,"xdop":0.62,"ydop":0.99,"vdop":3.20,"nSat":11,"uSat":6,"satellites":[{"PRN":2,"gnssid":0,"svid":2,"az":276.0,"el":39.0,"ss":33.0,"used":false,"health":1},{"PRN":22,"gnssid":0,"svid":22,"az":337.0,"el":4.0,"ss":31.0,"used":false,"health":1},{"PRN":32,"gnssid":0,"svid":32,"az":115.0,"el":30.0,"ss":47.0,"used":true,"health":1},{"PRN":16,"gnssid":0,"svid":16,"az":188.0,"el":3.0,"ss":0.0,"used":false,"health":1},{"PRN":14,"gnssid":0,"svid":14,"az":322.0,"el":16.0,"ss":38.0,"used":false,"health":1},{"PRN":33,"gnssid":1,"svid":120,"az":0.0,"el":-9.0,"ss":0.0,"used":false,"health":1},{"PRN":8,"gnssid":0,"svid":8,"az":209.0,"el":73.0,"ss":49.0,"used":true,"health":1},{"PRN":10,"gnssid":0,"svid":10,"az":64.0,"el":55.0,"ss":52.0,"used":true,"health":1},{"PRN":23,"gnssid":0,"svid":23,"az":50.0,"el":21.0,"ss":45.0,"used":true,"health":1},{"PRN":21,"gnssid":0,"svid":21,"az":279.0,"el":57.0,"ss":45.0,"used":true,"health":1},{"PRN":27,"gnssid":0,"svid":27,"az":152.0,"el":46.0,"ss":43.0,"used":true,"health":1}]}
{"class":"TPV","device":"/dev/ttyACM0","mode":3,"time":"2024-06-04T12:15:24.501Z","leapseconds":18,"ept":0.005,"lat":52.315825758,"lon":10.563025553,"altHAE":119.7829,"altMSL":75.8855,"alt":75.8855,"epx":9.280,"epy":14.902,"epv":73.600,"track":273.9476,"magtrack":277.1674,"magvar":3.2,"speed":1.890,"climb":0.026,"eps":0.39,"epc":476.43,"ecefx":3841068.52,"ecefy":716271.19,"ecefz":5024457.31,"ecefvx":0.26,"ecefvy":-1.87,"ecefvz":0.10,"ecefpAcc":3.77,"ecefvAcc":0.39,"velN":0.130,"velE":-1.886,"velD":-0.026,"geoidSep":43.897,"eph":32.680,"sep":46.930}
{"class":"SKY","device":"/dev/ttyACM0","time":"2024-06-04T12:15:24.249Z","gdop":4.44,"hdop":1.72,"pdop":2.47,"tdop":2.54,"xdop":0.62,"ydop":0.99,"vdop":3.20,"uSat":8}
{"class":"SKY","device":"/dev/ttyACM0","time":"2024-06-04T12:15:24.249Z","gdop":2.88,"hdop":1.35,"pdop":2.47,"tdop":1.47,"xdop":0.62,"ydop":0.99,"vdop":2.07,"uSat":8}
{"class":"TPV","device":"/dev/ttyACM0","mode":3,"time":"2024-06-04T12:15:24.501Z","leapseconds":18,"ept":0.005,"lat":52.315825758,"lon":10.563025553,"altHAE":119.7829,"altMSL":75.8855,"alt":75.8855,"epx":9.280,"epy":14.902,"epv":73.600,"track":273.9476,"magtrack":277.1674,"magvar":3.2,"speed":1.890,"climb":0.026,"eps":118.27,"epc":476.43,"ecefx":3841068.52,"ecefy":716271.19,"ecefz":5024457.31,"ecefvx":0.26,"ecefvy":-1.87,"ecefvz":0.10,"ecefpAcc":3.77,"ecefvAcc":0.39,"velN":0.130,"velE":-1.886,"velD":-0.026,"geoidSep":43.897,"eph":32.680,"sep":46.930}
{"class":"SKY","device":"/dev/ttyACM0","time":"2024-06-04T12:15:24.501Z","gdop":2.88,"hdop":1.35,"pdop":2.47,"tdop":1.47,"xdop":0.62,"ydop":0.99,"vdop":2.07,"nSat":11,"uSat":7,"satellites":[{"PRN":2,"gnssid":0,"svid":2,"az":276.0,"el":39.0,"ss":34.0,"used":false,"health":1},{"PRN":22,"gnssid":0,"svid":22,"az":337.0,"el":4.0,"ss":30.0,"used":false,"health":1},{"PRN":32,"gnssid":0,"svid":32,"az":115.0,"el":30.0,"ss":47.0,"used":true,"health":1},{"PRN":16,"gnssid":0,"svid":16,"az":188.0,"el":3.0,"ss":0.0,"used":false,"health":1},{"PRN":14,"gnssid":0,"svid":14,"az":322.0,"el":16.0,"ss":38.0,"used":true,"health":1},{"PRN":33,"gnssid":1,"svid":120,"az":0.0,"el":-9.0,"ss":0.0,"used":false,"health":1},{"PRN":8,"gnssid":0,"svid":8,"az":209.0,"el":73.0,"ss":49.0,"used":true,"health":1},{"PRN":10,"gnssid":0,"svid":10,"az":64.0,"el":55.0,"ss":52.0,"used":true,"health":1},{"PRN":23,"gnssid":0,"svid":23,"az":50.0,"el":21.0,"ss":45.0,"used":true,"health":1},{"PRN":21,"gnssid":0,"svid":21,"az":279.0,"el":57.0,"ss":45.0,"used":true,"health":1},{"PRN":27,"gnssid":0,"svid":27,"az":152.0,"el":46.0,"ss":44.0,"used":true,"health":1}]}
{"class":"TPV","device":"/dev/ttyACM0","mode":3,"time":"2024-06-04T12:15:24.749Z","leapseconds":18,"ept":0.005,"lat":52.315825935,"lon":10.563018418,"altHAE":119.7931,"altMSL":75.8956,"alt":75.8956,"epx":9.280,"epy":14.902,"epv":47.610,"track":273.6630,"magtrack":276.8828,"magvar":3.2,"speed":2.163,"climb":0.020,"eps":0.43,"epc":488.75,"ecefx":3841068.60,"ecefy":716270.71,"ecefz":5024457.33,"ecefvx":0.30,"ecefvy":-2.14,"ecefvz":0.10,"ecefpAcc":3.77,"ecefvAcc":0.43,"velN":0.138,"velE":-2.159,"velD":-0.020,"geoidSep":43.897,"eph":25.650,"sep":45.220}
{"class":"SKY","device":"/dev/ttyACM0","time":"2024-06-04T12:15:24.501Z","gdop":2.88,"hdop":1.35,"pdop":2.38,"tdop":1.47,"xdop":0.62,"ydop":0.99,"vdop":2.07,"uSat":8}
{"class":"SKY","device":"/dev/ttyACM0","time":"2024-06-04T12:15:24.501Z","gdop":2.75,"hdop":1.25,"pdop":2.38,"tdop":1.39,"xdop":0.62,"ydop":0.99,"vdop":2.02,"uSat":8}
{"class":"TPV","device":"/dev/ttyACM0","mode":3,"time":"2024-06-04T12:15:24.749Z","leapseconds":18,"ept":0.005,"lat":52.315825935,"lon":10.563018418,"altHAE":119.7931,"altMSL":75.8956,"alt":75.8956,"epx":9.280,"epy":14.902,"epv":47.610,"track":273.6630,"magtrack":276.8828,"magvar":3.2,"speed":2.163,"climb":0.020,"eps":120.18,"epc":488.75,"ecefx":3841068.60,"ecefy":716270.71,"ecefz":5024457.33,"ecefvx":0.30,"ecefvy":-2.14,"ecefvz":0.10,"ecefpAcc":3.77,"ecefvAcc":0.43,"velN":0.138,"velE":-2.159,"velD":-0.020,"geoidSep":43.897,"eph":25.650,"sep":45.220}
{"class":"SKY","device":"/dev/ttyACM0","time":"2024-06-04T12:15:24.749Z","gdop":2.75,"hdop":1.25,"pdop":2.38,"tdop":1.39,"xdop":0.62,"ydop":0.99,"vdop":2.02,"nSat":11,"uSat":8,"satellites":[{"PRN":2,"gnssid":0,"svid":2,"az":276.0,"el":39.0,"ss":35.0,"used":true,"health":1},{"PRN":22,"gnssid":0,"svid":22,"az":337.0,"el":4.0,"ss":30.0,"used":false,"health":1},{"PRN":32,"gnssid":0,"svid":32,"az":115.0,"el":30.0,"ss":47.0,"used":true,"health":1},{"PRN":16,"gnssid":0,"svid":16,"az":188.0,"el":3.0,"ss":0.0,"used":false,"health":1},{"PRN":14,"gnssid":0,"svid":14,"az":322.0,"el":16.0,"ss":39.0,"used":true,"health":1},{"PRN":33,"gnssid":1,"svid":120,"az":0.0,"el":-9.0,"ss":0.0,"used":false,"health":1},{"PRN":8,"gnssid":0,"svid":8,"az":209.0,"el":73.0,"ss":49.0,"used":true,"health":1},{"PRN":10,"gnssid":0,"svid":10,"az":64.0,"el":55.0,"ss":52.0,"used":true,"health":1},{"PRN":23,"gnssid":0,"svid":23,"az":50.0,"el":21.0,"ss":45.0,"used":true,"health":1},{"PRN":21,"gnssid":0,"svid":21,"az":279.0,"el":57.0,"ss":45.0,"used":true,"health":1},{"PRN":27,"gnssid":0,"svid":27,"az":152.0,"el":46.0,"ss":41.0,"used":true,"health":1}]}
{"class":"TPV","device":"/dev/ttyACM0","mode":3,"time":"2024-06-04T12:15:25.001Z","leapseconds":18,"ept":0.005,"lat":52.315826196,"lon":10.563009762,"altHAE":119.8337,"altMSL":75.9362,"alt":75.9362,"epx":9.280,"epy":14.902,"epv":46.460,"track":274.6989,"magtrack":277.9187,"magvar":3.2,"speed":2.576,"climb":0.039,"eps":0.43,"epc":373.29,"ecefx":3841068.71,"ecefy":716270.13,"ecefz":5024457.38,"ecefvx":0.33,"ecefvy":-2.55,"ecefvz":0.16,"ecefpAcc":3.77,"ecefvAcc":0.43,"velN":0.211,"velE":-2.567,"velD":-0.039,"geoidSep":43.897,"eph":23.750,"sep":45.220}
{"class":"SKY","device":"/dev/ttyACM0","time":"2024-06-04T12:15:24.749Z","gdop":2.75,"hdop":1.25,"pdop":2.38,"tdop":1.39,"xdop":0.62,"ydop":0.99,"vdop":2.02,"uSat":8}
{"class":"SKY","device":"/dev/ttyACM0","time":"2024-06-04T12:15:24.749Z","gdop":2.75,"hdop":1.25,"pdop":2.38,"tdop":1.39,"xdop":0.62,"ydop":0.99,"vdop":2.02,"uSat":8}
{"class":"TPV","device":"/dev/ttyACM0","mode":3,"time":"2024-06-04T12:15:25.001Z","leapseconds":18,"ept":0.005,"lat":52.315826196,"lon":10.563009762,"altHAE":119.8337,"altMSL":75.9362,"alt":75.9362,"epx":9.280,"epy":14.902,"epv":46.460,"track":274.6989,"magtrack":277.9187,"magvar":3.2,"speed":2.576,"climb":0.039,"eps":118.27,"epc":373.29,"ecefx":3841068.71,"ecefy":716270.13,"ecefz":5024457.38,"ecefvx":0.33,"ecefvy":-2.55,"ecefvz":0.16,"ecefpAcc":3.77,"ecefvAcc":0.43,"velN":0.211,"velE":-2.567,"velD":-0.039,"geoidSep":43.897,"eph":23.750,"sep":45.220}
{"class":"SKY","device":"/dev/ttyACM0","time":"2024-06-04T12:15:25.001Z","gdop":2.75,"hdop":1.25,"pdop":2.38,"tdop":1.39,"xdop":0.62,"ydop":0.99,"vdop":2.02,"nSat":11,"uSat":8,"satellites":[{"PRN":2,"gnssid":0,"svid":2,"az":276.0,"el":39.0,"ss":34.0,"used":true,"health":1},{"PRN":22,"gnssid":0,"svid":22,"az":337.0,"el":4.0,"ss":29.0,"used":false,"health":1},{"PRN":32,"gnssid":0,"svid":32,"az":115.0,"el":30.0,"ss":48.0,"used":true,"health":1},{"PRN":16,"gnssid":0,"svid":16,"az":188.0,"el":3.0,"ss":0.0,"used":false,"health":1},{"PRN":14,"gnssid":0,"svid":14,"az":322.0,"el":16.0,"ss":38.0,"used":true,"health":1},{"PRN":33,"gnssid":1,"svid":120,"az":0.0,"el":-9.0,"ss":0.0,"used":false,"health":1},{"PRN":8,"gnssid":0,"svid":8,"az":209.0,"el":73.0,"ss":49.0,"used":true,"health":1},{"PRN":10,"gnssid":0,"svid":10,"az":64.0,"el":55.0,"ss":52.0,"used":true,"health":1},{"PRN":23,"gnssid":0,"svid":23,"az":50.0,"el":21.0,"ss":45.0,"used":true,"health":1},{"PRN":21,"gnssid":0,"svid":21,"az":279.0,"el":57.0,"ss":45.0,"used":true,"health":1},{"PRN":27,"gnssid":0,"svid":27,"az":152.0,"el":46.0,"ss":39.0,"used":true,"health":1}]}
{"class":"TPV","device":"/dev/ttyACM0","mode":3,"time":"2024-06-04T12:15:25.249Z","leapseconds":18,"ept":0.005,"lat":52.315826636,"lon":10.562999915,"altHAE":119.8086,"altMSL":75.9111,"alt":75.9111,"epx":9.280,"epy":14.902,"epv":46.460,"track":274.5293,"magtrack":277.7491,"magvar":3.2,"speed":2.818,"climb":0.030,"eps":0.43,"epc":374.68,"ecefx":3841068.78,"ecefy":716269.46,"ecefz":5024457.39,"ecefvx":0.36,"ecefvy":-2.79,"ecefvz":0.16,"ecefpAcc":3.77,"ecefvAcc":0.43,"velN":0.222,"velE":-2.809,"velD":-0.030,"geoidSep":43.897,"eph":23.750,"sep":68.970}
{"class":"SKY","device":"/dev/ttyACM0","time":"2024-06-04T12:15:25.001Z","gdop":2.75,"hdop":1.25,"pdop":3.63,"tdop":1.39,"xdop":0.62,"ydop":0.99,"vdop":2.02,"uSat":8}
{"class":"SKY","device":"/dev/ttyACM0","time":"2024-06-04T12:15:25.001Z","gdop":4.43,"hdop":1.72,"pdop":3.63,"tdop":2.54,"xdop":0.62,"ydop":0.99,"vdop":3.20,"uSat":8}
{"class":"TPV","device":"/dev/ttyACM0","mode":3,"time":"2024-06-04T12:15:25.249Z","leapseconds":18,"ept":0.005,"lat":52.315826636,"lon":10.562999915,"altHAE":119.8086,"altMSL":75.9111,"alt":75.9111,"epx":9.280,"epy":14.902,"epv":46.460,"track":274.5293,"magtrack":277.7491,"magvar":3.2,"speed":2.818,"climb":0.030,"eps":120.18,"epc":374.68,"ecefx":3841068.78,"ecefy":716269.46,"ecefz":5024457.39,"ecefvx":0.36,"ecefvy":-2.79,"ecefvz":0.16,"ecefpAcc":3.77,"ecefvAcc":0.43,"velN":0.222,"velE":-2.809,"velD":-0.030,"geoidSep":43.897,"eph":23.750,"sep":68.970}
{"class":"SKY","device":"/dev/ttyACM0","time":"2024-06-04T12:15:25.249Z","gdop":4.43,"hdop":1.72,"pdop":3.63,"tdop":2.54,"xdop":0.62,"ydop":0.99,"vdop":3.20,"nSat":11,"uSat":6,"satellites":[{"PRN":2,"gnssid":0,"svid":2,"az":276.0,"el":39.0,"ss":34.0,"used":false,"health":1},{"PRN":22,"gnssid":0,"svid":22,"az":337.0,"el":4.0,"ss":27.0,"used":false,"health":1},{"PRN":32,"gnssid":0,"svid":32,"az":115.0,"el":30.0,"ss":47.0,"used":true,"health":1},{"PRN":16,"gnssid":0,"svid":16,"az":188.0,"el":3.0,"ss":0.0,"used":false,"health":1},{"PRN":14,"gnssid":0,"svid":14,"az":322.0,"el":16.0,"ss":38.0,"used":false,"health":1},{"PRN":33,"gnssid":1,"svid":120,"az":0.0,"el":-9.0,"ss":0.0,"used":false,"health":1},{"PRN":8,"gnssid":0,"svid":8,"az":209.0,"el":73.0,"ss":49.0,"used":true,"health":1},{"PRN":10,"gnssid":0,"svid":10,"az":64.0,"el":55.0,"ss":52.0,"used":true,"health":1},{"PRN":23,"gnssid":0,"svid":23,"az":50.0,"el":21.0,"ss":45.0,"used":true,"health":1},{"PRN":21,"gnssid":0,"svid":21,"az":279.0,"el":57.0,"ss":45.0,"used":true,"health":1},{"PRN":27,"gnssid":0,"svid":27,"az":152.0,"el":46.0,"ss":40.0,"used":true,"health":1}]}
{"class":"TPV","device":"/dev/ttyACM0","mode":3,"time":"2024-06-04T12:15:25.501Z","leapseconds":18,"ept":0.005,"lat":52.315826914,"lon":10.562989475,"altHAE":119.8479,"altMSL":75.9504,"alt":75.9504,"epx":9.280,"epy":14.902,"epv":73.600,"track":273.6380,"magtrack":276.8578,"magvar":3.2,"speed":3.013,"climb":0.029,"eps":0.43,"epc":476.43,"ecefx":3841068.91,"ecefy":716268.76,"ecefz":5024457.44,"ecefvx":0.42,"ecefvy":-2.98,"ecefvz":0.14,"ecefpAcc":3.77,"ecefvAcc":0.43,"velN":0.191,"velE":-3.006,"velD":-0.029,"geoidSep":43.898,"eph":32.680,"sep":45.220}
{"class":"SKY","device":"/dev/ttyACM0","time":"2024-06-04T12:15:25.249Z","gdop":4.43,"hdop":1.72,"pdop":2.38,"tdop":2.54,"xdop":0.62,"ydop":0.99,"vdop":3.20,"uSat":8}
{"class":"SKY","device":"/dev/ttyACM0","time":"2024-06-04T12:15:25.249Z","gdop":2.75,"hdop":1.25,"pdop":2.38,"tdop":1.39,"xdop":0.62,"ydop":0.99,"vdop":2.02,"uSat":8}
{"class":"TPV","device":"/dev/ttyACM0","mode":3,"time":"2024-06-04T12:15:25.501Z","leapseconds":18,"ept":0.005,"lat":52.315826914,"lon":10.562989475,"altHAE":119.8479,"altMSL":75.9504,"alt":75.9504,"epx":9.280,"epy":14.902,"epv":73.600,"track":273.6380,"magtrack":276.8578,"magvar":3.2,"speed":3.013,"climb":0.029,"eps":118.27,"epc":476.43,"ecefx":3841068.91,"ecefy":716268.76,"ecefz":5024457.44,"ecefvx":0.42,"ecefvy":-2.98,"ecefvz":0.14,"ecefpAcc":3.77,"ecefvAcc":0.43,"velN":0.191,"velE":-3.006,"velD":-0.029,"geoidSep":43.898,"eph":32.680,"sep":45.220}
{"class":"SKY","device":"/dev/ttyACM0","time":"2024-06-04T12:15:25.501Z","gdop":2.75,"hdop":1.25,"pdop":2.38,"tdop":1.39,"xdop":0.62,"ydop":0.99,"vdop":2.02,"nSat":11,"uSat":8,"satellites":[{"PRN":2,"gnssid":0,"svid":2,"az":276.0,"el":39.0,"ss":34.0,"used":true,"health":1},{"PRN":22,"gnssid":0,"svid":22,"az":337.0,"el":4.0,"ss":24.0,"used":false,"health":1},{"PRN":32,"gnssid":0,"svid":32,"az":115.0,"el":30.0,"ss":46.0,"used":true,"health":1},{"PRN":16,"gnssid":0,"svid":16,"az":188.0,"el":3.0,"ss":0.0,"used":false,"health":1},{"PRN":14,"gnssid":0,"svid":14,"az":322.0,"el":16.0,"ss":38.0,"used":true,"health":1},{"PRN":33,"gnssid":1,"svid":120,"az":0.0,"el":-9.0,"ss":0.0,"used":false,"health":1},{"PRN":8,"gnssid":0,"svid":8,"az":209.0,"el":73.0,"ss":49.0,"used":true,"health":1},{"PRN":10,"gnssid":0,"svid":10,"az":64.0,"el":55.0,"ss":51.0,"used":true,"health":1},{"PRN":23,"gnssid":0,"svid":23,"az":50.0,"el":21.0,"ss":46.0,"used":true,"health":1},{"PRN":21,"gnssid":0,"svid":21,"az":279.0,"el":57.0,"ss":45.0,"used":true,"health":1},{"PRN":27,"gnssid":0,"svid":27,"az":152.0,"el":46.0,"ss":40.0,"used":true,"health":1}]}
{"class":"TPV","device":"/dev/ttyACM0","mode":3,"time":"2024-06-04T12:15:25.749Z","leapseconds":18,"ept":0.005,"lat":52.315827354,"lon":10.562978458,"altHAE":119.8985,"altMSL":76.0010,"alt":76.0010,"epx":9.280,"epy":14.902,"epv":46.460,"track":274.7669,"magtrack":277.9867,"magvar":3.2,"speed":3.153,"climb":0.063,"eps":0.43,"epc":484.11,"ecefx":3841069.04,"ecefy":716268.02,"ecefz":5024457.51,"ecefvx":0.41,"ecefvy":-3.12,"ecefvz":0.21,"ecefpAcc":3.77,"ecefvAcc":0.43,"velN":0.262,"velE":-3.142,"velD":-0.063,"geoidSep":43.898,"eph":23.750,"sep":45.220}
{"class":"SKY","device":"/dev/ttyACM0","time":"2024-06-04T12:15:25.501Z","gdop":2.75,"hdop":1.25,"pdop":2.38,"tdop":1.39,"xdop":0.62,"ydop":0.99,"vdop":2.02,"uSat":8}
{"class":"SKY","device":"/dev/ttyACM0","time":"2024-06-04T12:15:25.501Z","gdop":2.75,"hdop":1.25,"pdop":2.38,"tdop":1.39,"xdop":0.62,"ydop":0.99,"vdop":2.02,"uSat":8}
{"class":"TPV","device":"/dev/ttyACM0","mode":3,"time":"2024-06-04T12:15:25.749Z","leapseconds":18,"ept":0.005,"lat":52.315827354,"lon":10.562978458,"altHAE":119.8985,"altMSL":76.0010,"alt":76.0010,"epx":9.280,"epy":14.902,"epv":46.460,"track":274.7669,"magtrack":277.9867,"magvar":3.2,"speed":3.153,"climb":0.063,"eps":120.18,"epc":484.11,"ecefx":3841069.04,"ecefy":716268.02,"ecefz":5024457.51,"ecefvx":0.41,"ecefvy":-3.12,"ecefvz":0.21,"ecefpAcc":3.77,"ecefvAcc":0.43,"velN":0.262,"velE":-3.142,"velD":-0.063,"geoidSep":43.898,"eph":23.750,"sep":45.220}
{"class":"SKY","device":"/dev/ttyACM0","time":"2024-06-04T12:15:25.749Z","gdop":2.75,"hdop":1.25,"pdop":2.38,"tdop":1.39,"xdop":0.62,"ydop":0.99,"vdop":2.02,"nSat":11,"uSat":8,"satellites":[{"PRN":2,"gnssid":0,"svid":2,"az":276.0,"el":39.0,"ss":34.0,"used":true,"health":1},{"PRN":22,"gnssid":0,"svid":22,"az":337.0,"el":4.0,"ss":24.0,"used":false,"health":1},{"PRN":32,"gnssid":0,"svid":32,"az":115.0,"el":30.0,"ss":46.0,"used":true,"health":1},{"PRN":16,"gnssid":0,"svid":16,"az":188.0,"el":3.0,"ss":0.0,"used":false,"health":1},{"PRN":14,"gnssid":0,"svid":14,"az":322.0,"el":16.0,"ss":37.0,"used":true,"health":1},{"PRN":33,"gnssid":1,"svid":120,"az":0.0,"el":-9.0,"ss":0.0,"used":false,"health":1},{"PRN":8,"gnssid":0,"svid":8,"az":209.0,"el":73.0,"ss":49.0,"used":true,"health":1},{"PRN":10,"gnssid":0,"svid":10,"az":64.0,"el":55.0,"ss":51.0,"used":true,"health":1},{"PRN":23,"gnssid":0,"svid":23,"az":50.0,"el":21.0,"ss":45.0,"used":true,"health":1},{"PRN":21,"gnssid":0,"svid":21,"az":279.0,"el":57.0,"ss":45.0,"used":true,"health":1},{"PRN":27,"gnssid":0,"svid":27,"az":152.0,"el":46.0,"ss":41.0,"used":true,"health":1}]}
{"class":"TPV","device":"/dev/ttyACM0","mode":3,"time":"2024-06-04T12:15:26.001Z","leapseconds":18,"ept":0.005,"lat":52.315827820,"lon":10.562966747,"altHAE":119.9216,"altMSL":76.0241,"alt":76.0241,"epx":9.280,"epy":14.902,"epv":46.460,"track":274.4568,"magtrack":277.6766,"magvar":3.2,"speed":3.313,"climb":0.041,"eps":0.43,"epc":368.73,"ecefx":3841069.16,"ecefy":716267.23,"ecefz":5024457.56,"ecefvx":0.43,"ecefvy":-3.28,"ecefvz":0.19,"ecefpAcc":3.77,"ecefvAcc":0.43,"velN":0.257,"velE":-3.303,"velD":-0.041,"geoidSep":43.898,"eph":23.750,"sep":46.930}
{"class":"SKY","device":"/dev/ttyACM0","time":"2024-06-04T12:15:25.749Z","gdop":2.75,"hdop":1.25,"pdop":2.47,"tdop":1.39,"xdop":0.62,"ydop":0.99,"vdop":2.02,"uSat":8}
{"class":"SKY","device":"/dev/ttyACM0","time":"2024-06-04T12:15:25.749Z","gdop":2.88,"hdop":1.35,"pdop":2.47,"tdop":1.47,"xdop":0.62,"ydop":0.99,"vdop":2.07,"uSat":8}
{"class":"TPV","device":"/dev/ttyACM0","mode":3,"time":"2024-06-04T12:15:26.001Z","leapseconds":18,"ept":0.005,"lat":52.315827820,"lon":10.562966747,"altHAE":119.9216,"altMSL":76.0241,"alt":76.0241,"epx":9.280,"epy":14.902,"epv":46.460,"track":274.4568,"magtrack":277.6766,"magvar":3.2,"speed":3.313,"climb":0.041,"eps":118.27,"epc":368.73,"ecefx":3841069.16,"ecefy":716267.23,"ecefz":5024457.56,"ecefvx":0.43,"ecefvy":-3.28,"ecefvz":0.19,"ecefpAcc":3.77,"ecefvAcc":0.43,"velN":0.257,"velE":-3.303,"velD":-0.041,"geoidSep":43.898,"eph":23.750,"sep":46.930}
{"class":"SKY","device":"/dev/ttyACM0","time":"2024-06-04T12:15:26.001Z","gdop":2.88,"hdop":1.35,"pdop":2.47,"tdop":1.47,"xdop":0.62,"ydop":0.99,"vdop":2.07,"nSat":11,"uSat":7,"satellites":[{"PRN":2,"gnssid":0,"svid":2,"az":276.0,"el":39.0,"ss":33.0,"used":false,"health":1},{"PRN":22,"gnssid":0,"svid":22,"az":337.0,"el":4.0,"ss":24.0,"used":false,"health":1},{"PRN":32,"gnssid":0,"svid":32,"az":115.0,"el":30.0,"ss":47.0,"used":true,"health":1},{"PRN":16,"gnssid":0,"svid":16,"az":188.0,"el":3.0,"ss":0.0,"used":false,"health":1},{"PRN":14,"gnssid":0,"svid":14,"az":322.0,"el":16.0,"ss":39.0,"used":true,"health":1},{"PRN":33,"gnssid":1,"svid":120,"az":0.0,"el":-9.0,"ss":0.0,"used":false,"health":1},{"PRN":8,"gnssid":0,"svid":8,"az":209.0,"el":73.0,"ss":49.0,"used":true,"health":1},{"PRN":10,"gnssid":0,"svid":10,"az":64.0,"el":55.0,"ss":51.0,"used":true,"health":1},{"PRN":23,"gnssid":0,"svid":23,"az":50.0,"el":21.0,"ss":45.0,"used":true,"health":1},{"PRN":21,"gnssid":0,"svid":21,"az":279.0,"el":57.0,"ss":45.0,"used":true,"health":1},{"PRN":27,"gnssid":0,"svid":27,"az":152.0,"el":46.0,"ss":43.0,"used":true,"health":1}]}
{"class":"TPV","device":"/dev/ttyACM0","mode":3,"time":"2024-06-04T12:15:26.249Z","leapseconds":18,"ept":0.005,"lat":52.315828242,"lon":10.562954721,"altHAE":119.9485,"altMSL":76.0510,"alt":76.0510,"epx":9.280,"epy":14.902,"epv":47.610,"track":274.1917,"magtrack":277.4115,"magvar":3.2,"speed":3.404,"climb":0.035,"eps":0.43,"epc":379.31,"ecefx":3841069.29,"ecefy":716266.42,"ecefz":5024457.61,"ecefvx":0.45,"ecefvy":-3.37,"ecefvz":0.18,"ecefpAcc":3.77,"ecefvAcc":0.43,"velN":0.249,"velE":-3.395,"velD":-0.035,"geoidSep":43.898,"eph":25.650,"sep":46.930}
{"class":"SKY","device":"/dev/ttyACM0","time":"2024-06-04T12:15:26.001Z","gdop":2.88,"hdop":1.35,"pdop":2.47,"tdop":1.47,"xdop":0.62,"ydop":0.99,"vdop":2.07,"uSat":8}
{"class":"SKY","device":"/dev/ttyACM0","time":"2024-06-04T12:15:26.001Z","gdop":2.88,"hdop":1.35,"pdop":2.47,"tdop":1.47,"xdop":0.62,"ydop":0.99,"vdop":2.07,"uSat":8}
{"class":"TPV","device":"/dev/ttyACM0","mode":3,"time":"2024-06-04T12:15:26.249Z","leapseconds":18,"ept":0.005,"lat":52.315828242,"lon":10.562954721,"altHAE":119.9485,"altMSL":76.0510,"alt":76.0510,"epx":9.280,"epy":14.902,"epv":47.610,"track":274.1917,"magtrack":277.4115,"magvar":3.2,"speed":3.404,"climb":0.035,"eps":120.18,"epc":379.31,"ecefx":3841069.29,"ecefy":716266.42,"ecefz":5024457.61,"ecefvx":0.45,"ecefvy":-3.37,"ecefvz":0.18,"ecefpAcc":3.77,"ecefvAcc":0.43,"velN":0.249,"velE":-3.395,"velD":-0.035,"geoidSep":43.898,"eph":25.650,"sep":46.930}
{"class":"SKY","device":"/dev/ttyACM0","time":"2024-06-04T12:15:26.249Z","gdop":2.88,"hdop":1.35,"pdop":2.47,"tdop":1.47,"xdop":0.62,"ydop":0.99,"vdop":2.07,"nSat":11,"uSat":7,"satellites":[{"PRN":2,"gnssid":0,"svid":2,"az":276.0,"el":39.0,"ss":34.0,"used":false,"health":1},{"PRN":22,"gnssid":0,"svid":22,"az":337.0,"el":4.0,"ss":24.0,"used":false,"health":1},{"PRN":32,"gnssid":0,"svid":32,"az":115.0,"el":30.0,"ss":47.0,"used":true,"health":1},{"PRN":16,"gnssid":0,"svid":16,"az":188.0,"el":3.0,"ss":0.0,"used":false,"health":1},{"PRN":14,"gnssid":0,"svid":14,"az":322.0,"el":16.0,"ss":40.0,"used":true,"health":1},{"PRN":33,"gnssid":1,"svid":120,"az":0.0,"el":-9.0,"ss":0.0,"used":false,"health":1},{"PRN":8,"gnssid":0,"svid":8,"az":209.0,"el":73.0,"ss":49.0,"used":true,"health":1},{"PRN":10,"gnssid":0,"svid":10,"az":64.0,"el":55.0,"ss":51.0,"used":true,"health":1},{"PRN":23,"gnssid":0,"svid":23,"az":50.0,"el":21.0,"ss":45.0,"used":true,"health":1},{"PRN":21,"gnssid":0,"svid":21,"az":279.0,"el":57.0,"ss":45.0,"used":true,"health":1},{"PRN":27,"gnssid":0,"svid":27,"az":152.0,"el":46.0,"ss":43.0,"used":true,"health":1}]}
{"class":"TPV","device":"/dev/ttyACM0","mode":3,"time":"2024-06-04T12:15:26.501Z","leapseconds":18,"ept":0.005,"lat":52.315828716,"lon":10.562942119,"altHAE":119.9710,"altMSL":76.0734,"alt":76.0734,"epx":9.280,"epy":14.902,"epv":47.610,"track":274.6239,"magtrack":277.8437,"magvar":3.2,"speed":3.426,"climb":0.065,"eps":0.43,"epc":377.86,"ecefx":3841069.42,"ecefy":716265.57,"ecefz":5024457.66,"ecefvx":0.45,"ecefvy":-3.39,"ecefvz":0.22,"ecefpAcc":3.77,"ecefvAcc":0.43,"velN":0.276,"velE":-3.415,"velD":-0.065,"geoidSep":43.898,"eph":25.650,"sep":46.930}
{"class":"SKY","device":"/dev/ttyACM0","time":"2024-06-04T12:15:26.249Z","gdop":2.88,"hdop":1.35,"pdop":2.47,"tdop":1.47,"xdop":0.62,"ydop":0.99,"vdop":2.07,"uSat":8}
{"class":"SKY","device":"/dev/ttyACM0","time":"2024-06-04T12:15:26.249Z","gdop":2.87,"hdop":1.35,"pdop":2.47,"tdop":1.47,"xdop":0.62,"ydop":0.99,"vdop":2.07,"uSat":8}
{"class":"TPV","device":"/dev/ttyACM0","mode":3,"time":"2024-06-04T12:15:26.501Z","leapseconds":18,"ept":0.005,"lat":52.315828716,"lon":10.562942119,"altHAE":119.9710,"altMSL":76.0734,"alt":76.0734,"epx":9.280,"epy":14.902,"epv":47.610,"track":274.6239,"magtrack":277.8437,"magvar":3.2,"speed":3.426,"climb":0.065,"eps":118.27,"epc":377.86,"ecefx":3841069.42,"ecefy":716265.57,"ecefz":5024457.66,"ecefvx":0.45,"ecefvy":-3.39,"ecefvz":0.22,"ecefpAcc":3.77,"ecefvAcc":0.43,"velN":0.276,"velE":-3.415,"velD":-0.065,"geoidSep":43.898,"eph":25.650,"sep":46.930}
{"class":"SKY","device":"/dev/ttyACM0","time":"2024-06-04T12:15:26.501Z","gdop":2.87,"hdop":1.35,"pdop":2.47,"tdop":1.47,"xdop":0.62,"ydop":0.99,"vdop":2.07,"nSat":11,"uSat":7,"satellites":[{"PRN":2,"gnssid":0,"svid":2,"az":276.0,"el":39.0,"ss":34.0,"used":false,"health":1},{"PRN":22,"gnssid":0,"svid":22,"az":337.0,"el":4.0,"ss":26.0,"used":false,"health":1},{"PRN":32,"gnssid":0,"svid":32,"az":115.0,"el":30.0,"ss":47.0,"used":true,"health":1},{"PRN":16,"gnssid":0,"svid":16,"az":188.0,"el":3.0,"ss":0.0,"used":false,"health":1},{"PRN":14,"gnssid":0,"svid":14,"az":322.0,"el":16.0,"ss":40.0,"used":true,"health":1},{"PRN":33,"gnssid":1,"svid":120,"az":0.0,"el":-9.0,"ss":0.0,"used":false,"health":1},{"PRN":8,"gnssid":0,"svid":8,"az":209.0,"el":73.0,"ss":49.0,"used":true,"health":1},{"PRN":10,"gnssid":0,"svid":10,"az":64.0,"el":55.0,"ss":51.0,"used":true,"health":1},{"PRN":23,"gnssid":0,"svid":23,"az":50.0,"el":21.0,"ss":44.0,"used":true,"health":1},{"PRN":21,"gnssid":0,"svid":21,"az":279.0,"el":57.0,"ss":45.0,"used":true,"health":1},{"PRN":27,"gnssid":0,"svid":27,"az":152.0,"el":46.0,"ss":43.0,"used":true,"health":1}]}
{"class":"TPV","device":"/dev/ttyACM0","mode":3,"time":"2024-06-04T12:15:26.749Z","leapseconds":18,"ept":0.005,"lat":52.315829247,"lon":10.562929688,"altHAE":119.9885,"altMSL":76.0910,"alt":76.0910,"epx":9.280,"epy":14.902,"epv":47.610,"track":273.7950,"magtrack":277.0148,"magvar":3.2,"speed":3.509,"climb":0.048,"eps":0.43,"epc":383.95,"ecefx":3841069.54,"ecefy":716264.73,"ecefz":5024457.71,"ecefvx":0.49,"ecefvy":-3.47,"ecefvz":0.18,"ecefpAcc":3.77,"ecefvAcc":0.43,"velN":0.232,"velE":-3.501,"velD":-0.048,"geoidSep":43.898,"eph":25.650,"sep":45.220}
{"class":"SKY","device":"/dev/ttyACM0","time":"2024-06-04T12:15:26.501Z","gdop":2.87,"hdop":1.35,"pdop":2.38,"tdop":1.47,"xdop":0.62,"ydop":0.99,"vdop":2.07,"uSat":8}
{"class":"SKY","device":"/dev/ttyACM0","time":"2024-06-04T12:15:26.501Z","gdop":2.75,"hdop":1.25,"pdop":2.38,"tdop":1.39,"xdop":0.62,"ydop":0.99,"vdop":2.02,"uSat":8}
{"class":"TPV","device":"/dev/ttyACM0","mode":3,"time":"2024-06-04T12:15:26.749Z","leapseconds":18,"ept":0.005,"lat":52.315829247,"lon":10.562929688,"altHAE":119.9885,"altMSL":76.0910,"alt":76.0910,"epx":9.280,"epy":14.902,"epv":47.610,"track":273.7950,"magtrack":277.0148,"magvar":3.2,"speed":3.509,"climb":0.048,"eps":120.18,"epc":383.95,"ecefx":3841069.54,"ecefy":716264.73,"ecefz":5024457.71,"ecefvx":0.49,"ecefvy":-3.47,"ecefvz":0.18,"ecefpAcc":3.77,"ecefvAcc":0.43,"velN":0.232,"velE":-3.501,"velD":-0.048,"geoidSep":43.898,"eph":25.650,"sep":45.220}
{"class":"SKY","device":"/dev/ttyACM0","time":"2024-06-04T12:15:26.749Z","gdop":2.75,"hdop":1.25,"pdop":2.38,"tdop":1.39,"xdop":0.62,"ydop":0.99,"vdop":2.02,"nSat":11,"uSat":8,"satellites":[{"PRN":2,"gnssid":0,"svid":2,"az":276.0,"el":39.0,"ss":34.0,"used":true,"health":1},{"PRN":22,"gnssid":0,"svid":22,"az":337.0,"el":4.0,"ss":23.0,"used":false,"health":1},{"PRN":32,"gnssid":0,"svid":32,"az":115.0,"el":30.0,"ss":48.0,"used":true,"health":1},{"PRN":16,"gnssid":0,"svid":16,"az":188.0,"el":3.0,"ss":0.0,"used":false,"health":1},{"PRN":14,"gnssid":0,"svid":14,"az":322.0,"el":16.0,"ss":39.0,"used":true,"health":1},{"PRN":33,"gnssid":1,"svid":120,"az":0.0,"el":-9.0,"ss":0.0,"used":false,"health":1},{"PRN":8,"gnssid":0,"svid":8,"az":209.0,"el":73.0,"ss":49.0,"used":true,"health":1},{"PRN":10,"gnssid":0,"svid":10,"az":64.0,"el":55.0,"ss":51.0,"used":true,"health":1},{"PRN":23,"gnssid":0,"svid":23,"az":50.0,"el":21.0,"ss":46.0,"used":true,"health":1},{"PRN":21,"gnssid":0,"svid":21,"az":279.0,"el":57.0,"ss":45.0,"used":true,"health":1},{"PRN":27,"gnssid":0,"svid":27,"az":152.0,"el":46.0,"ss":43.0,"used":true,"health":1}]}
{"class":"TPV","device":"/dev/ttyACM0","mode":3,"time":"2024-06-04T12:15:27.001Z","leapseconds":18,"ept":0.005,"lat":52.315829732,"lon":10.562916770,"altHAE":120.0227,"altMSL":76.1251,"alt":76.1251,"epx":9.280,"epy":14.902,"epv":46.460,"track":274.3901,"magtrack":277.6099,"magvar":3.2,"speed":3.569,"climb":0.067,"eps":0.43,"epc":373.29,"ecefx":3841069.68,"ecefy":716263.86,"ecefz":5024457.77,"ecefvx":0.48,"ecefvy":-3.53,"ecefvz":0.22,"ecefpAcc":3.77,"ecefvAcc":0.43,"velN":0.273,"velE":-3.558,"velD":-0.067,"geoidSep":43.898,"eph":23.750,"sep":45.220}
{"class":"SKY","device":"/dev/ttyACM0","time":"2024-06-04T12:15:26.749Z","gdop":2.75,"hdop":1.25,"pdop":2.38,"tdop":1.39,"xdop":0.62,"ydop":0.99,"vdop":2.02,"uSat":8}
{"class":"SKY","device":"/dev/ttyACM0","time":"2024-06-04T12:15:26.749Z","gdop":2.75,"hdop":1.25,"pdop":2.38,"tdop":1.39,"xdop":0.62,"ydop":0.99,"vdop":2.02,"uSat":8}
{"class":"TPV","device":"/dev/ttyACM0","mode":3,"time":"2024-06-04T12:15:27.001Z","leapseconds":18,"ept":0.005,"lat":52.315829732,"lon":10.562916770,"altHAE":120.0227,"altMSL":76.1251,"alt":76.1251,"epx":9.280,"epy":14.902,"epv":46.460,"track":274.3901,"magtrack":277.6099,"magvar":3.2,"speed":3.569,"climb":0.067,"eps":118.27,"epc":373.29,"ecefx":3841069.68,"ecefy":716263.86,"ecefz":5024457.77,"ecefvx":0.48,"ecefvy":-3.53,"ecefvz":0.22,"ecefpAcc":3.77,"ecefvAcc":0.43,"velN":0.273,"velE":-3.558,"velD":-0.067,"geoidSep":43.898,"eph":23.750,"sep":45.220}
{"class":"SKY","device":"/dev/ttyACM0","time":"2024-06-04T12:15:27.001Z","gdop":2.75,"hdop":1.25,"pdop":2.38,"tdop":1.39,"xdop":0.62,"ydop":0.99,"vdop":2.02,"nSat":11,"uSat":8,"satellites":[{"PRN":2,"gnssid":0,"svid":2,"az":276.0,"el":39.0,"ss":35.0,"used":true,"health":1},{"PRN":22,"gnssid":0,"svid":22,"az":337.0,"el":4.0,"ss":24.0,"used":false,"health":1},{"PRN":32,"gnssid":0,"svid":32,"az":115.0,"el":30.0,"ss":48.0,"used":true,"health":1},{"PRN":16,"gnssid":0,"svid":16,"az":188.0,"el":3.0,"ss":0.0,"used":false,"health":1},{"PRN":14,"gnssid":0,"svid":14,"az":322.0,"el":16.0,"ss":39.0,"used":true,"health":1},{"PRN":33,"gnssid":1,"svid":120,"az":0.0,"el":-9.0,"ss":0.0,"used":false,"health":1},{"PRN":8,"gnssid":0,"svid":8,"az":209.0,"el":73.0,"ss":49.0,"used":true,"health":1},{"PRN":10,"gnssid":0,"svid":10,"az":64.0,"el":55.0,"ss":51.0,"used":true,"health":1},{"PRN":23,"gnssid":0,"svid":23,"az":50.0,"el":21.0,"ss":45.0,"used":true,"health":1},{"PRN":21,"gnssid":0,"svid":21,"az":279.0,"el":57.0,"ss":45.0,"used":true,"health":1},{"PRN":27,"gnssid":0,"svid":27,"az":152.0,"el":46.0,"ss":45.0,"used":true,"health":1}]}
{"class":"TPV","device":"/dev/ttyACM0","mode":3,"time":"2024-06-04T12:15:27.249Z","leapseconds":18,"ept":0.005,"lat":52.315830260,"lon":10.562903762,"altHAE":120.0278,"altMSL":76.1302,"alt":76.1302,"epx":9.280,"epy":14.902,"epv":46.460,"track":273.8090,"magtrack":277.0288,"magvar":3.2,"speed":3.619,"climb":0.042,"eps":0.43,"epc":374.68,"ecefx":3841069.80,"ecefy":716262.98,"ecefz":5024457.81,"ecefvx":0.50,"ecefvy":-3.58,"ecefvz":0.18,"ecefpAcc":3.77,"ecefvAcc":0.43,"velN":0.240,"velE":-3.611,"velD":-0.042,"geoidSep":43.898,"eph":23.750,"sep":45.220}
{"class":"SKY","device":"/dev/ttyACM0","time":"2024-06-04T12:15:27.001Z","gdop":2.75,"hdop":1.25,"pdop":2.38,"tdop":1.39,"xdop":0.62,"ydop":0.99,"vdop":2.02,"uSat":8}
{"class":"SKY","device":"/dev/ttyACM0","time":"2024-06-04T12:15:27.001Z","gdop":2.75,"hdop":1.25,"pdop":2.38,"tdop":1.39,"xdop":0.62,"ydop":0.99,"vdop":2.02,"uSat":8}
{"class":"TPV","device":"/dev/ttyACM0","mode":3,"time":"2024-06-04T12:15:27.249Z","leapseconds":18,"ept":0.005,"lat":52.315830260,"lon":10.562903762,"altHAE":120.0278,"altMSL":76.1302,"alt":76.1302,"epx":9.280,"epy":14.902,"epv":46.460,"track":273.8090,"magtrack":277.0288,"magvar":3.2,"speed":3.619,"climb":0.042,"eps":120.18,"epc":374.68,"ecefx":3841069.80,"ecefy":716262.98,"ecefz":5024457.81,"ecefvx":0.50,"ecefvy":-3.58,"ecefvz":0.18,"ecefpAcc":3.77,"ecefvAcc":0.43,"velN":0.240,"velE":-3.611,"velD":-0.042,"geoidSep":43.898,"eph":23.750,"sep":45.220}
{"class":"SKY","device":"/dev/ttyACM0","time":"2024-06-04T12:15:27.249Z","gdop":2.75,"hdop":1.25,"pdop":2.38,"tdop":1.39,"xdop":0.62,"ydop":0.99,"vdop":2.02,"nSat":11,"uSat":8,"satellites":[{"PRN":2,"gnssid":0,"svid":2,"az":276.0,"el":39.0,"ss":34.0,"used":true,"health":1},{"PRN":22,"gnssid":0,"svid":22,"az":337.0,"el":4.0,"ss":28.0,"used":false,"health":1},{"PRN":32,"gnssid":0,"svid":32,"az":115.0,"el":30.0,"ss":47.0,"used":true,"health":1},{"PRN":16,"gnssid":0,"svid":16,"az":188.0,"el":3.0,"ss":0.0,"used":false,"health":1},{"PRN":14,"gnssid":0,"svid":14,"az":322.0,"el":16.0,"ss":38.0,"used":true,"health":1},{"PRN":33,"gnssid":1,"svid":120,"az":0.0,"el":-9.0,"ss":0.0,"used":false,"health":1},{"PRN":8,"gnssid":0,"svid":8,"az":209.0,"el":73.0,"ss":49.0,"used":true,"health":1},{"PRN":10,"gnssid":0,"svid":10,"az":64.0,"el":55.0,"ss":51.0,"used":true,"health":1},{"PRN":23,"gnssid":0,"svid":23,"az":50.0,"el":21.0,"ss":45.0,"used":true,"health":1},{"PRN":21,"gnssid":0,"svid":21,"az":279.0,"el":57.0,"ss":45.0,"used":true,"health":1},{"PRN":27,"gnssid":0,"svid":27,"az":152.0,"el":46.0,"ss":44.0,"used":true,"health":1}]}
{"class":"TPV","device":"/dev/ttyACM0","mode":3,"time":"2024-06-04T12:15:27.501Z","leapseconds":18,"ept":0.005,"lat":52.315831007,"lon":10.562890348,"altHAE":120.0394,"altMSL":76.1418,"alt":76.1418,"epx":9.280,"epy":14.902,"epv":46.460,"track":274.5476,"magtrack":277.7673,"magvar":3.2,"speed":3.686,"climb":0.040,"eps":0.43,"epc":368.73,"ecefx":3841069.91,"ecefy":716262.07,"ecefz":5024457.87,"ecefvx":0.47,"ecefvy":-3.65,"ecefvz":0.21,"ecefpAcc":3.77,"ecefvAcc":0.43,"velN":0.292,"velE":-3.674,"velD":-0.040,"geoidSep":43.898,"eph":23.750,"sep":45.220}
{"class":"SKY","device":"/dev/ttyACM0","time":"2024-06-04T12:15:27.249Z","gdop":2.75,"hdop":1.25,"pdop":2.38,"tdop":1.39,"xdop":0.62,"ydop":0.99,"vdop":2.02,"uSat":8}
{"class":"SKY","device":"/dev/ttyACM0","time":"2024-06-04T12:15:27.249Z","gdop":2.75,"hdop":1.25,"pdop":2.38,"tdop":1.39,"xdop":0.62,"ydop":0.99,"vdop":2.02,"uSat":8}
{"class":"TPV","device":"/dev/ttyACM0","mode":3,"time":"2024-06-04T12:15:27.501Z","leapseconds":18,"ept":0.005,"lat":52.315831007,"lon":10.562890348,"altHAE":120.0394,"altMSL":76.1418,"alt":76.1418,"epx":9.280,"epy":14.902,"epv":46.460,"track":274.5476,"magtrack":277.7673,"magvar":3.2,"speed":3.686,"climb":0.040,"eps":118.27,"epc":368.73,"ecefx":3841069.91,"ecefy":716262.07,"ecefz":5024457.87,"ecefvx":0.47,"ecefvy":-3.65,"ecefvz":0.21,"ecefpAcc":3.77,"ecefvAcc":0.43,"velN":0.292,"velE":-3.674,"velD":-0.040,"geoidSep":43.898,"eph":23.750,"sep":45.220}
{"class":"SKY","device":"/dev/ttyACM0","time":"2024-06-04T12:15:27.501Z","gdop":2.75,"hdop":1.25,"pdop":2.38,"tdop":1.39,"xdop":0.62,"ydop":0.99,"vdop":2.02,"nSat":11,"uSat":8,"satellites":[{"PRN":2,"gnssid":0,"svid":2,"az":276.0,"el":39.0,"ss":35.0,"used":true,"health":1},{"PRN":22,"gnssid":0,"svid":22,"az":337.0,"el":4.0,"ss":28.0,"used":false,"health":1},{"PRN":32,"gnssid":0,"svid":32,"az":115.0,"el":30.0,"ss":47.0,"used":true,"health":1},{"PRN":16,"gnssid":0,"svid":16,"az":188.0,"el":3.0,"ss":0.0,"used":false,"health":1},{"PRN":14,"gnssid":0,"svid":14,"az":322.0,"el":16.0,"ss":36.0,"used":true,"health":1},{"PRN":33,"gnssid":1,"svid":120,"az":0.0,"el":-9.0,"ss":0.0,"used":false,"health":1},{"PRN":8,"gnssid":0,"svid":8,"az":209.0,"el":73.0,"ss":49.0,"used":true,"health":1},{"PRN":10,"gnssid":0,"svid":10,"az":64.0,"el":55.0,"ss":51.0,"used":true,"health":1},{"PRN":23,"gnssid":0,"svid":23,"az":50.0,"el":21.0,"ss":45.0,"used":true,"health":1},{"PRN":21,"gnssid":0,"svid":21,"az":279.0,"el":57.0,"ss":45.0,"used":true,"health":1},{"PRN":27,"gnssid":0,"svid":27,"az":152.0,"el":46.0,"ss":44.0,"used":true,"health":1}]}
