{"class":"VERSION","release":"3.25","rev":"3.25","proto_major":3,"proto_minor":15}
{"class":"DEVICES","devices":[{"class":"DEVICE","path":"/dev/ttyACM0","driver":"u-blox","subtype":"SW 5.00    May 11 2006 14:40:17,HW 00040001","subtype1":"M4T1.2  May 11 2006 14:40:17","activated":"2024-06-04T12:20:13.891Z","flags":1,"native":1,"bps":57600,"parity":"N","stopbits":1,"cycle":1.00,"mincycle":0.02}]}
{"class":"WATCH","enable":true,"json":true,"nmea":false,"raw":0,"scaled":false,"timing":false,"split24":false,"pps":false}
{"class":"TPV","device":"/dev/ttyACM0","mode":3,"time":"2024-06-04T12:20:14.001Z","leapseconds":18,"ept":0.005,"lat":52.315897586,"lon":10.561704095,"altHAE":116.9196,"altMSL":73.0211,"alt":73.0211,"epx":9.280,"epy":14.902,"epv":58.190,"track":104.3711,"magtrack":107.5906,"magvar":3.2,"speed":0.018,"climb":0.016,"eps":0.35,"epc":461.82,"ecefx":3841077.10,"ecefy":716181.12,"ecefz":5024459.93,"ecefvx":0.01,"ecefvy":0.02,"ecefvz":0.01,"ecefpAcc":3.81,"ecefvAcc":0.35,"velN":-0.005,"velE":0.018,"velD":-0.016,"geoidSep":43.899,"eph":25.650,"sep":54.530}
{"class":"SKY","device":"/dev/ttyACM0","time":"2024-06-04T12:20:13.749Z","gdop":3.41,"hdop":1.35,"pdop":2.87,"tdop":1.83,"xdop":0.62,"ydop":0.99,"vdop":2.53,"uSat":8}
{"class":"SKY","device":"/dev/ttyACM0","time":"2024-06-04T12:20:13.749Z","gdop":3.41,"hdop":1.35,"pdop":2.87,"tdop":1.84,"xdop":0.62,"ydop":0.99,"vdop":2.53,"uSat":8}
{"class":"TPV","device":"/dev/ttyACM0","mode":3,"time":"2024-06-04T12:20:14.001Z","leapseconds":18,"ept":0.005,"lat":52.315897586,"lon":10.561704095,"altHAE":116.9196,"altMSL":73.0211,"alt":73.0211,"epx":9.280,"epy":14.902,"epv":58.190,"track":104.3711,"magtrack":107.5906,"magvar":3.2,"speed":0.018,"climb":0.016,"eps":118.27,"epc":461.82,"ecefx":3841077.10,"ecefy":716181.12,"ecefz":5024459.93,"ecefvx":0.01,"ecefvy":0.02,"ecefvz":0.01,"ecefpAcc":3.81,"ecefvAcc":0.35,"velN":-0.005,"velE":0.018,"velD":-0.016,"geoidSep":43.899,"eph":25.650,"sep":54.530}
{"class":"SKY","device":"/dev/ttyACM0","time":"2024-06-04T12:20:14.001Z","gdop":3.41,"hdop":1.35,"pdop":2.87,"tdop":1.84,"xdop":0.62,"ydop":0.99,"vdop":2.53,"nSat":12,"uSat":7,"satellites":[{"PRN":2,"gnssid":0,"svid":2,"az":277.0,"el":41.0,"ss":39.0,"used":true,"health":1},{"PRN":22,"gnssid":0,"svid":22,"az":336.0,"el":5.0,"ss":0.0,"used":false,"health":1},{"PRN":32,"gnssid":0,"svid":32,"az":113.0,"el":32.0,"ss":47.0,"used":true,"health":1},{"PRN":16,"gnssid":0,"svid":16,"az":187.0,"el":1.0,"ss":0.0,"used":false,"health":1},{"PRN":14,"gnssid":0,"svid":14,"az":321.0,"el":17.0,"ss":35.0,"used":false,"health":1},{"PRN":33,"gnssid":1,"svid":120,"az":0.0,"el":-9.0,"ss":0.0,"used":false,"health":1},{"PRN":24,"gnssid":0,"svid":24,"az":36.0,"el":1.0,"ss":0.0,"used":false,"health":1},{"PRN":8,"gnssid":0,"svid":8,"az":203.0,"el":72.0,"ss":47.0,"used":true,"health":1},{"PRN":10,"gnssid":0,"svid":10,"az":63.0,"el":53.0,"ss":52.0,"used":true,"health":1},{"PRN":23,"gnssid":0,"svid":23,"az":50.0,"el":19.0,"ss":44.0,"used":true,"health":1},{"PRN":21,"gnssid":0,"svid":21,"az":280.0,"el":59.0,"ss":43.0,"used":true,"health":1},{"PRN":27,"gnssid":0,"svid":27,"az":152.0,"el":43.0,"ss":47.0,"used":true,"health":1}]}
{"class":"TPV","device":"/dev/ttyACM0","mode":3,"time":"2024-06-04T12:20:14.249Z","leapseconds":18,"ept":0.005,"lat":52.315897586,"lon":10.561704095,"altHAE":116.9196,"altMSL":73.0211,"alt":73.0211,"epx":9.280,"epy":14.902,"epv":58.190,"track":111.2951,"magtrack":114.5145,"magvar":3.2,"speed":0.009,"climb":0.015,"eps":0.36,"epc":469.27,"ecefx":3841077.10,"ecefy":716181.12,"ecefz":5024459.93,"ecefvx":0.01,"ecefvy":0.01,"ecefvz":0.01,"ecefpAcc":3.81,"ecefvAcc":0.36,"velN":-0.003,"velE":0.008,"velD":-0.015,"geoidSep":43.899,"eph":25.650,"sep":54.530}
{"class":"SKY","device":"/dev/ttyACM0","time":"2024-06-04T12:20:14.001Z","gdop":3.41,"hdop":1.35,"pdop":2.87,"tdop":1.84,"xdop":0.62,"ydop":0.99,"vdop":2.53,"uSat":8}
{"class":"SKY","device":"/dev/ttyACM0","time":"2024-06-04T12:20:14.001Z","gdop":3.41,"hdop":1.35,"pdop":2.87,"tdop":1.83,"xdop":0.62,"ydop":0.99,"vdop":2.53,"uSat":8}
{"class":"TPV","device":"/dev/ttyACM0","mode":3,"time":"2024-06-04T12:20:14.249Z","leapseconds":18,"ept":0.005,"lat":52.315897586,"lon":10.561704095,"altHAE":116.9196,"altMSL":73.0211,"alt":73.0211,"epx":9.280,"epy":14.902,"epv":58.190,"track":111.2951,"magtrack":114.5145,"magvar":3.2,"speed":0.009,"climb":0.015,"eps":120.18,"epc":469.27,"ecefx":3841077.10,"ecefy":716181.12,"ecefz":5024459.93,"ecefvx":0.01,"ecefvy":0.01,"ecefvz":0.01,"ecefpAcc":3.81,"ecefvAcc":0.36,"velN":-0.003,"velE":0.008,"velD":-0.015,"geoidSep":43.899,"eph":25.650,"sep":54.530}
{"class":"SKY","device":"/dev/ttyACM0","time":"2024-06-04T12:20:14.249Z","gdop":3.41,"hdop":1.35,"pdop":2.87,"tdop":1.83,"xdop":0.62,"ydop":0.99,"vdop":2.53,"nSat":12,"uSat":7,"satellites":[{"PRN":2,"gnssid":0,"svid":2,"az":277.0,"el":41.0,"ss":39.0,"used":true,"health":1},{"PRN":22,"gnssid":0,"svid":22,"az":336.0,"el":5.0,"ss":0.0,"used":false,"health":1},{"PRN":32,"gnssid":0,"svid":32,"az":113.0,"el":32.0,"ss":46.0,"used":true,"health":1},{"PRN":16,"gnssid":0,"svid":16,"az":187.0,"el":1.0,"ss":0.0,"used":false,"health":1},{"PRN":14,"gnssid":0,"svid":14,"az":321.0,"el":17.0,"ss":35.0,"used":false,"health":1},{"PRN":33,"gnssid":1,"svid":120,"az":0.0,"el":-9.0,"ss":0.0,"used":false,"health":1},{"PRN":24,"gnssid":0,"svid":24,"az":36.0,"el":1.0,"ss":0.0,"used":false,"health":1},{"PRN":8,"gnssid":0,"svid":8,"az":203.0,"el":72.0,"ss":47.0,"used":true,"health":1},{"PRN":10,"gnssid":0,"svid":10,"az":63.0,"el":53.0,"ss":52.0,"used":true,"health":1},{"PRN":23,"gnssid":0,"svid":23,"az":50.0,"el":19.0,"ss":44.0,"used":true,"health":1},{"PRN":21,"gnssid":0,"svid":21,"az":280.0,"el":59.0,"ss":43.0,"used":true,"health":1},{"PRN":27,"gnssid":0,"svid":27,"az":152.0,"el":43.0,"ss":47.0,"used":true,"health":1}]}
{"class":"TPV","device":"/dev/ttyACM0","mode":3,"time":"2024-06-04T12:20:14.501Z","leapseconds":18,"ept":0.005,"lat":52.315897475,"lon":10.561703924,"altHAE":116.9166,"altMSL":73.0181,"alt":73.0181,"epx":9.280,"epy":14.902,"epv":58.190,"track":337.5966,"magtrack":340.8160,"magvar":3.2,"speed":0.005,"climb":0.022,"eps":0.35,"epc":461.82,"ecefx":3841077.11,"ecefy":716181.11,"ecefz":5024459.92,"ecefvx":0.01,"ecefvy":0.00,"ecefvz":0.02,"ecefpAcc":3.81,"ecefvAcc":0.35,"velN":0.004,"velE":-0.002,"velD":-0.022,"geoidSep":43.899,"eph":25.650,"sep":54.530}
{"class":"SKY","device":"/dev/ttyACM0","time":"2024-06-04T12:20:14.249Z","gdop":3.41,"hdop":1.35,"pdop":2.87,"tdop":1.83,"xdop":0.62,"ydop":0.99,"vdop":2.53,"uSat":8}
{"class":"SKY","device":"/dev/ttyACM0","time":"2024-06-04T12:20:14.249Z","gdop":3.41,"hdop":1.35,"pdop":2.87,"tdop":1.84,"xdop":0.62,"ydop":0.99,"vdop":2.53,"uSat":8}
{"class":"TPV","device":"/dev/ttyACM0","mode":3,"time":"2024-06-04T12:20:14.501Z","leapseconds":18,"ept":0.005,"lat":52.315897475,"lon":10.561703924,"altHAE":116.9166,"altMSL":73.0181,"alt":73.0181,"epx":9.280,"epy":14.902,"epv":58.190,"track":337.5966,"magtrack":340.8160,"magvar":3.2,"speed":0.005,"climb":0.022,"eps":118.27,"epc":461.82,"ecefx":3841077.11,"ecefy":716181.11,"ecefz":5024459.92,"ecefvx":0.01,"ecefvy":0.00,"ecefvz":0.02,"ecefpAcc":3.81,"ecefvAcc":0.35,"velN":0.004,"velE":-0.002,"velD":-0.022,"geoidSep":43.899,"eph":25.650,"sep":54.530}
{"class":"SKY","device":"/dev/ttyACM0","time":"2024-06-04T12:20:14.501Z","gdop":3.41,"hdop":1.35,"pdop":2.87,"tdop":1.84,"xdop":0.62,"ydop":0.99,"vdop":2.53,"nSat":12,"uSat":7,"satellites":[{"PRN":2,"gnssid":0,"svid":2,"az":277.0,"el":41.0,"ss":39.0,"used":true,"health":1},{"PRN":22,"gnssid":0,"svid":22,"az":336.0,"el":5.0,"ss":0.0,"used":false,"health":1},{"PRN":32,"gnssid":0,"svid":32,"az":113.0,"el":32.0,"ss":46.0,"used":true,"health":1},{"PRN":16,"gnssid":0,"svid":16,"az":187.0,"el":1.0,"ss":0.0,"used":false,"health":1},{"PRN":14,"gnssid":0,"svid":14,"az":321.0,"el":17.0,"ss":35.0,"used":false,"health":1},{"PRN":33,"gnssid":1,"svid":120,"az":0.0,"el":-9.0,"ss":0.0,"used":false,"health":1},{"PRN":24,"gnssid":0,"svid":24,"az":36.0,"el":1.0,"ss":0.0,"used":false,"health":1},{"PRN":8,"gnssid":0,"svid":8,"az":203.0,"el":72.0,"ss":47.0,"used":true,"health":1},{"PRN":10,"gnssid":0,"svid":10,"az":63.0,"el":53.0,"ss":52.0,"used":true,"health":1},{"PRN":23,"gnssid":0,"svid":23,"az":50.0,"el":19.0,"ss":44.0,"used":true,"health":1},{"PRN":21,"gnssid":0,"svid":21,"az":280.0,"el":59.0,"ss":43.0,"used":true,"health":1},{"PRN":27,"gnssid":0,"svid":27,"az":152.0,"el":43.0,"ss":47.0,"used":true,"health":1}]}
{"class":"TPV","device":"/dev/ttyACM0","mode":3,"time":"2024-06-04T12:20:14.749Z","leapseconds":18,"ept":0.005,"lat":52.315897475,"lon":10.561703924,"altHAE":116.9166,"altMSL":73.0181,"alt":73.0181,"epx":9.280,"epy":14.902,"epv":58.190,"track":0.0000,"magtrack":3.2194,"magvar":3.2,"speed":0.006,"climb":0.008,"eps":0.36,"epc":469.27,"ecefx":3841077.11,"ecefy":716181.11,"ecefz":5024459.92,"ecefvx":0.00,"ecefvy":0.00,"ecefvz":0.01,"ecefpAcc":3.81,"ecefvAcc":0.36,"velN":0.006,"velE":0.000,"velD":-0.008,"geoidSep":43.899,"eph":25.650,"sep":54.530}
{"class":"SKY","device":"/dev/ttyACM0","time":"2024-06-04T12:20:14.501Z","gdop":3.41,"hdop":1.35,"pdop":2.87,"tdop":1.84,"xdop":0.62,"ydop":0.99,"vdop":2.53,"uSat":8}
{"class":"SKY","device":"/dev/ttyACM0","time":"2024-06-04T12:20:14.501Z","gdop":3.41,"hdop":1.35,"pdop":2.87,"tdop":1.84,"xdop":0.62,"ydop":0.99,"vdop":2.54,"uSat":8}
{"class":"TPV","device":"/dev/ttyACM0","mode":3,"time":"2024-06-04T12:20:14.749Z","leapseconds":18,"ept":0.005,"lat":52.315897475,"lon":10.561703924,"altHAE":116.9166,"altMSL":73.0181,"alt":73.0181,"epx":9.280,"epy":14.902,"epv":58.190,"track":0.0000,"magtrack":3.2194,"magvar":3.2,"speed":0.006,"climb":0.008,"eps":120.18,"epc":469.27,"ecefx":3841077.11,"ecefy":716181.11,"ecefz":5024459.92,"ecefvx":0.00,"ecefvy":0.00,"ecefvz":0.01,"ecefpAcc":3.81,"ecefvAcc":0.36,"velN":0.006,"velE":0.000,"velD":-0.008,"geoidSep":43.899,"eph":25.650,"sep":54.530}
{"class":"SKY","device":"/dev/ttyACM0","time":"2024-06-04T12:20:14.749Z","gdop":3.41,"hdop":1.35,"pdop":2.87,"tdop":1.84,"xdop":0.62,"ydop":0.99,"vdop":2.54,"nSat":12,"uSat":7,"satellites":[{"PRN":2,"gnssid":0,"svid":2,"az":277.0,"el":41.0,"ss":38.0,"used":true,"health":1},{"PRN":22,"gnssid":0,"svid":22,"az":336.0,"el":5.0,"ss":0.0,"used":false,"health":1},{"PRN":32,"gnssid":0,"svid":32,"az":113.0,"el":32.0,"ss":46.0,"used":true,"health":1},{"PRN":16,"gnssid":0,"svid":16,"az":187.0,"el":1.0,"ss":0.0,"used":false,"health":1},{"PRN":14,"gnssid":0,"svid":14,"az":321.0,"el":17.0,"ss":35.0,"used":false,"health":1},{"PRN":33,"gnssid":1,"svid":120,"az":0.0,"el":-9.0,"ss":0.0,"used":false,"health":1},{"PRN":24,"gnssid":0,"svid":24,"az":36.0,"el":1.0,"ss":0.0,"used":false,"health":1},{"PRN":8,"gnssid":0,"svid":8,"az":203.0,"el":72.0,"ss":47.0,"used":true,"health":1},{"PRN":10,"gnssid":0,"svid":10,"az":63.0,"el":53.0,"ss":52.0,"used":true,"health":1},{"PRN":23,"gnssid":0,"svid":23,"az":50.0,"el":19.0,"ss":44.0,"used":true,"health":1},{"PRN":21,"gnssid":0,"svid":21,"az":280.0,"el":59.0,"ss":43.0,"used":true,"health":1},{"PRN":27,"gnssid":0,"svid":27,"az":152.0,"el":43.0,"ss":47.0,"used":true,"health":1}]}
{"class":"TPV","device":"/dev/ttyACM0","mode":3,"time":"2024-06-04T12:20:15.001Z","leapseconds":18,"ept":0.005,"lat":52.315897433,"lon":10.561703780,"altHAE":116.9076,"altMSL":73.0090,"alt":73.0090,"epx":9.280,"epy":14.902,"epv":58.420,"track":64.6257,"magtrack":67.8452,"magvar":3.2,"speed":0.011,"climb":0.009,"eps":0.35,"epc":462.74,"ecefx":3841077.11,"ecefy":716181.10,"ecefz":5024459.91,"ecefvx":0.00,"ecefvy":0.01,"ecefvz":0.01,"ecefpAcc":3.81,"ecefvAcc":0.35,"velN":0.005,"velE":0.010,"velD":-0.009,"geoidSep":43.899,"eph":25.650,"sep":54.530}
{"class":"SKY","device":"/dev/ttyACM0","time":"2024-06-04T12:20:14.749Z","gdop":3.41,"hdop":1.35,"pdop":2.87,"tdop":1.84,"xdop":0.62,"ydop":0.99,"vdop":2.54,"uSat":8}
{"class":"SKY","device":"/dev/ttyACM0","time":"2024-06-04T12:20:14.749Z","gdop":3.41,"hdop":1.35,"pdop":2.87,"tdop":1.84,"xdop":0.62,"ydop":0.99,"vdop":2.53,"uSat":8}
{"class":"TPV","device":"/dev/ttyACM0","mode":3,"time":"2024-06-04T12:20:15.001Z","leapseconds":18,"ept":0.005,"lat":52.315897433,"lon":10.561703780,"altHAE":116.9076,"altMSL":73.0090,"alt":73.0090,"epx":9.280,"epy":14.902,"epv":58.420,"track":64.6257,"magtrack":67.8452,"magvar":3.2,"speed":0.011,"climb":0.009,"eps":118.27,"epc":462.74,"ecefx":3841077.11,"ecefy":716181.10,"ecefz":5024459.91,"ecefvx":0.00,"ecefvy":0.01,"ecefvz":0.01,"ecefpAcc":3.81,"ecefvAcc":0.35,"velN":0.005,"velE":0.010,"velD":-0.009,"geoidSep":43.899,"eph":25.650,"sep":54.530}
{"class":"SKY","device":"/dev/ttyACM0","time":"2024-06-04T12:20:15.001Z","gdop":3.41,"hdop":1.35,"pdop":2.87,"tdop":1.84,"xdop":0.62,"ydop":0.99,"vdop":2.53,"nSat":12,"uSat":7,"satellites":[{"PRN":2,"gnssid":0,"svid":2,"az":277.0,"el":41.0,"ss":38.0,"used":true,"health":1},{"PRN":22,"gnssid":0,"svid":22,"az":336.0,"el":5.0,"ss":0.0,"used":false,"health":1},{"PRN":32,"gnssid":0,"svid":32,"az":113.0,"el":32.0,"ss":46.0,"used":true,"health":1},{"PRN":16,"gnssid":0,"svid":16,"az":187.0,"el":1.0,"ss":0.0,"used":false,"health":1},{"PRN":14,"gnssid":0,"svid":14,"az":321.0,"el":17.0,"ss":35.0,"used":false,"health":1},{"PRN":33,"gnssid":1,"svid":120,"az":0.0,"el":-9.0,"ss":0.0,"used":false,"health":1},{"PRN":24,"gnssid":0,"svid":24,"az":36.0,"el":1.0,"ss":0.0,"used":false,"health":1},{"PRN":8,"gnssid":0,"svid":8,"az":203.0,"el":72.0,"ss":47.0,"used":true,"health":1},{"PRN":10,"gnssid":0,"svid":10,"az":63.0,"el":53.0,"ss":52.0,"used":true,"health":1},{"PRN":23,"gnssid":0,"svid":23,"az":50.0,"el":19.0,"ss":44.0,"used":true,"health":1},{"PRN":21,"gnssid":0,"svid":21,"az":280.0,"el":59.0,"ss":43.0,"used":true,"health":1},{"PRN":27,"gnssid":0,"svid":27,"az":152.0,"el":43.0,"ss":47.0,"used":true,"health":1}]}
{"class":"TPV","device":"/dev/ttyACM0","mode":3,"time":"2024-06-04T12:20:15.249Z","leapseconds":18,"ept":0.005,"lat":52.315897321,"lon":10.561703609,"altHAE":116.9045,"altMSL":73.0060,"alt":73.0060,"epx":9.280,"epy":14.902,"epv":58.190,"track":278.3939,"magtrack":281.6133,"magvar":3.2,"speed":0.010,"climb":-0.001,"eps":0.36,"epc":470.20,"ecefx":3841077.12,"ecefy":716181.09,"ecefz":5024459.90,"ecefvx":0.00,"ecefvy":-0.01,"ecefvz":0.00,"ecefpAcc":3.81,"ecefvAcc":0.36,"velN":0.001,"velE":-0.010,"velD":0.001,"geoidSep":43.899,"eph":25.650,"sep":54.530}
{"class":"SKY","device":"/dev/ttyACM0","time":"2024-06-04T12:20:15.001Z","gdop":3.41,"hdop":1.35,"pdop":2.87,"tdop":1.84,"xdop":0.62,"ydop":0.99,"vdop":2.53,"uSat":8}
{"class":"SKY","device":"/dev/ttyACM0","time":"2024-06-04T12:20:15.001Z","gdop":3.41,"hdop":1.35,"pdop":2.87,"tdop":1.84,"xdop":0.62,"ydop":0.99,"vdop":2.54,"uSat":8}
{"class":"TPV","device":"/dev/ttyACM0","mode":3,"time":"2024-06-04T12:20:15.249Z","leapseconds":18,"ept":0.005,"lat":52.315897321,"lon":10.561703609,"altHAE":116.9045,"altMSL":73.0060,"alt":73.0060,"epx":9.280,"epy":14.902,"epv":58.190,"track":278.3939,"magtrack":281.6133,"magvar":3.2,"speed":0.010,"climb":-0.001,"eps":120.18,"epc":470.20,"ecefx":3841077.12,"ecefy":716181.09,"ecefz":5024459.90,"ecefvx":0.00,"ecefvy":-0.01,"ecefvz":0.00,"ecefpAcc":3.81,"ecefvAcc":0.36,"velN":0.001,"velE":-0.010,"velD":0.001,"geoidSep":43.899,"eph":25.650,"sep":54.530}
{"class":"SKY","device":"/dev/ttyACM0","time":"2024-06-04T12:20:15.249Z","gdop":3.41,"hdop":1.35,"pdop":2.87,"tdop":1.84,"xdop":0.62,"ydop":0.99,"vdop":2.54,"nSat":12,"uSat":7,"satellites":[{"PRN":2,"gnssid":0,"svid":2,"az":277.0,"el":41.0,"ss":38.0,"used":true,"health":1},{"PRN":22,"gnssid":0,"svid":22,"az":336.0,"el":5.0,"ss":0.0,"used":false,"health":1},{"PRN":32,"gnssid":0,"svid":32,"az":113.0,"el":32.0,"ss":46.0,"used":true,"health":1},{"PRN":16,"gnssid":0,"svid":16,"az":187.0,"el":1.0,"ss":0.0,"used":false,"health":1},{"PRN":14,"gnssid":0,"svid":14,"az":321.0,"el":17.0,"ss":35.0,"used":false,"health":1},{"PRN":33,"gnssid":1,"svid":120,"az":0.0,"el":-9.0,"ss":0.0,"used":false,"health":1},{"PRN":24,"gnssid":0,"svid":24,"az":36.0,"el":1.0,"ss":0.0,"used":false,"health":1},{"PRN":8,"gnssid":0,"svid":8,"az":203.0,"el":72.0,"ss":47.0,"used":true,"health":1},{"PRN":10,"gnssid":0,"svid":10,"az":63.0,"el":53.0,"ss":52.0,"used":true,"health":1},{"PRN":23,"gnssid":0,"svid":23,"az":50.0,"el":19.0,"ss":44.0,"used":true,"health":1},{"PRN":21,"gnssid":0,"svid":21,"az":280.0,"el":59.0,"ss":43.0,"used":true,"health":1},{"PRN":27,"gnssid":0,"svid":27,"az":152.0,"el":43.0,"ss":47.0,"used":true,"health":1}]}
{"class":"TPV","device":"/dev/ttyACM0","mode":3,"time":"2024-06-04T12:20:15.501Z","leapseconds":18,"ept":0.005,"lat":52.315897279,"lon":10.561703465,"altHAE":116.8955,"altMSL":72.9970,"alt":72.9970,"epx":9.280,"epy":14.902,"epv":58.420,"track":249.4653,"magtrack":252.6847,"magvar":3.2,"speed":0.009,"climb":-0.023,"eps":0.35,"epc":462.74,"ecefx":3841077.12,"ecefy":716181.08,"ecefz":5024459.89,"ecefvx":-0.01,"ecefvy":-0.01,"ecefvz":-0.02,"ecefpAcc":3.81,"ecefvAcc":0.35,"velN":-0.003,"velE":-0.008,"velD":0.023,"geoidSep":43.899,"eph":25.650,"sep":54.530}
{"class":"SKY","device":"/dev/ttyACM0","time":"2024-06-04T12:20:15.249Z","gdop":3.41,"hdop":1.35,"pdop":2.87,"tdop":1.84,"xdop":0.62,"ydop":0.99,"vdop":2.54,"uSat":8}
{"class":"SKY","device":"/dev/ttyACM0","time":"2024-06-04T12:20:15.249Z","gdop":3.41,"hdop":1.35,"pdop":2.87,"tdop":1.84,"xdop":0.62,"ydop":0.99,"vdop":2.53,"uSat":8}
{"class":"TPV","device":"/dev/ttyACM0","mode":3,"time":"2024-06-04T12:20:15.501Z","leapseconds":18,"ept":0.005,"lat":52.315897279,"lon":10.561703465,"altHAE":116.8955,"altMSL":72.9970,"alt":72.9970,"epx":9.280,"epy":14.902,"epv":58.420,"track":249.4653,"magtrack":252.6847,"magvar":3.2,"speed":0.009,"climb":-0.023,"eps":118.27,"epc":462.74,"ecefx":3841077.12,"ecefy":716181.08,"ecefz":5024459.89,"ecefvx":-0.01,"ecefvy":-0.01,"ecefvz":-0.02,"ecefpAcc":3.81,"ecefvAcc":0.35,"velN":-0.003,"velE":-0.008,"velD":0.023,"geoidSep":43.899,"eph":25.650,"sep":54.530}
{"class":"SKY","device":"/dev/ttyACM0","time":"2024-06-04T12:20:15.501Z","gdop":3.41,"hdop":1.35,"pdop":2.87,"tdop":1.84,"xdop":0.62,"ydop":0.99,"vdop":2.53,"nSat":12,"uSat":7,"satellites":[{"PRN":2,"gnssid":0,"svid":2,"az":277.0,"el":41.0,"ss":38.0,"used":true,"health":1},{"PRN":22,"gnssid":0,"svid":22,"az":336.0,"el":5.0,"ss":0.0,"used":false,"health":1},{"PRN":32,"gnssid":0,"svid":32,"az":113.0,"el":32.0,"ss":46.0,"used":true,"health":1},{"PRN":16,"gnssid":0,"svid":16,"az":187.0,"el":1.0,"ss":0.0,"used":false,"health":1},{"PRN":14,"gnssid":0,"svid":14,"az":321.0,"el":17.0,"ss":34.0,"used":false,"health":1},{"PRN":33,"gnssid":1,"svid":120,"az":0.0,"el":-9.0,"ss":0.0,"used":false,"health":1},{"PRN":24,"gnssid":0,"svid":24,"az":36.0,"el":1.0,"ss":0.0,"used":false,"health":1},{"PRN":8,"gnssid":0,"svid":8,"az":203.0,"el":72.0,"ss":47.0,"used":true,"health":1},{"PRN":10,"gnssid":0,"svid":10,"az":63.0,"el":53.0,"ss":52.0,"used":true,"health":1},{"PRN":23,"gnssid":0,"svid":23,"az":50.0,"el":19.0,"ss":44.0,"used":true,"health":1},{"PRN":21,"gnssid":0,"svid":21,"az":280.0,"el":59.0,"ss":43.0,"used":true,"health":1},{"PRN":27,"gnssid":0,"svid":27,"az":152.0,"el":43.0,"ss":47.0,"used":true,"health":1}]}
{"class":"TPV","device":"/dev/ttyACM0","mode":3,"time":"2024-06-04T12:20:15.749Z","leapseconds":18,"ept":0.005,"lat":52.315897112,"lon":10.561703294,"altHAE":116.8846,"altMSL":72.9860,"alt":72.9860,"epx":9.280,"epy":14.902,"epv":58.190,"track":244.6257,"magtrack":247.8452,"magvar":3.2,"speed":0.011,"climb":-0.009,"eps":0.36,"epc":470.20,"ecefx":3841077.13,"ecefy":716181.07,"ecefz":5024459.87,"ecefvx":0.00,"ecefvy":-0.01,"ecefvz":-0.01,"ecefpAcc":3.81,"ecefvAcc":0.36,"velN":-0.005,"velE":-0.010,"velD":0.009,"geoidSep":43.899,"eph":25.650,"sep":54.530}
{"class":"SKY","device":"/dev/ttyACM0","time":"2024-06-04T12:20:15.501Z","gdop":3.41,"hdop":1.35,"pdop":2.87,"tdop":1.84,"xdop":0.62,"ydop":0.99,"vdop":2.53,"uSat":8}
{"class":"SKY","device":"/dev/ttyACM0","time":"2024-06-04T12:20:15.501Z","gdop":3.41,"hdop":1.35,"pdop":2.87,"tdop":1.84,"xdop":0.62,"ydop":0.99,"vdop":2.54,"uSat":8}
{"class":"TPV","device":"/dev/ttyACM0","mode":3,"time":"2024-06-04T12:20:15.749Z","leapseconds":18,"ept":0.005,"lat":52.315897112,"lon":10.561703294,"altHAE":116.8846,"altMSL":72.9860,"alt":72.9860,"epx":9.280,"epy":14.902,"epv":58.190,"track":244.6257,"magtrack":247.8452,"magvar":3.2,"speed":0.011,"climb":-0.009,"eps":120.18,"epc":470.20,"ecefx":3841077.13,"ecefy":716181.07,"ecefz":5024459.87,"ecefvx":0.00,"ecefvy":-0.01,"ecefvz":-0.01,"ecefpAcc":3.81,"ecefvAcc":0.36,"velN":-0.005,"velE":-0.010,"velD":0.009,"geoidSep":43.899,"eph":25.650,"sep":54.530}
{"class":"SKY","device":"/dev/ttyACM0","time":"2024-06-04T12:20:15.749Z","gdop":3.41,"hdop":1.35,"pdop":2.87,"tdop":1.84,"xdop":0.62,"ydop":0.99,"vdop":2.54,"nSat":12,"uSat":7,"satellites":[{"PRN":2,"gnssid":0,"svid":2,"az":277.0,"el":41.0,"ss":38.0,"used":true,"health":1},{"PRN":22,"gnssid":0,"svid":22,"az":336.0,"el":5.0,"ss":0.0,"used":false,"health":1},{"PRN":32,"gnssid":0,"svid":32,"az":113.0,"el":32.0,"ss":46.0,"used":true,"health":1},{"PRN":16,"gnssid":0,"svid":16,"az":187.0,"el":1.0,"ss":0.0,"used":false,"health":1},{"PRN":14,"gnssid":0,"svid":14,"az":321.0,"el":17.0,"ss":34.0,"used":false,"health":1},{"PRN":33,"gnssid":1,"svid":120,"az":0.0,"el":-9.0,"ss":0.0,"used":false,"health":1},{"PRN":24,"gnssid":0,"svid":24,"az":36.0,"el":1.0,"ss":0.0,"used":false,"health":1},{"PRN":8,"gnssid":0,"svid":8,"az":203.0,"el":72.0,"ss":47.0,"used":true,"health":1},{"PRN":10,"gnssid":0,"svid":10,"az":63.0,"el":53.0,"ss":52.0,"used":true,"health":1},{"PRN":23,"gnssid":0,"svid":23,"az":50.0,"el":19.0,"ss":44.0,"used":true,"health":1},{"PRN":21,"gnssid":0,"svid":21,"az":280.0,"el":59.0,"ss":43.0,"used":true,"health":1},{"PRN":27,"gnssid":0,"svid":27,"az":152.0,"el":43.0,"ss":47.0,"used":true,"health":1}]}
{"class":"TPV","device":"/dev/ttyACM0","mode":3,"time":"2024-06-04T12:20:16.001Z","leapseconds":18,"ept":0.005,"lat":52.315897057,"lon":10.561703294,"altHAE":116.8767,"altMSL":72.9781,"alt":72.9781,"epx":9.280,"epy":14.902,"epv":58.420,"track":64.6257,"magtrack":67.8452,"magvar":3.2,"speed":0.011,"climb":0.009,"eps":0.35,"epc":462.74,"ecefx":3841077.13,"ecefy":716181.07,"ecefz":5024459.86,"ecefvx":0.00,"ecefvy":0.01,"ecefvz":0.01,"ecefpAcc":3.81,"ecefvAcc":0.35,"velN":0.005,"velE":0.010,"velD":-0.009,"geoidSep":43.899,"eph":25.650,"sep":54.530}
{"class":"SKY","device":"/dev/ttyACM0","time":"2024-06-04T12:20:15.749Z","gdop":3.41,"hdop":1.35,"pdop":2.87,"tdop":1.84,"xdop":0.62,"ydop":0.99,"vdop":2.54,"uSat":8}
{"class":"SKY","device":"/dev/ttyACM0","time":"2024-06-04T12:20:15.749Z","gdop":3.41,"hdop":1.35,"pdop":2.87,"tdop":1.84,"xdop":0.62,"ydop":0.99,"vdop":2.53,"uSat":8}
{"class":"TPV","device":"/dev/ttyACM0","mode":3,"time":"2024-06-04T12:20:16.001Z","leapseconds":18,"ept":0.005,"lat":52.315897057,"lon":10.561703294,"altHAE":116.8767,"altMSL":72.9781,"alt":72.9781,"epx":9.280,"epy":14.902,"epv":58.420,"track":64.6257,"magtrack":67.8452,"magvar":3.2,"speed":0.011,"climb":0.009,"eps":118.27,"epc":462.74,"ecefx":3841077.13,"ecefy":716181.07,"ecefz":5024459.86,"ecefvx":0.00,"ecefvy":0.01,"ecefvz":0.01,"ecefpAcc":3.81,"ecefvAcc":0.35,"velN":0.005,"velE":0.010,"velD":-0.009,"geoidSep":43.899,"eph":25.650,"sep":54.530}
{"class":"SKY","device":"/dev/ttyACM0","time":"2024-06-04T12:20:16.001Z","gdop":3.41,"hdop":1.35,"pdop":2.87,"tdop":1.84,"xdop":0.62,"ydop":0.99,"vdop":2.53,"nSat":12,"uSat":7,"satellites":[{"PRN":2,"gnssid":0,"svid":2,"az":277.0,"el":41.0,"ss":38.0,"used":true,"health":1},{"PRN":22,"gnssid":0,"svid":22,"az":336.0,"el":5.0,"ss":0.0,"used":false,"health":1},{"PRN":32,"gnssid":0,"svid":32,"az":113.0,"el":32.0,"ss":46.0,"used":true,"health":1},{"PRN":16,"gnssid":0,"svid":16,"az":187.0,"el":1.0,"ss":0.0,"used":false,"health":1},{"PRN":14,"gnssid":0,"svid":14,"az":321.0,"el":17.0,"ss":34.0,"used":false,"health":1},{"PRN":33,"gnssid":1,"svid":120,"az":0.0,"el":-9.0,"ss":0.0,"used":false,"health":1},{"PRN":24,"gnssid":0,"svid":24,"az":36.0,"el":1.0,"ss":0.0,"used":false,"health":1},{"PRN":8,"gnssid":0,"svid":8,"az":203.0,"el":72.0,"ss":47.0,"used":true,"health":1},{"PRN":10,"gnssid":0,"svid":10,"az":63.0,"el":53.0,"ss":52.0,"used":true,"health":1},{"PRN":23,"gnssid":0,"svid":23,"az":50.0,"el":19.0,"ss":44.0,"used":true,"health":1},{"PRN":21,"gnssid":0,"svid":21,"az":280.0,"el":59.0,"ss":43.0,"used":true,"health":1},{"PRN":27,"gnssid":0,"svid":27,"az":152.0,"el":43.0,"ss":47.0,"used":true,"health":1}]}
{"class":"TPV","device":"/dev/ttyACM0","mode":3,"time":"2024-06-04T12:20:16.249Z","leapseconds":18,"ept":0.005,"lat":52.315897057,"lon":10.561703294,"altHAE":116.8767,"altMSL":72.9781,"alt":72.9781,"epx":9.280,"epy":14.902,"epv":58.190,"track":180.0000,"magtrack":183.2194,"magvar":3.2,"speed":0.006,"climb":-0.008,"eps":0.36,"epc":470.20,"ecefx":3841077.13,"ecefy":716181.07,"ecefz":5024459.86,"ecefvx":0.00,"ecefvy":0.00,"ecefvz":-0.01,"ecefpAcc":3.81,"ecefvAcc":0.36,"velN":-0.006,"velE":0.000,"velD":0.008,"geoidSep":43.899,"eph":25.650,"sep":54.530}
{"class":"SKY","device":"/dev/ttyACM0","time":"2024-06-04T12:20:16.001Z","gdop":3.41,"hdop":1.35,"pdop":2.87,"tdop":1.84,"xdop":0.62,"ydop":0.99,"vdop":2.53,"uSat":8}
{"class":"SKY","device":"/dev/ttyACM0","time":"2024-06-04T12:20:16.001Z","gdop":3.41,"hdop":1.35,"pdop":2.87,"tdop":1.84,"xdop":0.62,"ydop":0.99,"vdop":2.54,"uSat":8}
{"class":"TPV","device":"/dev/ttyACM0","mode":3,"time":"2024-06-04T12:20:16.249Z","leapseconds":18,"ept":0.005,"lat":52.315897057,"lon":10.561703294,"altHAE":116.8767,"altMSL":72.9781,"alt":72.9781,"epx":9.280,"epy":14.902,"epv":58.190,"track":180.0000,"magtrack":183.2194,"magvar":3.2,"speed":0.006,"climb":-0.008,"eps":120.18,"epc":470.20,"ecefx":3841077.13,"ecefy":716181.07,"ecefz":5024459.86,"ecefvx":0.00,"ecefvy":0.00,"ecefvz":-0.01,"ecefpAcc":3.81,"ecefvAcc":0.36,"velN":-0.006,"velE":0.000,"velD":0.008,"geoidSep":43.899,"eph":25.650,"sep":54.530}
{"class":"SKY","device":"/dev/ttyACM0","time":"2024-06-04T12:20:16.249Z","gdop":3.41,"hdop":1.35,"pdop":2.87,"tdop":1.84,"xdop":0.62,"ydop":0.99,"vdop":2.54,"nSat":12,"uSat":7,"satellites":[{"PRN":2,"gnssid":0,"svid":2,"az":277.0,"el":41.0,"ss":38.0,"used":true,"health":1},{"PRN":22,"gnssid":0,"svid":22,"az":336.0,"el":5.0,"ss":0.0,"used":false,"health":1},{"PRN":32,"gnssid":0,"svid":32,"az":113.0,"el":32.0,"ss":46.0,"used":true,"health":1},{"PRN":16,"gnssid":0,"svid":16,"az":187.0,"el":1.0,"ss":0.0,"used":false,"health":1},{"PRN":14,"gnssid":0,"svid":14,"az":321.0,"el":17.0,"ss":35.0,"used":false,"health":1},{"PRN":33,"gnssid":1,"svid":120,"az":0.0,"el":-9.0,"ss":0.0,"used":false,"health":1},{"PRN":24,"gnssid":0,"svid":24,"az":36.0,"el":1.0,"ss":0.0,"used":false,"health":1},{"PRN":8,"gnssid":0,"svid":8,"az":203.0,"el":72.0,"ss":47.0,"used":true,"health":1},{"PRN":10,"gnssid":0,"svid":10,"az":63.0,"el":53.0,"ss":52.0,"used":true,"health":1},{"PRN":23,"gnssid":0,"svid":23,"az":50.0,"el":19.0,"ss":44.0,"used":true,"health":1},{"PRN":21,"gnssid":0,"svid":21,"az":280.0,"el":59.0,"ss":43.0,"used":true,"health":1},{"PRN":27,"gnssid":0,"svid":27,"az":152.0,"el":43.0,"ss":47.0,"used":true,"health":1}]}
{"class":"TPV","device":"/dev/ttyACM0","mode":3,"time":"2024-06-04T12:20:16.501Z","leapseconds":18,"ept":0.005,"lat":52.315896890,"lon":10.561703123,"altHAE":116.8657,"altMSL":72.9672,"alt":72.9672,"epx":9.280,"epy":14.902,"epv":58.420,"track":98.3939,"magtrack":101.6133,"magvar":3.2,"speed":0.010,"climb":0.001,"eps":0.35,"epc":462.74,"ecefx":3841077.14,"ecefy":716181.06,"ecefz":5024459.84,"ecefvx":0.00,"ecefvy":0.01,"ecefvz":0.00,"ecefpAcc":3.81,"ecefvAcc":0.35,"velN":-0.001,"velE":0.010,"velD":-0.001,"geoidSep":43.899,"eph":25.650,"sep":54.530}
{"class":"SKY","device":"/dev/ttyACM0","time":"2024-06-04T12:20:16.249Z","gdop":3.41,"hdop":1.35,"pdop":2.87,"tdop":1.84,"xdop":0.62,"ydop":0.99,"vdop":2.54,"uSat":8}
{"class":"SKY","device":"/dev/ttyACM0","time":"2024-06-04T12:20:16.249Z","gdop":3.41,"hdop":1.35,"pdop":2.87,"tdop":1.84,"xdop":0.62,"ydop":0.99,"vdop":2.54,"uSat":8}
{"class":"TPV","device":"/dev/ttyACM0","mode":3,"time":"2024-06-04T12:20:16.501Z","leapseconds":18,"ept":0.005,"lat":52.315896890,"lon":10.561703123,"altHAE":116.8657,"altMSL":72.9672,"alt":72.9672,"epx":9.280,"epy":14.902,"epv":58.420,"track":98.3939,"magtrack":101.6133,"magvar":3.2,"speed":0.010,"climb":0.001,"eps":118.27,"epc":462.74,"ecefx":3841077.14,"ecefy":716181.06,"ecefz":5024459.84,"ecefvx":0.00,"ecefvy":0.01,"ecefvz":0.00,"ecefpAcc":3.81,"ecefvAcc":0.35,"velN":-0.001,"velE":0.010,"velD":-0.001,"geoidSep":43.899,"eph":25.650,"sep":54.530}
{"class":"SKY","device":"/dev/ttyACM0","time":"2024-06-04T12:20:16.501Z","gdop":3.41,"hdop":1.35,"pdop":2.87,"tdop":1.84,"xdop":0.62,"ydop":0.99,"vdop":2.54,"nSat":12,"uSat":7,"satellites":[{"PRN":2,"gnssid":0,"svid":2,"az":277.0,"el":41.0,"ss":38.0,"used":true,"health":1},{"PRN":22,"gnssid":0,"svid":22,"az":336.0,"el":5.0,"ss":0.0,"used":false,"health":1},{"PRN":32,"gnssid":0,"svid":32,"az":113.0,"el":32.0,"ss":46.0,"used":true,"health":1},{"PRN":16,"gnssid":0,"svid":16,"az":187.0,"el":1.0,"ss":0.0,"used":false,"health":1},{"PRN":14,"gnssid":0,"svid":14,"az":321.0,"el":17.0,"ss":34.0,"used":false,"health":1},{"PRN":33,"gnssid":1,"svid":120,"az":0.0,"el":-9.0,"ss":0.0,"used":false,"health":1},{"PRN":24,"gnssid":0,"svid":24,"az":36.0,"el":1.0,"ss":0.0,"used":false,"health":1},{"PRN":8,"gnssid":0,"svid":8,"az":203.0,"el":72.0,"ss":47.0,"used":true,"health":1},{"PRN":10,"gnssid":0,"svid":10,"az":63.0,"el":53.0,"ss":52.0,"used":true,"health":1},{"PRN":23,"gnssid":0,"svid":23,"az":50.0,"el":19.0,"ss":44.0,"used":true,"health":1},{"PRN":21,"gnssid":0,"svid":21,"az":280.0,"el":59.0,"ss":43.0,"used":true,"health":1},{"PRN":27,"gnssid":0,"svid":27,"az":152.0,"el":43.0,"ss":47.0,"used":true,"health":1}]}
{"class":"TPV","device":"/dev/ttyACM0","mode":3,"time":"2024-06-04T12:20:16.749Z","leapseconds":18,"ept":0.005,"lat":52.315896781,"lon":10.561703123,"altHAE":116.8499,"altMSL":72.9513,"alt":72.9513,"epx":9.280,"epy":14.902,"epv":58.420,"track":111.2951,"magtrack":114.5145,"magvar":3.2,"speed":0.017,"climb":0.030,"eps":0.36,"epc":471.13,"ecefx":3841077.14,"ecefy":716181.06,"ecefz":5024459.82,"ecefvx":0.02,"ecefvy":0.02,"ecefvz":0.02,"ecefpAcc":3.81,"ecefvAcc":0.36,"velN":-0.006,"velE":0.016,"velD":-0.030,"geoidSep":43.899,"eph":25.650,"sep":54.530}
{"class":"SKY","device":"/dev/ttyACM0","time":"2024-06-04T12:20:16.501Z","gdop":3.41,"hdop":1.35,"pdop":2.87,"tdop":1.84,"xdop":0.62,"ydop":0.99,"vdop":2.54,"uSat":8}
{"class":"SKY","device":"/dev/ttyACM0","time":"2024-06-04T12:20:16.501Z","gdop":3.41,"hdop":1.35,"pdop":2.87,"tdop":1.84,"xdop":0.62,"ydop":0.99,"vdop":2.54,"uSat":8}
{"class":"TPV","device":"/dev/ttyACM0","mode":3,"time":"2024-06-04T12:20:16.749Z","leapseconds":18,"ept":0.005,"lat":52.315896781,"lon":10.561703123,"altHAE":116.8499,"altMSL":72.9513,"alt":72.9513,"epx":9.280,"epy":14.902,"epv":58.420,"track":111.2951,"magtrack":114.5145,"magvar":3.2,"speed":0.017,"climb":0.030,"eps":120.18,"epc":471.13,"ecefx":3841077.14,"ecefy":716181.06,"ecefz":5024459.82,"ecefvx":0.02,"ecefvy":0.02,"ecefvz":0.02,"ecefpAcc":3.81,"ecefvAcc":0.36,"velN":-0.006,"velE":0.016,"velD":-0.030,"geoidSep":43.899,"eph":25.650,"sep":54.530}
{"class":"SKY","device":"/dev/ttyACM0","time":"2024-06-04T12:20:16.749Z","gdop":3.41,"hdop":1.35,"pdop":2.87,"tdop":1.84,"xdop":0.62,"ydop":0.99,"vdop":2.54,"nSat":12,"uSat":7,"satellites":[{"PRN":2,"gnssid":0,"svid":2,"az":277.0,"el":41.0,"ss":38.0,"used":true,"health":1},{"PRN":22,"gnssid":0,"svid":22,"az":336.0,"el":5.0,"ss":0.0,"used":false,"health":1},{"PRN":32,"gnssid":0,"svid":32,"az":113.0,"el":32.0,"ss":46.0,"used":true,"health":1},{"PRN":16,"gnssid":0,"svid":16,"az":187.0,"el":1.0,"ss":0.0,"used":false,"health":1},{"PRN":14,"gnssid":0,"svid":14,"az":321.0,"el":17.0,"ss":34.0,"used":false,"health":1},{"PRN":33,"gnssid":1,"svid":120,"az":0.0,"el":-9.0,"ss":0.0,"used":false,"health":1},{"PRN":24,"gnssid":0,"svid":24,"az":36.0,"el":1.0,"ss":0.0,"used":false,"health":1},{"PRN":8,"gnssid":0,"svid":8,"az":203.0,"el":72.0,"ss":47.0,"used":true,"health":1},{"PRN":10,"gnssid":0,"svid":10,"az":63.0,"el":53.0,"ss":52.0,"used":true,"health":1},{"PRN":23,"gnssid":0,"svid":23,"az":50.0,"el":19.0,"ss":44.0,"used":true,"health":1},{"PRN":21,"gnssid":0,"svid":21,"az":280.0,"el":59.0,"ss":43.0,"used":true,"health":1},{"PRN":27,"gnssid":0,"svid":27,"az":152.0,"el":43.0,"ss":47.0,"used":true,"health":1}]}
{"class":"TPV","device":"/dev/ttyACM0","mode":3,"time":"2024-06-04T12:20:17.001Z","leapseconds":18,"ept":0.005,"lat":52.315896671,"lon":10.561703123,"altHAE":116.8341,"altMSL":72.9355,"alt":72.9355,"epx":9.280,"epy":14.902,"epv":58.420,"track":0.0000,"magtrack":3.2194,"magvar":3.2,"speed":0.012,"climb":0.016,"eps":0.35,"epc":463.65,"ecefx":3841077.14,"ecefy":716181.06,"ecefz":5024459.80,"ecefvx":0.00,"ecefvy":0.00,"ecefvz":0.02,"ecefpAcc":3.81,"ecefvAcc":0.35,"velN":0.012,"velE":0.000,"velD":-0.016,"geoidSep":43.899,"eph":25.650,"sep":54.530}
{"class":"SKY","device":"/dev/ttyACM0","time":"2024-06-04T12:20:16.749Z","gdop":3.41,"hdop":1.35,"pdop":2.87,"tdop":1.84,"xdop":0.62,"ydop":0.99,"vdop":2.54,"uSat":8}
{"class":"SKY","device":"/dev/ttyACM0","time":"2024-06-04T12:20:16.749Z","gdop":3.41,"hdop":1.35,"pdop":2.87,"tdop":1.84,"xdop":0.62,"ydop":0.99,"vdop":2.54,"uSat":8}
{"class":"TPV","device":"/dev/ttyACM0","mode":3,"time":"2024-06-04T12:20:17.001Z","leapseconds":18,"ept":0.005,"lat":52.315896671,"lon":10.561703123,"altHAE":116.8341,"altMSL":72.9355,"alt":72.9355,"epx":9.280,"epy":14.902,"epv":58.420,"track":0.0000,"magtrack":3.2194,"magvar":3.2,"speed":0.012,"climb":0.016,"eps":118.27,"epc":463.65,"ecefx":3841077.14,"ecefy":716181.06,"ecefz":5024459.80,"ecefvx":0.00,"ecefvy":0.00,"ecefvz":0.02,"ecefpAcc":3.81,"ecefvAcc":0.35,"velN":0.012,"velE":0.000,"velD":-0.016,"geoidSep":43.899,"eph":25.650,"sep":54.530}
{"class":"SKY","device":"/dev/ttyACM0","time":"2024-06-04T12:20:17.001Z","gdop":3.41,"hdop":1.35,"pdop":2.87,"tdop":1.84,"xdop":0.62,"ydop":0.99,"vdop":2.54,"nSat":12,"uSat":7,"satellites":[{"PRN":2,"gnssid":0,"svid":2,"az":277.0,"el":41.0,"ss":38.0,"used":true,"health":1},{"PRN":22,"gnssid":0,"svid":22,"az":336.0,"el":5.0,"ss":0.0,"used":false,"health":1},{"PRN":32,"gnssid":0,"svid":32,"az":113.0,"el":32.0,"ss":46.0,"used":true,"health":1},{"PRN":16,"gnssid":0,"svid":16,"az":187.0,"el":1.0,"ss":0.0,"used":false,"health":1},{"PRN":14,"gnssid":0,"svid":14,"az":321.0,"el":17.0,"ss":34.0,"used":false,"health":1},{"PRN":33,"gnssid":1,"svid":120,"az":0.0,"el":-9.0,"ss":0.0,"used":false,"health":1},{"PRN":24,"gnssid":0,"svid":24,"az":36.0,"el":1.0,"ss":0.0,"used":false,"health":1},{"PRN":8,"gnssid":0,"svid":8,"az":203.0,"el":72.0,"ss":47.0,"used":true,"health":1},{"PRN":10,"gnssid":0,"svid":10,"az":63.0,"el":53.0,"ss":52.0,"used":true,"health":1},{"PRN":23,"gnssid":0,"svid":23,"az":50.0,"el":19.0,"ss":44.0,"used":true,"health":1},{"PRN":21,"gnssid":0,"svid":21,"az":280.0,"el":59.0,"ss":44.0,"used":true,"health":1},{"PRN":27,"gnssid":0,"svid":27,"az":152.0,"el":43.0,"ss":47.0,"used":true,"health":1}]}
{"class":"TPV","device":"/dev/ttyACM0","mode":3,"time":"2024-06-04T12:20:17.249Z","leapseconds":18,"ept":0.005,"lat":52.315896561,"lon":10.561703123,"altHAE":116.8182,"altMSL":72.9197,"alt":72.9197,"epx":9.280,"epy":14.902,"epv":58.420,"track":313.2891,"magtrack":316.5086,"magvar":3.2,"speed":0.024,"climb":0.000,"eps":0.36,"epc":471.13,"ecefx":3841077.14,"ecefy":716181.06,"ecefz":5024459.78,"ecefvx":-0.01,"ecefvy":-0.02,"ecefvz":0.01,"ecefpAcc":3.81,"ecefvAcc":0.36,"velN":0.017,"velE":-0.018,"velD":0.000,"geoidSep":43.899,"eph":25.650,"sep":54.530}
{"class":"SKY","device":"/dev/ttyACM0","time":"2024-06-04T12:20:17.001Z","gdop":3.41,"hdop":1.35,"pdop":2.87,"tdop":1.84,"xdop":0.62,"ydop":0.99,"vdop":2.54,"uSat":8}
{"class":"SKY","device":"/dev/ttyACM0","time":"2024-06-04T12:20:17.001Z","gdop":3.41,"hdop":1.35,"pdop":2.87,"tdop":1.84,"xdop":0.62,"ydop":0.99,"vdop":2.54,"uSat":8}
{"class":"TPV","device":"/dev/ttyACM0","mode":3,"time":"2024-06-04T12:20:17.249Z","leapseconds":18,"ept":0.005,"lat":52.315896561,"lon":10.561703123,"altHAE":116.8182,"altMSL":72.9197,"alt":72.9197,"epx":9.280,"epy":14.902,"epv":58.420,"track":313.2891,"magtrack":316.5086,"magvar":3.2,"speed":0.024,"climb":0.000,"eps":120.18,"epc":471.13,"ecefx":3841077.14,"ecefy":716181.06,"ecefz":5024459.78,"ecefvx":-0.01,"ecefvy":-0.02,"ecefvz":0.01,"ecefpAcc":3.81,"ecefvAcc":0.36,"velN":0.017,"velE":-0.018,"velD":0.000,"geoidSep":43.899,"eph":25.650,"sep":54.530}
{"class":"SKY","device":"/dev/ttyACM0","time":"2024-06-04T12:20:17.249Z","gdop":3.41,"hdop":1.35,"pdop":2.87,"tdop":1.84,"xdop":0.62,"ydop":0.99,"vdop":2.54,"nSat":12,"uSat":7,"satellites":[{"PRN":2,"gnssid":0,"svid":2,"az":277.0,"el":41.0,"ss":38.0,"used":true,"health":1},{"PRN":22,"gnssid":0,"svid":22,"az":336.0,"el":5.0,"ss":0.0,"used":false,"health":1},{"PRN":32,"gnssid":0,"svid":32,"az":113.0,"el":32.0,"ss":46.0,"used":true,"health":1},{"PRN":16,"gnssid":0,"svid":16,"az":187.0,"el":1.0,"ss":0.0,"used":false,"health":1},{"PRN":14,"gnssid":0,"svid":14,"az":321.0,"el":17.0,"ss":34.0,"used":false,"health":1},{"PRN":33,"gnssid":1,"svid":120,"az":0.0,"el":-9.0,"ss":0.0,"used":false,"health":1},{"PRN":24,"gnssid":0,"svid":24,"az":36.0,"el":1.0,"ss":0.0,"used":false,"health":1},{"PRN":8,"gnssid":0,"svid":8,"az":203.0,"el":72.0,"ss":47.0,"used":true,"health":1},{"PRN":10,"gnssid":0,"svid":10,"az":63.0,"el":53.0,"ss":52.0,"used":true,"health":1},{"PRN":23,"gnssid":0,"svid":23,"az":50.0,"el":19.0,"ss":44.0,"used":true,"health":1},{"PRN":21,"gnssid":0,"svid":21,"az":280.0,"el":59.0,"ss":44.0,"used":true,"health":1},{"PRN":27,"gnssid":0,"svid":27,"az":152.0,"el":43.0,"ss":47.0,"used":true,"health":1}]}
{"class":"TPV","device":"/dev/ttyACM0","mode":3,"time":"2024-06-04T12:20:17.501Z","leapseconds":18,"ept":0.005,"lat":52.315896517,"lon":10.561702807,"altHAE":116.8220,"altMSL":72.9235,"alt":72.9235,"epx":9.280,"epy":14.902,"epv":58.420,"track":281.8456,"magtrack":285.0651,"magvar":3.2,"speed":0.100,"climb":-0.003,"eps":0.35,"epc":463.65,"ecefx":3841077.15,"ecefy":716181.04,"ecefz":5024459.78,"ecefvx":0.00,"ecefvy":-0.10,"ecefvz":0.01,"ecefpAcc":3.81,"ecefvAcc":0.35,"velN":0.021,"velE":-0.098,"velD":0.003,"geoidSep":43.899,"eph":25.650,"sep":54.530}
{"class":"SKY","device":"/dev/ttyACM0","time":"2024-06-04T12:20:17.249Z","gdop":3.41,"hdop":1.35,"pdop":2.87,"tdop":1.84,"xdop":0.62,"ydop":0.99,"vdop":2.54,"uSat":8}
{"class":"SKY","device":"/dev/ttyACM0","time":"2024-06-04T12:20:17.249Z","gdop":3.41,"hdop":1.35,"pdop":2.87,"tdop":1.84,"xdop":0.62,"ydop":0.99,"vdop":2.54,"uSat":8}
{"class":"TPV","device":"/dev/ttyACM0","mode":3,"time":"2024-06-04T12:20:17.501Z","leapseconds":18,"ept":0.005,"lat":52.315896517,"lon":10.561702807,"altHAE":116.8220,"altMSL":72.9235,"alt":72.9235,"epx":9.280,"epy":14.902,"epv":58.420,"track":281.8456,"magtrack":285.0651,"magvar":3.2,"speed":0.100,"climb":-0.003,"eps":118.27,"epc":463.65,"ecefx":3841077.15,"ecefy":716181.04,"ecefz":5024459.78,"ecefvx":0.00,"ecefvy":-0.10,"ecefvz":0.01,"ecefpAcc":3.81,"ecefvAcc":0.35,"velN":0.021,"velE":-0.098,"velD":0.003,"geoidSep":43.899,"eph":25.650,"sep":54.530}
{"class":"SKY","device":"/dev/ttyACM0","time":"2024-06-04T12:20:17.501Z","gdop":3.41,"hdop":1.35,"pdop":2.87,"tdop":1.84,"xdop":0.62,"ydop":0.99,"vdop":2.54,"nSat":12,"uSat":7,"satellites":[{"PRN":2,"gnssid":0,"svid":2,"az":277.0,"el":41.0,"ss":38.0,"used":true,"health":1},{"PRN":22,"gnssid":0,"svid":22,"az":336.0,"el":5.0,"ss":0.0,"used":false,"health":1},{"PRN":32,"gnssid":0,"svid":32,"az":113.0,"el":32.0,"ss":46.0,"used":true,"health":1},{"PRN":16,"gnssid":0,"svid":16,"az":187.0,"el":1.0,"ss":0.0,"used":false,"health":1},{"PRN":14,"gnssid":0,"svid":14,"az":321.0,"el":17.0,"ss":34.0,"used":false,"health":1},{"PRN":33,"gnssid":1,"svid":120,"az":0.0,"el":-9.0,"ss":0.0,"used":false,"health":1},{"PRN":24,"gnssid":0,"svid":24,"az":36.0,"el":1.0,"ss":0.0,"used":false,"health":1},{"PRN":8,"gnssid":0,"svid":8,"az":203.0,"el":72.0,"ss":47.0,"used":true,"health":1},{"PRN":10,"gnssid":0,"svid":10,"az":63.0,"el":53.0,"ss":52.0,"used":true,"health":1},{"PRN":23,"gnssid":0,"svid":23,"az":50.0,"el":19.0,"ss":44.0,"used":true,"health":1},{"PRN":21,"gnssid":0,"svid":21,"az":280.0,"el":59.0,"ss":43.0,"used":true,"health":1},{"PRN":27,"gnssid":0,"svid":27,"az":152.0,"el":43.0,"ss":47.0,"used":true,"health":1}]}
{"class":"TPV","device":"/dev/ttyACM0","mode":3,"time":"2024-06-04T12:20:17.749Z","leapseconds":18,"ept":0.005,"lat":52.315896445,"lon":10.561701969,"altHAE":116.7776,"altMSL":72.8791,"alt":72.8791,"epx":9.280,"epy":14.902,"epv":58.420,"track":279.2082,"magtrack":282.4277,"magvar":3.2,"speed":0.291,"climb":-0.011,"eps":0.36,"epc":471.13,"ecefx":3841077.14,"ecefy":716180.98,"ecefz":5024459.74,"ecefvx":0.01,"ecefvy":-0.29,"ecefvz":0.02,"ecefpAcc":3.81,"ecefvAcc":0.36,"velN":0.047,"velE":-0.287,"velD":0.011,"geoidSep":43.899,"eph":25.650,"sep":54.530}
{"class":"SKY","device":"/dev/ttyACM0","time":"2024-06-04T12:20:17.501Z","gdop":3.41,"hdop":1.35,"pdop":2.87,"tdop":1.84,"xdop":0.62,"ydop":0.99,"vdop":2.54,"uSat":8}
{"class":"SKY","device":"/dev/ttyACM0","time":"2024-06-04T12:20:17.501Z","gdop":3.41,"hdop":1.35,"pdop":2.87,"tdop":1.84,"xdop":0.62,"ydop":0.99,"vdop":2.54,"uSat":8}
{"class":"TPV","device":"/dev/ttyACM0","mode":3,"time":"2024-06-04T12:20:17.749Z","leapseconds":18,"ept":0.005,"lat":52.315896445,"lon":10.561701969,"altHAE":116.7776,"altMSL":72.8791,"alt":72.8791,"epx":9.280,"epy":14.902,"epv":58.420,"track":279.2082,"magtrack":282.4277,"magvar":3.2,"speed":0.291,"climb":-0.011,"eps":120.18,"epc":471.13,"ecefx":3841077.14,"ecefy":716180.98,"ecefz":5024459.74,"ecefvx":0.01,"ecefvy":-0.29,"ecefvz":0.02,"ecefpAcc":3.81,"ecefvAcc":0.36,"velN":0.047,"velE":-0.287,"velD":0.011,"geoidSep":43.899,"eph":25.650,"sep":54.530}
{"class":"SKY","device":"/dev/ttyACM0","time":"2024-06-04T12:20:17.749Z","gdop":3.41,"hdop":1.35,"pdop":2.87,"tdop":1.84,"xdop":0.62,"ydop":0.99,"vdop":2.54,"nSat":12,"uSat":7,"satellites":[{"PRN":2,"gnssid":0,"svid":2,"az":277.0,"el":41.0,"ss":37.0,"used":true,"health":1},{"PRN":22,"gnssid":0,"svid":22,"az":336.0,"el":5.0,"ss":0.0,"used":false,"health":1},{"PRN":32,"gnssid":0,"svid":32,"az":113.0,"el":32.0,"ss":48.0,"used":true,"health":1},{"PRN":16,"gnssid":0,"svid":16,"az":187.0,"el":1.0,"ss":0.0,"used":false,"health":1},{"PRN":14,"gnssid":0,"svid":14,"az":321.0,"el":17.0,"ss":35.0,"used":false,"health":1},{"PRN":37,"gnssid":1,"svid":124,"az":0.0,"el":-9.0,"ss":0.0,"used":false,"health":1},{"PRN":24,"gnssid":0,"svid":24,"az":36.0,"el":1.0,"ss":0.0,"used":false,"health":1},{"PRN":8,"gnssid":0,"svid":8,"az":203.0,"el":72.0,"ss":47.0,"used":true,"health":1},{"PRN":10,"gnssid":0,"svid":10,"az":63.0,"el":53.0,"ss":52.0,"used":true,"health":1},{"PRN":23,"gnssid":0,"svid":23,"az":50.0,"el":19.0,"ss":43.0,"used":true,"health":1},{"PRN":21,"gnssid":0,"svid":21,"az":280.0,"el":59.0,"ss":44.0,"used":true,"health":1},{"PRN":27,"gnssid":0,"svid":27,"az":152.0,"el":43.0,"ss":46.0,"used":true,"health":1}]}
{"class":"TPV","device":"/dev/ttyACM0","mode":3,"time":"2024-06-04T12:20:18.001Z","leapseconds":18,"ept":0.005,"lat":52.315896466,"lon":10.561700528,"altHAE":116.7506,"altMSL":72.8520,"alt":72.8520,"epx":9.280,"epy":14.902,"epv":58.420,"track":277.1616,"magtrack":280.3811,"magvar":3.2,"speed":0.459,"climb":-0.032,"eps":0.35,"epc":463.65,"ecefx":3841077.14,"ecefy":716180.88,"ecefz":5024459.72,"ecefvx":0.02,"ecefvy":-0.46,"ecefvz":0.01,"ecefpAcc":3.81,"ecefvAcc":0.35,"velN":0.057,"velE":-0.456,"velD":0.032,"geoidSep":43.899,"eph":25.650,"sep":54.530}
{"class":"SKY","device":"/dev/ttyACM0","time":"2024-06-04T12:20:17.749Z","gdop":3.41,"hdop":1.35,"pdop":2.87,"tdop":1.84,"xdop":0.62,"ydop":0.99,"vdop":2.54,"uSat":8}
{"class":"SKY","device":"/dev/ttyACM0","time":"2024-06-04T12:20:17.749Z","gdop":3.41,"hdop":1.35,"pdop":2.87,"tdop":1.84,"xdop":0.62,"ydop":0.99,"vdop":2.54,"uSat":8}
{"class":"TPV","device":"/dev/ttyACM0","mode":3,"time":"2024-06-04T12:20:18.001Z","leapseconds":18,"ept":0.005,"lat":52.315896466,"lon":10.561700528,"altHAE":116.7506,"altMSL":72.8520,"alt":72.8520,"epx":9.280,"epy":14.902,"epv":58.420,"track":277.1616,"magtrack":280.3811,"magvar":3.2,"speed":0.459,"climb":-0.032,"eps":118.27,"epc":463.65,"ecefx":3841077.14,"ecefy":716180.88,"ecefz":5024459.72,"ecefvx":0.02,"ecefvy":-0.46,"ecefvz":0.01,"ecefpAcc":3.81,"ecefvAcc":0.35,"velN":0.057,"velE":-0.456,"velD":0.032,"geoidSep":43.899,"eph":25.650,"sep":54.530}
{"class":"SKY","device":"/dev/ttyACM0","time":"2024-06-04T12:20:18.001Z","gdop":3.41,"hdop":1.35,"pdop":2.87,"tdop":1.84,"xdop":0.62,"ydop":0.99,"vdop":2.54,"nSat":12,"uSat":7,"satellites":[{"PRN":2,"gnssid":0,"svid":2,"az":277.0,"el":41.0,"ss":38.0,"used":true,"health":1},{"PRN":22,"gnssid":0,"svid":22,"az":336.0,"el":5.0,"ss":0.0,"used":false,"health":1},{"PRN":32,"gnssid":0,"svid":32,"az":113.0,"el":32.0,"ss":49.0,"used":true,"health":1},{"PRN":16,"gnssid":0,"svid":16,"az":187.0,"el":1.0,"ss":0.0,"used":false,"health":1},{"PRN":14,"gnssid":0,"svid":14,"az":321.0,"el":17.0,"ss":33.0,"used":false,"health":1},{"PRN":37,"gnssid":1,"svid":124,"az":0.0,"el":-9.0,"ss":0.0,"used":false,"health":1},{"PRN":24,"gnssid":0,"svid":24,"az":36.0,"el":1.0,"ss":0.0,"used":false,"health":1},{"PRN":8,"gnssid":0,"svid":8,"az":203.0,"el":72.0,"ss":47.0,"used":true,"health":1},{"PRN":10,"gnssid":0,"svid":10,"az":63.0,"el":53.0,"ss":51.0,"used":true,"health":1},{"PRN":23,"gnssid":0,"svid":23,"az":50.0,"el":19.0,"ss":43.0,"used":true,"health":1},{"PRN":21,"gnssid":0,"svid":21,"az":280.0,"el":59.0,"ss":44.0,"used":true,"health":1},{"PRN":27,"gnssid":0,"svid":27,"az":152.0,"el":43.0,"ss":46.0,"used":true,"health":1}]}
{"class":"TPV","device":"/dev/ttyACM0","mode":3,"time":"2024-06-04T12:20:18.249Z","leapseconds":18,"ept":0.005,"lat":52.315896522,"lon":10.561698717,"altHAE":116.7710,"altMSL":72.8724,"alt":72.8724,"epx":9.280,"epy":14.902,"epv":58.420,"track":271.7381,"magtrack":274.9575,"magvar":3.2,"speed":0.687,"climb":-0.016,"eps":0.36,"epc":471.13,"ecefx":3841077.17,"ecefy":716180.76,"ecefz":5024459.74,"ecefvx":0.10,"ecefvy":-0.68,"ecefvz":0.00,"ecefpAcc":3.80,"ecefvAcc":0.36,"velN":0.021,"velE":-0.687,"velD":0.016,"geoidSep":43.899,"eph":25.650,"sep":54.530}
{"class":"SKY","device":"/dev/ttyACM0","time":"2024-06-04T12:20:18.001Z","gdop":3.41,"hdop":1.35,"pdop":2.87,"tdop":1.84,"xdop":0.62,"ydop":0.99,"vdop":2.54,"uSat":8}
{"class":"SKY","device":"/dev/ttyACM0","time":"2024-06-04T12:20:18.001Z","gdop":3.41,"hdop":1.35,"pdop":2.87,"tdop":1.84,"xdop":0.62,"ydop":0.99,"vdop":2.54,"uSat":8}
{"class":"TPV","device":"/dev/ttyACM0","mode":3,"time":"2024-06-04T12:20:18.249Z","leapseconds":18,"ept":0.005,"lat":52.315896522,"lon":10.561698717,"altHAE":116.7710,"altMSL":72.8724,"alt":72.8724,"epx":9.280,"epy":14.902,"epv":58.420,"track":271.7381,"magtrack":274.9575,"magvar":3.2,"speed":0.687,"climb":-0.016,"eps":120.18,"epc":471.13,"ecefx":3841077.17,"ecefy":716180.76,"ecefz":5024459.74,"ecefvx":0.10,"ecefvy":-0.68,"ecefvz":0.00,"ecefpAcc":3.80,"ecefvAcc":0.36,"velN":0.021,"velE":-0.687,"velD":0.016,"geoidSep":43.899,"eph":25.650,"sep":54.530}
{"class":"SKY","device":"/dev/ttyACM0","time":"2024-06-04T12:20:18.249Z","gdop":3.41,"hdop":1.35,"pdop":2.87,"tdop":1.84,"xdop":0.62,"ydop":0.99,"vdop":2.54,"nSat":12,"uSat":7,"satellites":[{"PRN":2,"gnssid":0,"svid":2,"az":277.0,"el":41.0,"ss":41.0,"used":true,"health":1},{"PRN":22,"gnssid":0,"svid":22,"az":336.0,"el":5.0,"ss":0.0,"used":false,"health":1},{"PRN":32,"gnssid":0,"svid":32,"az":113.0,"el":32.0,"ss":48.0,"used":true,"health":1},{"PRN":16,"gnssid":0,"svid":16,"az":187.0,"el":1.0,"ss":0.0,"used":false,"health":1},{"PRN":14,"gnssid":0,"svid":14,"az":321.0,"el":17.0,"ss":35.0,"used":false,"health":1},{"PRN":37,"gnssid":1,"svid":124,"az":0.0,"el":-9.0,"ss":0.0,"used":false,"health":1},{"PRN":24,"gnssid":0,"svid":24,"az":36.0,"el":1.0,"ss":0.0,"used":false,"health":1},{"PRN":8,"gnssid":0,"svid":8,"az":203.0,"el":72.0,"ss":47.0,"used":true,"health":1},{"PRN":10,"gnssid":0,"svid":10,"az":63.0,"el":53.0,"ss":51.0,"used":true,"health":1},{"PRN":23,"gnssid":0,"svid":23,"az":50.0,"el":19.0,"ss":43.0,"used":true,"health":1},{"PRN":21,"gnssid":0,"svid":21,"az":280.0,"el":59.0,"ss":44.0,"used":true,"health":1},{"PRN":27,"gnssid":0,"svid":27,"az":152.0,"el":43.0,"ss":46.0,"used":true,"health":1}]}
{"class":"TPV","device":"/dev/ttyACM0","mode":3,"time":"2024-06-04T12:20:18.501Z","leapseconds":18,"ept":0.005,"lat":52.315896645,"lon":10.561695952,"altHAE":116.7478,"altMSL":72.8492,"alt":72.8492,"epx":9.280,"epy":14.902,"epv":58.420,"track":278.5644,"magtrack":281.7838,"magvar":3.2,"speed":0.844,"climb":-0.009,"eps":0.35,"epc":463.65,"ecefx":3841077.18,"ecefy":716180.57,"ecefz":5024459.73,"ecefvx":0.05,"ecefvy":-0.84,"ecefvz":0.07,"ecefpAcc":3.80,"ecefvAcc":0.35,"velN":0.126,"velE":-0.835,"velD":0.009,"geoidSep":43.899,"eph":25.650,"sep":54.530}
{"class":"SKY","device":"/dev/ttyACM0","time":"2024-06-04T12:20:18.249Z","gdop":3.41,"hdop":1.35,"pdop":2.87,"tdop":1.84,"xdop":0.62,"ydop":0.99,"vdop":2.54,"uSat":8}
{"class":"SKY","device":"/dev/ttyACM0","time":"2024-06-04T12:20:18.249Z","gdop":3.41,"hdop":1.35,"pdop":2.87,"tdop":1.84,"xdop":0.62,"ydop":0.99,"vdop":2.54,"uSat":8}
{"class":"TPV","device":"/dev/ttyACM0","mode":3,"time":"2024-06-04T12:20:18.501Z","leapseconds":18,"ept":0.005,"lat":52.315896645,"lon":10.561695952,"altHAE":116.7478,"altMSL":72.8492,"alt":72.8492,"epx":9.280,"epy":14.902,"epv":58.420,"track":278.5644,"magtrack":281.7838,"magvar":3.2,"speed":0.844,"climb":-0.009,"eps":118.27,"epc":463.65,"ecefx":3841077.18,"ecefy":716180.57,"ecefz":5024459.73,"ecefvx":0.05,"ecefvy":-0.84,"ecefvz":0.07,"ecefpAcc":3.80,"ecefvAcc":0.35,"velN":0.126,"velE":-0.835,"velD":0.009,"geoidSep":43.899,"eph":25.650,"sep":54.530}
{"class":"SKY","device":"/dev/ttyACM0","time":"2024-06-04T12:20:18.501Z","gdop":3.41,"hdop":1.35,"pdop":2.87,"tdop":1.84,"xdop":0.62,"ydop":0.99,"vdop":2.54,"nSat":12,"uSat":7,"satellites":[{"PRN":2,"gnssid":0,"svid":2,"az":277.0,"el":41.0,"ss":41.0,"used":true,"health":1},{"PRN":22,"gnssid":0,"svid":22,"az":336.0,"el":5.0,"ss":0.0,"used":false,"health":1},{"PRN":32,"gnssid":0,"svid":32,"az":113.0,"el":32.0,"ss":48.0,"used":true,"health":1},{"PRN":16,"gnssid":0,"svid":16,"az":187.0,"el":1.0,"ss":0.0,"used":false,"health":1},{"PRN":14,"gnssid":0,"svid":14,"az":321.0,"el":17.0,"ss":34.0,"used":false,"health":1},{"PRN":37,"gnssid":1,"svid":124,"az":0.0,"el":-9.0,"ss":0.0,"used":false,"health":1},{"PRN":24,"gnssid":0,"svid":24,"az":36.0,"el":1.0,"ss":0.0,"used":false,"health":1},{"PRN":8,"gnssid":0,"svid":8,"az":203.0,"el":72.0,"ss":47.0,"used":true,"health":1},{"PRN":10,"gnssid":0,"svid":10,"az":63.0,"el":53.0,"ss":51.0,"used":true,"health":1},{"PRN":23,"gnssid":0,"svid":23,"az":50.0,"el":19.0,"ss":45.0,"used":true,"health":1},{"PRN":21,"gnssid":0,"svid":21,"az":280.0,"el":59.0,"ss":44.0,"used":true,"health":1},{"PRN":27,"gnssid":0,"svid":27,"az":152.0,"el":43.0,"ss":46.0,"used":true,"health":1}]}
{"class":"TPV","device":"/dev/ttyACM0","mode":3,"time":"2024-06-04T12:20:18.749Z","leapseconds":18,"ept":0.005,"lat":52.315896958,"lon":10.561692492,"altHAE":116.7209,"altMSL":72.8223,"alt":72.8223,"epx":9.280,"epy":14.902,"epv":58.420,"track":275.8175,"magtrack":279.0370,"magvar":3.2,"speed":1.050,"climb":0.019,"eps":0.38,"epc":471.13,"ecefx":3841077.18,"ecefy":716180.33,"ecefz":5024459.73,"ecefvx":0.12,"ecefvy":-1.04,"ecefvz":0.08,"ecefpAcc":3.80,"ecefvAcc":0.38,"velN":0.106,"velE":-1.044,"velD":-0.019,"geoidSep":43.899,"eph":25.650,"sep":70.680}
{"class":"SKY","device":"/dev/ttyACM0","time":"2024-06-04T12:20:18.501Z","gdop":3.41,"hdop":1.35,"pdop":3.72,"tdop":1.84,"xdop":0.62,"ydop":0.99,"vdop":2.54,"uSat":8}
{"class":"SKY","device":"/dev/ttyACM0","time":"2024-06-04T12:20:18.501Z","gdop":4.54,"hdop":1.77,"pdop":3.72,"tdop":2.60,"xdop":0.62,"ydop":0.99,"vdop":3.27,"uSat":8}
{"class":"TPV","device":"/dev/ttyACM0","mode":3,"time":"2024-06-04T12:20:18.749Z","leapseconds":18,"ept":0.005,"lat":52.315896958,"lon":10.561692492,"altHAE":116.7209,"altMSL":72.8223,"alt":72.8223,"epx":9.280,"epy":14.902,"epv":58.420,"track":275.8175,"magtrack":279.0370,"magvar":3.2,"speed":1.050,"climb":0.019,"eps":120.18,"epc":471.13,"ecefx":3841077.18,"ecefy":716180.33,"ecefz":5024459.73,"ecefvx":0.12,"ecefvy":-1.04,"ecefvz":0.08,"ecefpAcc":3.80,"ecefvAcc":0.38,"velN":0.106,"velE":-1.044,"velD":-0.019,"geoidSep":43.899,"eph":25.650,"sep":70.680}
{"class":"SKY","device":"/dev/ttyACM0","time":"2024-06-04T12:20:18.749Z","gdop":4.54,"hdop":1.77,"pdop":3.72,"tdop":2.60,"xdop":0.62,"ydop":0.99,"vdop":3.27,"nSat":12,"uSat":6,"satellites":[{"PRN":2,"gnssid":0,"svid":2,"az":277.0,"el":41.0,"ss":36.0,"used":false,"health":1},{"PRN":22,"gnssid":0,"svid":22,"az":336.0,"el":5.0,"ss":0.0,"used":false,"health":1},{"PRN":32,"gnssid":0,"svid":32,"az":113.0,"el":32.0,"ss":48.0,"used":true,"health":1},{"PRN":16,"gnssid":0,"svid":16,"az":187.0,"el":1.0,"ss":0.0,"used":false,"health":1},{"PRN":14,"gnssid":0,"svid":14,"az":321.0,"el":17.0,"ss":33.0,"used":false,"health":1},{"PRN":37,"gnssid":1,"svid":124,"az":0.0,"el":-9.0,"ss":0.0,"used":false,"health":1},{"PRN":24,"gnssid":0,"svid":24,"az":36.0,"el":1.0,"ss":0.0,"used":false,"health":1},{"PRN":8,"gnssid":0,"svid":8,"az":203.0,"el":72.0,"ss":47.0,"used":true,"health":1},{"PRN":10,"gnssid":0,"svid":10,"az":63.0,"el":53.0,"ss":51.0,"used":true,"health":1},{"PRN":23,"gnssid":0,"svid":23,"az":50.0,"el":19.0,"ss":44.0,"used":true,"health":1},{"PRN":21,"gnssid":0,"svid":21,"az":280.0,"el":59.0,"ss":43.0,"used":true,"health":1},{"PRN":27,"gnssid":0,"svid":27,"az":152.0,"el":43.0,"ss":46.0,"used":true,"health":1}]}
{"class":"TPV","device":"/dev/ttyACM0","mode":3,"time":"2024-06-04T12:20:19.001Z","leapseconds":18,"ept":0.005,"lat":52.315897336,"lon":10.561688311,"altHAE":116.6884,"altMSL":72.7898,"alt":72.7898,"epx":9.280,"epy":14.902,"epv":75.210,"track":277.8489,"magtrack":281.0684,"magvar":3.2,"speed":1.178,"climb":0.002,"eps":0.38,"epc":530.28,"ecefx":3841077.18,"ecefy":716180.04,"ecefz":5024459.73,"ecefvx":0.09,"ecefvy":-1.17,"ecefvz":0.10,"ecefpAcc":3.81,"ecefvAcc":0.38,"velN":0.161,"velE":-1.167,"velD":-0.002,"geoidSep":43.899,"eph":33.630,"sep":70.680}
{"class":"SKY","device":"/dev/ttyACM0","time":"2024-06-04T12:20:18.749Z","gdop":4.54,"hdop":1.77,"pdop":3.72,"tdop":2.60,"xdop":0.62,"ydop":0.99,"vdop":3.27,"uSat":8}
{"class":"SKY","device":"/dev/ttyACM0","time":"2024-06-04T12:20:18.749Z","gdop":4.54,"hdop":1.77,"pdop":3.72,"tdop":2.60,"xdop":0.62,"ydop":0.99,"vdop":3.27,"uSat":8}
{"class":"TPV","device":"/dev/ttyACM0","mode":3,"time":"2024-06-04T12:20:19.001Z","leapseconds":18,"ept":0.005,"lat":52.315897336,"lon":10.561688311,"altHAE":116.6884,"altMSL":72.7898,"alt":72.7898,"epx":9.280,"epy":14.902,"epv":75.210,"track":277.8489,"magtrack":281.0684,"magvar":3.2,"speed":1.178,"climb":0.002,"eps":118.27,"epc":530.28,"ecefx":3841077.18,"ecefy":716180.04,"ecefz":5024459.73,"ecefvx":0.09,"ecefvy":-1.17,"ecefvz":0.10,"ecefpAcc":3.81,"ecefvAcc":0.38,"velN":0.161,"velE":-1.167,"velD":-0.002,"geoidSep":43.899,"eph":33.630,"sep":70.680}
{"class":"SKY","device":"/dev/ttyACM0","time":"2024-06-04T12:20:19.001Z","gdop":4.54,"hdop":1.77,"pdop":3.72,"tdop":2.60,"xdop":0.62,"ydop":0.99,"vdop":3.27,"nSat":12,"uSat":6,"satellites":[{"PRN":2,"gnssid":0,"svid":2,"az":277.0,"el":41.0,"ss":33.0,"used":false,"health":1},{"PRN":22,"gnssid":0,"svid":22,"az":336.0,"el":5.0,"ss":0.0,"used":false,"health":1},{"PRN":32,"gnssid":0,"svid":32,"az":113.0,"el":32.0,"ss":48.0,"used":true,"health":1},{"PRN":16,"gnssid":0,"svid":16,"az":187.0,"el":1.0,"ss":0.0,"used":false,"health":1},{"PRN":14,"gnssid":0,"svid":14,"az":321.0,"el":17.0,"ss":33.0,"used":false,"health":1},{"PRN":37,"gnssid":1,"svid":124,"az":0.0,"el":-9.0,"ss":0.0,"used":false,"health":1},{"PRN":24,"gnssid":0,"svid":24,"az":36.0,"el":1.0,"ss":0.0,"used":false,"health":1},{"PRN":8,"gnssid":0,"svid":8,"az":203.0,"el":72.0,"ss":47.0,"used":true,"health":1},{"PRN":10,"gnssid":0,"svid":10,"az":63.0,"el":53.0,"ss":51.0,"used":true,"health":1},{"PRN":23,"gnssid":0,"svid":23,"az":50.0,"el":19.0,"ss":44.0,"used":true,"health":1},{"PRN":21,"gnssid":0,"svid":21,"az":280.0,"el":59.0,"ss":42.0,"used":true,"health":1},{"PRN":27,"gnssid":0,"svid":27,"az":152.0,"el":43.0,"ss":47.0,"used":true,"health":1}]}
{"class":"TPV","device":"/dev/ttyACM0","mode":3,"time":"2024-06-04T12:20:19.249Z","leapseconds":18,"ept":0.005,"lat":52.315897615,"lon":10.561683816,"altHAE":116.6518,"altMSL":72.7532,"alt":72.7532,"epx":9.280,"epy":14.902,"epv":75.210,"track":275.8324,"magtrack":279.0518,"magvar":3.2,"speed":1.326,"climb":-0.028,"eps":0.39,"epc":606.53,"ecefx":3841077.19,"ecefy":716179.73,"ecefz":5024459.72,"ecefvx":0.12,"ecefvy":-1.32,"ecefvz":0.06,"ecefpAcc":3.81,"ecefvAcc":0.39,"velN":0.135,"velE":-1.320,"velD":0.028,"geoidSep":43.899,"eph":33.630,"sep":54.530}
{"class":"SKY","device":"/dev/ttyACM0","time":"2024-06-04T12:20:19.001Z","gdop":4.54,"hdop":1.77,"pdop":2.87,"tdop":2.60,"xdop":0.62,"ydop":0.99,"vdop":3.27,"uSat":8}
{"class":"SKY","device":"/dev/ttyACM0","time":"2024-06-04T12:20:19.001Z","gdop":3.41,"hdop":1.35,"pdop":2.87,"tdop":1.84,"xdop":0.62,"ydop":0.99,"vdop":2.54,"uSat":8}
{"class":"TPV","device":"/dev/ttyACM0","mode":3,"time":"2024-06-04T12:20:19.249Z","leapseconds":18,"ept":0.005,"lat":52.315897615,"lon":10.561683816,"altHAE":116.6518,"altMSL":72.7532,"alt":72.7532,"epx":9.280,"epy":14.902,"epv":75.210,"track":275.8324,"magtrack":279.0518,"magvar":3.2,"speed":1.326,"climb":-0.028,"eps":120.18,"epc":606.53,"ecefx":3841077.19,"ecefy":716179.73,"ecefz":5024459.72,"ecefvx":0.12,"ecefvy":-1.32,"ecefvz":0.06,"ecefpAcc":3.81,"ecefvAcc":0.39,"velN":0.135,"velE":-1.320,"velD":0.028,"geoidSep":43.899,"eph":33.630,"sep":54.530}
{"class":"SKY","device":"/dev/ttyACM0","time":"2024-06-04T12:20:19.249Z","gdop":3.41,"hdop":1.35,"pdop":2.87,"tdop":1.84,"xdop":0.62,"ydop":0.99,"vdop":2.54,"nSat":12,"uSat":7,"satellites":[{"PRN":2,"gnssid":0,"svid":2,"az":277.0,"el":41.0,"ss":38.0,"used":true,"health":1},{"PRN":22,"gnssid":0,"svid":22,"az":336.0,"el":5.0,"ss":0.0,"used":false,"health":1},{"PRN":32,"gnssid":0,"svid":32,"az":113.0,"el":32.0,"ss":48.0,"used":true,"health":1},{"PRN":16,"gnssid":0,"svid":16,"az":187.0,"el":1.0,"ss":0.0,"used":false,"health":1},{"PRN":14,"gnssid":0,"svid":14,"az":321.0,"el":17.0,"ss":31.0,"used":false,"health":1},{"PRN":37,"gnssid":1,"svid":124,"az":0.0,"el":-9.0,"ss":0.0,"used":false,"health":1},{"PRN":24,"gnssid":0,"svid":24,"az":36.0,"el":1.0,"ss":0.0,"used":false,"health":1},{"PRN":8,"gnssid":0,"svid":8,"az":203.0,"el":72.0,"ss":47.0,"used":true,"health":1},{"PRN":10,"gnssid":0,"svid":10,"az":63.0,"el":53.0,"ss":52.0,"used":true,"health":1},{"PRN":23,"gnssid":0,"svid":23,"az":50.0,"el":19.0,"ss":45.0,"used":true,"health":1},{"PRN":21,"gnssid":0,"svid":21,"az":280.0,"el":59.0,"ss":41.0,"used":true,"health":1},{"PRN":27,"gnssid":0,"svid":27,"az":152.0,"el":43.0,"ss":47.0,"used":true,"health":1}]}
{"class":"TPV","device":"/dev/ttyACM0","mode":3,"time":"2024-06-04T12:20:19.501Z","leapseconds":18,"ept":0.005,"lat":52.315897961,"lon":10.561679005,"altHAE":116.6347,"altMSL":72.7362,"alt":72.7362,"epx":9.280,"epy":14.902,"epv":58.420,"track":274.7365,"magtrack":277.9560,"magvar":3.2,"speed":1.399,"climb":-0.026,"eps":0.39,"epc":530.28,"ecefx":3841077.21,"ecefy":716179.40,"ecefz":5024459.73,"ecefvx":0.15,"ecefvy":-1.39,"ecefvz":0.05,"ecefpAcc":3.81,"ecefvAcc":0.39,"velN":0.115,"velE":-1.394,"velD":0.026,"geoidSep":43.899,"eph":25.650,"sep":54.530}
{"class":"SKY","device":"/dev/ttyACM0","time":"2024-06-04T12:20:19.249Z","gdop":3.41,"hdop":1.35,"pdop":2.87,"tdop":1.84,"xdop":0.62,"ydop":0.99,"vdop":2.54,"uSat":8}
