{"class":"VERSION","release":"3.25","rev":"3.25","proto_major":3,"proto_minor":15}
{"class":"DEVICES","devices":[{"class":"DEVICE","path":"/dev/ttyACM0","driver":"u-blox","subtype":"SW 5.00    May 11 2006 14:40:17,HW 00040001","subtype1":"M4T1.2  May 11 2006 14:40:17","activated":"2024-07-09T11:36:25.137Z","flags":1,"native":1,"bps":57600,"parity":"N","stopbits":1,"cycle":1.00,"mincycle":0.02}]}
{"class":"WATCH","enable":true,"json":true,"nmea":false,"raw":0,"scaled":false,"timing":false,"split24":false,"pps":false}
{"class":"SKY","device":"/dev/ttyACM0","time":"2024-07-09T11:34:37.748Z","gdop":2.35,"hdop":1.11,"pdop":2.03,"tdop":1.19,"xdop":1.00,"ydop":2.54,"vdop":1.69,"uSat":6}
{"class":"TPV","device":"/dev/ttyACM0","mode":3,"time":"2024-07-09T11:34:38.000Z","leapseconds":18,"ept":0.005,"lat":52.315808464,"lon":10.563516939,"altHAE":135.1185,"altMSL":91.2215,"alt":91.2215,"epx":14.966,"epy":38.170,"epv":38.870,"track":98.3953,"magtrack":101.6153,"magvar":3.2,"speed":0.010,"climb":0.001,"eps":302.93,"epc":308.49,"ecefx":3841073.09,"ecefy":716306.13,"ecefz":5024468.27,"ecefvx":0.00,"ecefvy":0.01,"ecefvz":0.00,"ecefpAcc":4.37,"ecefvAcc":0.33,"velN":-0.001,"velE":0.010,"velD":-0.001,"geoidSep":43.897,"eph":21.090,"sep":38.570}
{"class":"SKY","device":"/dev/ttyACM0","time":"2024-07-09T11:34:38.000Z","gdop":2.35,"hdop":1.11,"pdop":2.03,"tdop":1.19,"xdop":1.00,"ydop":2.54,"vdop":1.69,"nSat":14,"uSat":8,"satellites":[{"PRN":2,"gnssid":0,"svid":2,"az":289.0,"el":83.0,"ss":46.0,"used":true,"health":1},{"PRN":28,"gnssid":0,"svid":28,"az":0.0,"el":-9.0,"ss":0.0,"used":false,"health":1},{"PRN":11,"gnssid":0,"svid":11,"az":0.0,"el":-9.0,"ss":0.0,"used":false,"health":1},{"PRN":4,"gnssid":0,"svid":4,"az":0.0,"el":-9.0,"ss":0.0,"used":false,"health":1},{"PRN":26,"gnssid":0,"svid":26,"az":0.0,"el":-9.0,"ss":0.0,"used":false,"health":1},{"PRN":17,"gnssid":0,"svid":17,"az":314.0,"el":24.0,"ss":46.0,"used":true,"health":1},{"PRN":14,"gnssid":0,"svid":14,"az":280.0,"el":18.0,"ss":42.0,"used":true,"health":1},{"PRN":8,"gnssid":0,"svid":8,"az":176.0,"el":27.0,"ss":49.0,"used":true,"health":1},{"PRN":3,"gnssid":0,"svid":3,"az":239.0,"el":38.0,"ss":35.0,"used":true,"health":1},{"PRN":32,"gnssid":0,"svid":32,"az":61.0,"el":38.0,"ss":48.0,"used":true,"health":1},{"PRN":10,"gnssid":0,"svid":10,"az":0.0,"el":-9.0,"ss":0.0,"used":false,"health":1},{"PRN":21,"gnssid":0,"svid":21,"az":119.0,"el":78.0,"ss":46.0,"used":true,"health":1},{"PRN":22,"gnssid":0,"svid":22,"az":303.0,"el":20.0,"ss":38.0,"used":true,"health":1},{"PRN":7,"gnssid":0,"svid":7,"az":0.0,"el":-9.0,"ss":0.0,"used":false,"health":1}]}
{"class":"TPV","device":"/dev/ttyACM0","mode":3,"time":"2024-07-09T11:34:38.248Z","leapseconds":18,"ept":0.005,"lat":52.315808621,"lon":10.563517596,"altHAE":135.1050,"altMSL":91.2079,"alt":91.2079,"epx":14.966,"epy":38.170,"epv":38.870,"track":273.2883,"magtrack":276.5082,"magvar":3.2,"speed":0.022,"climb":0.012,"eps":0.33,"epc":313.47,"ecefx":3841073.06,"ecefy":716306.17,"ecefz":5024468.27,"ecefvx":0.01,"ecefvy":-0.02,"ecefvz":0.01,"ecefpAcc":4.37,"ecefvAcc":0.33,"velN":0.001,"velE":-0.021,"velD":-0.012,"geoidSep":43.897,"eph":21.090,"sep":38.570}
{"class":"SKY","device":"/dev/ttyACM0","time":"2024-07-09T11:34:38.000Z","gdop":2.35,"hdop":1.11,"pdop":2.03,"tdop":1.19,"xdop":1.00,"ydop":2.54,"vdop":1.69,"uSat":6}
{"class":"SKY","device":"/dev/ttyACM0","time":"2024-07-09T11:34:38.000Z","gdop":2.35,"hdop":1.11,"pdop":2.03,"tdop":1.19,"xdop":1.00,"ydop":2.54,"vdop":1.70,"uSat":6}
{"class":"TPV","device":"/dev/ttyACM0","mode":3,"time":"2024-07-09T11:34:38.248Z","leapseconds":18,"ept":0.005,"lat":52.315808621,"lon":10.563517596,"altHAE":135.1050,"altMSL":91.2079,"alt":91.2079,"epx":14.966,"epy":38.170,"epv":38.870,"track":273.2883,"magtrack":276.5082,"magvar":3.2,"speed":0.022,"climb":0.012,"eps":307.82,"epc":313.47,"ecefx":3841073.06,"ecefy":716306.17,"ecefz":5024468.27,"ecefvx":0.01,"ecefvy":-0.02,"ecefvz":0.01,"ecefpAcc":4.37,"ecefvAcc":0.33,"velN":0.001,"velE":-0.021,"velD":-0.012,"geoidSep":43.897,"eph":21.090,"sep":38.570}
{"class":"SKY","device":"/dev/ttyACM0","time":"2024-07-09T11:34:38.248Z","gdop":2.35,"hdop":1.11,"pdop":2.03,"tdop":1.19,"xdop":1.00,"ydop":2.54,"vdop":1.70,"nSat":14,"uSat":8,"satellites":[{"PRN":2,"gnssid":0,"svid":2,"az":289.0,"el":83.0,"ss":46.0,"used":true,"health":1},{"PRN":28,"gnssid":0,"svid":28,"az":0.0,"el":-9.0,"ss":0.0,"used":false,"health":1},{"PRN":25,"gnssid":0,"svid":25,"az":0.0,"el":-9.0,"ss":0.0,"used":false,"health":1},{"PRN":4,"gnssid":0,"svid":4,"az":0.0,"el":-9.0,"ss":0.0,"used":false,"health":1},{"PRN":26,"gnssid":0,"svid":26,"az":0.0,"el":-9.0,"ss":0.0,"used":false,"health":1},{"PRN":17,"gnssid":0,"svid":17,"az":314.0,"el":24.0,"ss":46.0,"used":true,"health":1},{"PRN":14,"gnssid":0,"svid":14,"az":280.0,"el":18.0,"ss":42.0,"used":true,"health":1},{"PRN":8,"gnssid":0,"svid":8,"az":176.0,"el":27.0,"ss":49.0,"used":true,"health":1},{"PRN":3,"gnssid":0,"svid":3,"az":239.0,"el":38.0,"ss":36.0,"used":true,"health":1},{"PRN":32,"gnssid":0,"svid":32,"az":61.0,"el":38.0,"ss":48.0,"used":true,"health":1},{"PRN":10,"gnssid":0,"svid":10,"az":0.0,"el":-9.0,"ss":0.0,"used":false,"health":1},{"PRN":21,"gnssid":0,"svid":21,"az":119.0,"el":78.0,"ss":46.0,"used":true,"health":1},{"PRN":22,"gnssid":0,"svid":22,"az":303.0,"el":20.0,"ss":37.0,"used":true,"health":1},{"PRN":7,"gnssid":0,"svid":7,"az":0.0,"el":-9.0,"ss":0.0,"used":false,"health":1}]}
{"class":"TPV","device":"/dev/ttyACM0","mode":3,"time":"2024-07-09T11:34:38.500Z","leapseconds":18,"ept":0.005,"lat":52.315808748,"lon":10.563517794,"altHAE":135.0941,"altMSL":91.1970,"alt":91.1970,"epx":14.966,"epy":38.170,"epv":39.100,"track":0.0000,"magtrack":3.2200,"magvar":3.2,"speed":0.006,"climb":0.008,"eps":0.33,"epc":309.40,"ecefx":3841073.04,"ecefy":716306.18,"ecefz":5024468.27,"ecefvx":0.00,"ecefvy":0.00,"ecefvz":0.01,"ecefpAcc":4.37,"ecefvAcc":0.33,"velN":0.006,"velE":0.000,"velD":-0.008,"geoidSep":43.897,"eph":21.090,"sep":38.570}
{"class":"SKY","device":"/dev/ttyACM0","time":"2024-07-09T11:34:38.248Z","gdop":2.35,"hdop":1.11,"pdop":2.03,"tdop":1.19,"xdop":1.00,"ydop":2.54,"vdop":1.70,"uSat":6}
{"class":"SKY","device":"/dev/ttyACM0","time":"2024-07-09T11:34:38.248Z","gdop":2.35,"hdop":1.11,"pdop":2.03,"tdop":1.19,"xdop":1.00,"ydop":2.54,"vdop":1.69,"uSat":6}
{"class":"TPV","device":"/dev/ttyACM0","mode":3,"time":"2024-07-09T11:34:38.500Z","leapseconds":18,"ept":0.005,"lat":52.315808748,"lon":10.563517794,"altHAE":135.0941,"altMSL":91.1970,"alt":91.1970,"epx":14.966,"epy":38.170,"epv":39.100,"track":0.0000,"magtrack":3.2200,"magvar":3.2,"speed":0.006,"climb":0.008,"eps":302.93,"epc":309.40,"ecefx":3841073.04,"ecefy":716306.18,"ecefz":5024468.27,"ecefvx":0.00,"ecefvy":0.00,"ecefvz":0.01,"ecefpAcc":4.37,"ecefvAcc":0.33,"velN":0.006,"velE":0.000,"velD":-0.008,"geoidSep":43.897,"eph":21.090,"sep":38.570}
{"class":"SKY","device":"/dev/ttyACM0","time":"2024-07-09T11:34:38.500Z","gdop":2.35,"hdop":1.11,"pdop":2.03,"tdop":1.19,"xdop":1.00,"ydop":2.54,"vdop":1.69,"nSat":14,"uSat":8,"satellites":[{"PRN":2,"gnssid":0,"svid":2,"az":289.0,"el":83.0,"ss":46.0,"used":true,"health":1},{"PRN":28,"gnssid":0,"svid":28,"az":0.0,"el":-9.0,"ss":0.0,"used":false,"health":1},{"PRN":25,"gnssid":0,"svid":25,"az":0.0,"el":-9.0,"ss":0.0,"used":false,"health":1},{"PRN":4,"gnssid":0,"svid":4,"az":0.0,"el":-9.0,"ss":0.0,"used":false,"health":1},{"PRN":26,"gnssid":0,"svid":26,"az":0.0,"el":-9.0,"ss":0.0,"used":false,"health":1},{"PRN":17,"gnssid":0,"svid":17,"az":314.0,"el":24.0,"ss":46.0,"used":true,"health":1},{"PRN":14,"gnssid":0,"svid":14,"az":280.0,"el":18.0,"ss":42.0,"used":true,"health":1},{"PRN":8,"gnssid":0,"svid":8,"az":176.0,"el":27.0,"ss":49.0,"used":true,"health":1},{"PRN":3,"gnssid":0,"svid":3,"az":239.0,"el":38.0,"ss":35.0,"used":true,"health":1},{"PRN":32,"gnssid":0,"svid":32,"az":61.0,"el":38.0,"ss":48.0,"used":true,"health":1},{"PRN":10,"gnssid":0,"svid":10,"az":0.0,"el":-9.0,"ss":0.0,"used":false,"health":1},{"PRN":21,"gnssid":0,"svid":21,"az":119.0,"el":78.0,"ss":46.0,"used":true,"health":1},{"PRN":22,"gnssid":0,"svid":22,"az":303.0,"el":20.0,"ss":37.0,"used":true,"health":1},{"PRN":7,"gnssid":0,"svid":7,"az":0.0,"el":-9.0,"ss":0.0,"used":false,"health":1}]}
{"class":"TPV","device":"/dev/ttyACM0","mode":3,"time":"2024-07-09T11:34:38.748Z","leapseconds":18,"ept":0.005,"lat":52.315808919,"lon":10.563518307,"altHAE":135.0794,"altMSL":91.1823,"alt":91.1823,"epx":14.966,"epy":38.170,"epv":38.870,"track":268.9396,"magtrack":272.1596,"magvar":3.2,"speed":0.012,"climb":0.013,"eps":0.33,"epc":314.39,"ecefx":3841073.01,"ecefy":716306.21,"ecefz":5024468.27,"ecefvx":0.01,"ecefvy":-0.01,"ecefvz":0.01,"ecefpAcc":4.38,"ecefvAcc":0.33,"velN":0.000,"velE":-0.012,"velD":-0.013,"geoidSep":43.897,"eph":21.090,"sep":38.570}
{"class":"SKY","device":"/dev/ttyACM0","time":"2024-07-09T11:34:38.500Z","gdop":2.35,"hdop":1.11,"pdop":2.03,"tdop":1.19,"xdop":1.00,"ydop":2.54,"vdop":1.69,"uSat":6}
{"class":"SKY","device":"/dev/ttyACM0","time":"2024-07-09T11:34:38.500Z","gdop":2.35,"hdop":1.11,"pdop":2.03,"tdop":1.19,"xdop":1.00,"ydop":2.54,"vdop":1.69,"uSat":6}
{"class":"TPV","device":"/dev/ttyACM0","mode":3,"time":"2024-07-09T11:34:38.748Z","leapseconds":18,"ept":0.005,"lat":52.315808919,"lon":10.563518307,"altHAE":135.0794,"altMSL":91.1823,"alt":91.1823,"epx":14.966,"epy":38.170,"epv":38.870,"track":268.9396,"magtrack":272.1596,"magvar":3.2,"speed":0.012,"climb":0.013,"eps":307.82,"epc":314.39,"ecefx":3841073.01,"ecefy":716306.21,"ecefz":5024468.27,"ecefvx":0.01,"ecefvy":-0.01,"ecefvz":0.01,"ecefpAcc":4.38,"ecefvAcc":0.33,"velN":0.000,"velE":-0.012,"velD":-0.013,"geoidSep":43.897,"eph":21.090,"sep":38.570}
{"class":"SKY","device":"/dev/ttyACM0","time":"2024-07-09T11:34:38.748Z","gdop":2.35,"hdop":1.11,"pdop":2.03,"tdop":1.19,"xdop":1.00,"ydop":2.54,"vdop":1.69,"nSat":14,"uSat":8,"satellites":[{"PRN":2,"gnssid":0,"svid":2,"az":289.0,"el":83.0,"ss":47.0,"used":true,"health":1},{"PRN":28,"gnssid":0,"svid":28,"az":0.0,"el":-9.0,"ss":0.0,"used":false,"health":1},{"PRN":25,"gnssid":0,"svid":25,"az":0.0,"el":-9.0,"ss":0.0,"used":false,"health":1},{"PRN":4,"gnssid":0,"svid":4,"az":0.0,"el":-9.0,"ss":0.0,"used":false,"health":1},{"PRN":26,"gnssid":0,"svid":26,"az":0.0,"el":-9.0,"ss":0.0,"used":false,"health":1},{"PRN":17,"gnssid":0,"svid":17,"az":314.0,"el":24.0,"ss":46.0,"used":true,"health":1},{"PRN":14,"gnssid":0,"svid":14,"az":280.0,"el":18.0,"ss":42.0,"used":true,"health":1},{"PRN":8,"gnssid":0,"svid":8,"az":176.0,"el":27.0,"ss":49.0,"used":true,"health":1},{"PRN":3,"gnssid":0,"svid":3,"az":239.0,"el":38.0,"ss":36.0,"used":true,"health":1},{"PRN":32,"gnssid":0,"svid":32,"az":61.0,"el":38.0,"ss":48.0,"used":true,"health":1},{"PRN":10,"gnssid":0,"svid":10,"az":0.0,"el":-9.0,"ss":0.0,"used":false,"health":1},{"PRN":21,"gnssid":0,"svid":21,"az":119.0,"el":78.0,"ss":46.0,"used":true,"health":1},{"PRN":22,"gnssid":0,"svid":22,"az":303.0,"el":20.0,"ss":37.0,"used":true,"health":1},{"PRN":7,"gnssid":0,"svid":7,"az":0.0,"el":-9.0,"ss":0.0,"used":false,"health":1}]}
{"class":"TPV","device":"/dev/ttyACM0","mode":3,"time":"2024-07-09T11:34:39.000Z","leapseconds":18,"ept":0.005,"lat":52.315809089,"lon":10.563518820,"altHAE":135.0647,"altMSL":91.1677,"alt":91.1677,"epx":14.966,"epy":38.170,"epv":38.870,"track":0.0000,"magtrack":3.2200,"magvar":3.2,"speed":0.006,"climb":0.008,"eps":0.32,"epc":308.49,"ecefx":3841072.98,"ecefy":716306.24,"ecefz":5024468.27,"ecefvx":0.00,"ecefvy":0.00,"ecefvz":0.01,"ecefpAcc":4.38,"ecefvAcc":0.32,"velN":0.006,"velE":0.000,"velD":-0.008,"geoidSep":43.897,"eph":21.090,"sep":38.570}
{"class":"SKY","device":"/dev/ttyACM0","time":"2024-07-09T11:34:38.748Z","gdop":2.35,"hdop":1.11,"pdop":2.03,"tdop":1.19,"xdop":1.00,"ydop":2.54,"vdop":1.69,"uSat":6}
{"class":"SKY","device":"/dev/ttyACM0","time":"2024-07-09T11:34:38.748Z","gdop":2.35,"hdop":1.11,"pdop":2.03,"tdop":1.19,"xdop":1.00,"ydop":2.54,"vdop":1.70,"uSat":6}
{"class":"TPV","device":"/dev/ttyACM0","mode":3,"time":"2024-07-09T11:34:39.000Z","leapseconds":18,"ept":0.005,"lat":52.315809089,"lon":10.563518820,"altHAE":135.0647,"altMSL":91.1677,"alt":91.1677,"epx":14.966,"epy":38.170,"epv":38.870,"track":0.0000,"magtrack":3.2200,"magvar":3.2,"speed":0.006,"climb":0.008,"eps":302.93,"epc":308.49,"ecefx":3841072.98,"ecefy":716306.24,"ecefz":5024468.27,"ecefvx":0.00,"ecefvy":0.00,"ecefvz":0.01,"ecefpAcc":4.38,"ecefvAcc":0.32,"velN":0.006,"velE":0.000,"velD":-0.008,"geoidSep":43.897,"eph":21.090,"sep":38.570}
{"class":"SKY","device":"/dev/ttyACM0","time":"2024-07-09T11:34:39.000Z","gdop":2.35,"hdop":1.11,"pdop":2.03,"tdop":1.19,"xdop":1.00,"ydop":2.54,"vdop":1.70,"nSat":14,"uSat":8,"satellites":[{"PRN":2,"gnssid":0,"svid":2,"az":289.0,"el":83.0,"ss":47.0,"used":true,"health":1},{"PRN":28,"gnssid":0,"svid":28,"az":0.0,"el":-9.0,"ss":0.0,"used":false,"health":1},{"PRN":25,"gnssid":0,"svid":25,"az":0.0,"el":-9.0,"ss":0.0,"used":false,"health":1},{"PRN":4,"gnssid":0,"svid":4,"az":0.0,"el":-9.0,"ss":0.0,"used":false,"health":1},{"PRN":26,"gnssid":0,"svid":26,"az":0.0,"el":-9.0,"ss":0.0,"used":false,"health":1},{"PRN":17,"gnssid":0,"svid":17,"az":314.0,"el":24.0,"ss":46.0,"used":true,"health":1},{"PRN":14,"gnssid":0,"svid":14,"az":280.0,"el":18.0,"ss":42.0,"used":true,"health":1},{"PRN":8,"gnssid":0,"svid":8,"az":176.0,"el":27.0,"ss":49.0,"used":true,"health":1},{"PRN":3,"gnssid":0,"svid":3,"az":239.0,"el":38.0,"ss":36.0,"used":true,"health":1},{"PRN":32,"gnssid":0,"svid":32,"az":61.0,"el":38.0,"ss":48.0,"used":true,"health":1},{"PRN":10,"gnssid":0,"svid":10,"az":0.0,"el":-9.0,"ss":0.0,"used":false,"health":1},{"PRN":21,"gnssid":0,"svid":21,"az":119.0,"el":78.0,"ss":46.0,"used":true,"health":1},{"PRN":22,"gnssid":0,"svid":22,"az":303.0,"el":20.0,"ss":36.0,"used":true,"health":1},{"PRN":7,"gnssid":0,"svid":7,"az":0.0,"el":-9.0,"ss":0.0,"used":false,"health":1}]}
{"class":"TPV","device":"/dev/ttyACM0","mode":3,"time":"2024-07-09T11:34:39.248Z","leapseconds":18,"ept":0.005,"lat":52.315809161,"lon":10.563519018,"altHAE":135.0459,"altMSL":91.1489,"alt":91.1489,"epx":14.966,"epy":38.170,"epv":39.100,"track":239.3574,"magtrack":242.5773,"magvar":3.2,"speed":0.016,"climb":0.019,"eps":0.33,"epc":314.39,"ecefx":3841072.96,"ecefy":716306.25,"ecefz":5024468.26,"ecefvx":0.02,"ecefvy":-0.01,"ecefvz":0.01,"ecefpAcc":4.38,"ecefvAcc":0.33,"velN":-0.008,"velE":-0.013,"velD":-0.019,"geoidSep":43.897,"eph":21.090,"sep":38.570}
{"class":"SKY","device":"/dev/ttyACM0","time":"2024-07-09T11:34:39.000Z","gdop":2.35,"hdop":1.11,"pdop":2.03,"tdop":1.19,"xdop":1.00,"ydop":2.54,"vdop":1.70,"uSat":6}
{"class":"SKY","device":"/dev/ttyACM0","time":"2024-07-09T11:34:39.000Z","gdop":2.35,"hdop":1.11,"pdop":2.03,"tdop":1.19,"xdop":1.00,"ydop":2.54,"vdop":1.69,"uSat":6}
{"class":"TPV","device":"/dev/ttyACM0","mode":3,"time":"2024-07-09T11:34:39.248Z","leapseconds":18,"ept":0.005,"lat":52.315809161,"lon":10.563519018,"altHAE":135.0459,"altMSL":91.1489,"alt":91.1489,"epx":14.966,"epy":38.170,"epv":39.100,"track":239.3574,"magtrack":242.5773,"magvar":3.2,"speed":0.016,"climb":0.019,"eps":307.82,"epc":314.39,"ecefx":3841072.96,"ecefy":716306.25,"ecefz":5024468.26,"ecefvx":0.02,"ecefvy":-0.01,"ecefvz":0.01,"ecefpAcc":4.38,"ecefvAcc":0.33,"velN":-0.008,"velE":-0.013,"velD":-0.019,"geoidSep":43.897,"eph":21.090,"sep":38.570}
{"class":"SKY","device":"/dev/ttyACM0","time":"2024-07-09T11:34:39.248Z","gdop":2.35,"hdop":1.11,"pdop":2.03,"tdop":1.19,"xdop":1.00,"ydop":2.54,"vdop":1.69,"nSat":14,"uSat":8,"satellites":[{"PRN":2,"gnssid":0,"svid":2,"az":289.0,"el":83.0,"ss":47.0,"used":true,"health":1},{"PRN":28,"gnssid":0,"svid":28,"az":0.0,"el":-9.0,"ss":0.0,"used":false,"health":1},{"PRN":25,"gnssid":0,"svid":25,"az":0.0,"el":-9.0,"ss":0.0,"used":false,"health":1},{"PRN":4,"gnssid":0,"svid":4,"az":0.0,"el":-9.0,"ss":0.0,"used":false,"health":1},{"PRN":26,"gnssid":0,"svid":26,"az":0.0,"el":-9.0,"ss":0.0,"used":false,"health":1},{"PRN":17,"gnssid":0,"svid":17,"az":314.0,"el":24.0,"ss":46.0,"used":true,"health":1},{"PRN":14,"gnssid":0,"svid":14,"az":280.0,"el":18.0,"ss":42.0,"used":true,"health":1},{"PRN":8,"gnssid":0,"svid":8,"az":176.0,"el":27.0,"ss":49.0,"used":true,"health":1},{"PRN":3,"gnssid":0,"svid":3,"az":239.0,"el":38.0,"ss":35.0,"used":true,"health":1},{"PRN":32,"gnssid":0,"svid":32,"az":61.0,"el":38.0,"ss":48.0,"used":true,"health":1},{"PRN":10,"gnssid":0,"svid":10,"az":0.0,"el":-9.0,"ss":0.0,"used":false,"health":1},{"PRN":21,"gnssid":0,"svid":21,"az":119.0,"el":78.0,"ss":46.0,"used":true,"health":1},{"PRN":22,"gnssid":0,"svid":22,"az":303.0,"el":20.0,"ss":37.0,"used":true,"health":1},{"PRN":7,"gnssid":0,"svid":7,"az":0.0,"el":-9.0,"ss":0.0,"used":false,"health":1}]}
{"class":"TPV","device":"/dev/ttyACM0","mode":3,"time":"2024-07-09T11:34:39.500Z","leapseconds":18,"ept":0.005,"lat":52.315809220,"lon":10.563519360,"altHAE":135.0282,"altMSL":91.1312,"alt":91.1312,"epx":14.966,"epy":38.170,"epv":38.870,"track":0.0000,"magtrack":3.2200,"magvar":3.2,"speed":0.006,"climb":0.008,"eps":0.32,"epc":309.40,"ecefx":3841072.94,"ecefy":716306.27,"ecefz":5024468.25,"ecefvx":0.00,"ecefvy":0.00,"ecefvz":0.01,"ecefpAcc":4.38,"ecefvAcc":0.32,"velN":0.006,"velE":0.000,"velD":-0.008,"geoidSep":43.897,"eph":21.090,"sep":38.570}
{"class":"SKY","device":"/dev/ttyACM0","time":"2024-07-09T11:34:39.248Z","gdop":2.35,"hdop":1.11,"pdop":2.03,"tdop":1.19,"xdop":1.00,"ydop":2.54,"vdop":1.69,"uSat":6}
{"class":"SKY","device":"/dev/ttyACM0","time":"2024-07-09T11:34:39.248Z","gdop":2.35,"hdop":1.11,"pdop":2.03,"tdop":1.19,"xdop":1.00,"ydop":2.54,"vdop":1.69,"uSat":6}
{"class":"TPV","device":"/dev/ttyACM0","mode":3,"time":"2024-07-09T11:34:39.500Z","leapseconds":18,"ept":0.005,"lat":52.315809220,"lon":10.563519360,"altHAE":135.0282,"altMSL":91.1312,"alt":91.1312,"epx":14.966,"epy":38.170,"epv":38.870,"track":0.0000,"magtrack":3.2200,"magvar":3.2,"speed":0.006,"climb":0.008,"eps":302.93,"epc":309.40,"ecefx":3841072.94,"ecefy":716306.27,"ecefz":5024468.25,"ecefvx":0.00,"ecefvy":0.00,"ecefvz":0.01,"ecefpAcc":4.38,"ecefvAcc":0.32,"velN":0.006,"velE":0.000,"velD":-0.008,"geoidSep":43.897,"eph":21.090,"sep":38.570}
{"class":"SKY","device":"/dev/ttyACM0","time":"2024-07-09T11:34:39.500Z","gdop":2.35,"hdop":1.11,"pdop":2.03,"tdop":1.19,"xdop":1.00,"ydop":2.54,"vdop":1.69,"nSat":14,"uSat":8,"satellites":[{"PRN":2,"gnssid":0,"svid":2,"az":289.0,"el":83.0,"ss":47.0,"used":true,"health":1},{"PRN":28,"gnssid":0,"svid":28,"az":0.0,"el":-9.0,"ss":0.0,"used":false,"health":1},{"PRN":25,"gnssid":0,"svid":25,"az":0.0,"el":-9.0,"ss":0.0,"used":false,"health":1},{"PRN":4,"gnssid":0,"svid":4,"az":0.0,"el":-9.0,"ss":0.0,"used":false,"health":1},{"PRN":26,"gnssid":0,"svid":26,"az":0.0,"el":-9.0,"ss":0.0,"used":false,"health":1},{"PRN":17,"gnssid":0,"svid":17,"az":314.0,"el":24.0,"ss":46.0,"used":true,"health":1},{"PRN":14,"gnssid":0,"svid":14,"az":280.0,"el":18.0,"ss":42.0,"used":true,"health":1},{"PRN":8,"gnssid":0,"svid":8,"az":176.0,"el":27.0,"ss":49.0,"used":true,"health":1},{"PRN":3,"gnssid":0,"svid":3,"az":239.0,"el":38.0,"ss":35.0,"used":true,"health":1},{"PRN":32,"gnssid":0,"svid":32,"az":61.0,"el":38.0,"ss":47.0,"used":true,"health":1},{"PRN":10,"gnssid":0,"svid":10,"az":0.0,"el":-9.0,"ss":0.0,"used":false,"health":1},{"PRN":21,"gnssid":0,"svid":21,"az":119.0,"el":78.0,"ss":46.0,"used":true,"health":1},{"PRN":22,"gnssid":0,"svid":22,"az":303.0,"el":20.0,"ss":36.0,"used":true,"health":1},{"PRN":7,"gnssid":0,"svid":7,"az":0.0,"el":-9.0,"ss":0.0,"used":false,"health":1}]}
{"class":"TPV","device":"/dev/ttyACM0","mode":3,"time":"2024-07-09T11:34:39.748Z","leapseconds":18,"ept":0.005,"lat":52.315809237,"lon":10.563519558,"altHAE":135.0015,"altMSL":91.1044,"alt":91.1044,"epx":14.966,"epy":38.170,"epv":38.870,"track":0.0000,"magtrack":3.2200,"magvar":3.2,"speed":0.000,"climb":0.000,"eps":0.32,"epc":313.47,"ecefx":3841072.92,"ecefy":716306.28,"ecefz":5024468.23,"ecefvx":0.00,"ecefvy":0.00,"ecefvz":0.00,"ecefpAcc":4.38,"ecefvAcc":0.32,"velN":0.000,"velE":0.000,"velD":0.000,"geoidSep":43.897,"eph":21.090,"sep":38.570}
{"class":"SKY","device":"/dev/ttyACM0","time":"2024-07-09T11:34:39.500Z","gdop":2.35,"hdop":1.11,"pdop":2.03,"tdop":1.19,"xdop":1.00,"ydop":2.54,"vdop":1.69,"uSat":6}
{"class":"SKY","device":"/dev/ttyACM0","time":"2024-07-09T11:34:39.500Z","gdop":2.35,"hdop":1.11,"pdop":2.03,"tdop":1.19,"xdop":1.00,"ydop":2.54,"vdop":1.70,"uSat":6}
{"class":"TPV","device":"/dev/ttyACM0","mode":3,"time":"2024-07-09T11:34:39.748Z","leapseconds":18,"ept":0.005,"lat":52.315809237,"lon":10.563519558,"altHAE":135.0015,"altMSL":91.1044,"alt":91.1044,"epx":14.966,"epy":38.170,"epv":38.870,"track":0.0000,"magtrack":3.2200,"magvar":3.2,"speed":0.000,"climb":0.000,"eps":307.82,"epc":313.47,"ecefx":3841072.92,"ecefy":716306.28,"ecefz":5024468.23,"ecefvx":0.00,"ecefvy":0.00,"ecefvz":0.00,"ecefpAcc":4.38,"ecefvAcc":0.32,"velN":0.000,"velE":0.000,"velD":0.000,"geoidSep":43.897,"eph":21.090,"sep":38.570}
{"class":"SKY","device":"/dev/ttyACM0","time":"2024-07-09T11:34:39.748Z","gdop":2.35,"hdop":1.11,"pdop":2.03,"tdop":1.19,"xdop":1.00,"ydop":2.54,"vdop":1.70,"nSat":14,"uSat":8,"satellites":[{"PRN":2,"gnssid":0,"svid":2,"az":289.0,"el":83.0,"ss":47.0,"used":true,"health":1},{"PRN":28,"gnssid":0,"svid":28,"az":0.0,"el":-9.0,"ss":0.0,"used":false,"health":1},{"PRN":25,"gnssid":0,"svid":25,"az":0.0,"el":-9.0,"ss":0.0,"used":false,"health":1},{"PRN":4,"gnssid":0,"svid":4,"az":0.0,"el":-9.0,"ss":0.0,"used":false,"health":1},{"PRN":26,"gnssid":0,"svid":26,"az":0.0,"el":-9.0,"ss":0.0,"used":false,"health":1},{"PRN":17,"gnssid":0,"svid":17,"az":314.0,"el":24.0,"ss":46.0,"used":true,"health":1},{"PRN":14,"gnssid":0,"svid":14,"az":280.0,"el":18.0,"ss":42.0,"used":true,"health":1},{"PRN":8,"gnssid":0,"svid":8,"az":176.0,"el":27.0,"ss":49.0,"used":true,"health":1},{"PRN":3,"gnssid":0,"svid":3,"az":239.0,"el":38.0,"ss":35.0,"used":true,"health":1},{"PRN":32,"gnssid":0,"svid":32,"az":61.0,"el":38.0,"ss":47.0,"used":true,"health":1},{"PRN":10,"gnssid":0,"svid":10,"az":0.0,"el":-9.0,"ss":0.0,"used":false,"health":1},{"PRN":21,"gnssid":0,"svid":21,"az":119.0,"el":78.0,"ss":46.0,"used":true,"health":1},{"PRN":22,"gnssid":0,"svid":22,"az":303.0,"el":20.0,"ss":36.0,"used":true,"health":1},{"PRN":7,"gnssid":0,"svid":7,"az":0.0,"el":-9.0,"ss":0.0,"used":false,"health":1}]}
{"class":"TPV","device":"/dev/ttyACM0","mode":3,"time":"2024-07-09T11:34:40.000Z","leapseconds":18,"ept":0.005,"lat":52.315809226,"lon":10.563519873,"altHAE":134.9898,"altMSL":91.0928,"alt":91.0928,"epx":14.966,"epy":38.170,"epv":39.100,"track":0.0000,"magtrack":3.2200,"magvar":3.2,"speed":0.006,"climb":0.008,"eps":0.32,"epc":309.40,"ecefx":3841072.91,"ecefy":716306.30,"ecefz":5024468.22,"ecefvx":0.00,"ecefvy":0.00,"ecefvz":0.01,"ecefpAcc":4.38,"ecefvAcc":0.32,"velN":0.006,"velE":0.000,"velD":-0.008,"geoidSep":43.897,"eph":21.090,"sep":38.570}
{"class":"SKY","device":"/dev/ttyACM0","time":"2024-07-09T11:34:39.748Z","gdop":2.35,"hdop":1.11,"pdop":2.03,"tdop":1.19,"xdop":1.00,"ydop":2.54,"vdop":1.70,"uSat":6}
{"class":"SKY","device":"/dev/ttyACM0","time":"2024-07-09T11:34:39.748Z","gdop":2.35,"hdop":1.11,"pdop":2.03,"tdop":1.19,"xdop":1.00,"ydop":2.54,"vdop":1.70,"uSat":6}
{"class":"TPV","device":"/dev/ttyACM0","mode":3,"time":"2024-07-09T11:34:40.000Z","leapseconds":18,"ept":0.005,"lat":52.315809226,"lon":10.563519873,"altHAE":134.9898,"altMSL":91.0928,"alt":91.0928,"epx":14.966,"epy":38.170,"epv":39.100,"track":0.0000,"magtrack":3.2200,"magvar":3.2,"speed":0.006,"climb":0.008,"eps":302.93,"epc":309.40,"ecefx":3841072.91,"ecefy":716306.30,"ecefz":5024468.22,"ecefvx":0.00,"ecefvy":0.00,"ecefvz":0.01,"ecefpAcc":4.38,"ecefvAcc":0.32,"velN":0.006,"velE":0.000,"velD":-0.008,"geoidSep":43.897,"eph":21.090,"sep":38.570}
{"class":"SKY","device":"/dev/ttyACM0","time":"2024-07-09T11:34:40.000Z","gdop":2.35,"hdop":1.11,"pdop":2.03,"tdop":1.19,"xdop":1.00,"ydop":2.54,"vdop":1.70,"nSat":14,"uSat":8,"satellites":[{"PRN":2,"gnssid":0,"svid":2,"az":289.0,"el":83.0,"ss":47.0,"used":true,"health":1},{"PRN":28,"gnssid":0,"svid":28,"az":0.0,"el":-9.0,"ss":0.0,"used":false,"health":1},{"PRN":25,"gnssid":0,"svid":25,"az":0.0,"el":-9.0,"ss":0.0,"used":false,"health":1},{"PRN":4,"gnssid":0,"svid":4,"az":0.0,"el":-9.0,"ss":0.0,"used":false,"health":1},{"PRN":26,"gnssid":0,"svid":26,"az":0.0,"el":-9.0,"ss":0.0,"used":false,"health":1},{"PRN":17,"gnssid":0,"svid":17,"az":314.0,"el":24.0,"ss":46.0,"used":true,"health":1},{"PRN":14,"gnssid":0,"svid":14,"az":280.0,"el":18.0,"ss":42.0,"used":true,"health":1},{"PRN":8,"gnssid":0,"svid":8,"az":176.0,"el":27.0,"ss":49.0,"used":true,"health":1},{"PRN":3,"gnssid":0,"svid":3,"az":239.0,"el":38.0,"ss":35.0,"used":true,"health":1},{"PRN":32,"gnssid":0,"svid":32,"az":61.0,"el":38.0,"ss":47.0,"used":true,"health":1},{"PRN":10,"gnssid":0,"svid":10,"az":0.0,"el":-9.0,"ss":0.0,"used":false,"health":1},{"PRN":21,"gnssid":0,"svid":21,"az":119.0,"el":78.0,"ss":46.0,"used":true,"health":1},{"PRN":22,"gnssid":0,"svid":22,"az":303.0,"el":20.0,"ss":36.0,"used":true,"health":1},{"PRN":7,"gnssid":0,"svid":7,"az":0.0,"el":-9.0,"ss":0.0,"used":false,"health":1}]}
{"class":"TPV","device":"/dev/ttyACM0","mode":3,"time":"2024-07-09T11:34:40.248Z","leapseconds":18,"ept":0.005,"lat":52.315809298,"lon":10.563520071,"altHAE":134.9710,"altMSL":91.0740,"alt":91.0740,"epx":14.966,"epy":38.170,"epv":39.100,"track":180.0000,"magtrack":183.2200,"magvar":3.2,"speed":0.006,"climb":-0.008,"eps":0.32,"epc":315.32,"ecefx":3841072.89,"ecefy":716306.31,"ecefz":5024468.21,"ecefvx":0.00,"ecefvy":0.00,"ecefvz":-0.01,"ecefpAcc":4.38,"ecefvAcc":0.32,"velN":-0.006,"velE":0.000,"velD":0.008,"geoidSep":43.897,"eph":21.090,"sep":38.570}
{"class":"SKY","device":"/dev/ttyACM0","time":"2024-07-09T11:34:40.000Z","gdop":2.35,"hdop":1.11,"pdop":2.03,"tdop":1.19,"xdop":1.00,"ydop":2.54,"vdop":1.70,"uSat":6}
{"class":"SKY","device":"/dev/ttyACM0","time":"2024-07-09T11:34:40.000Z","gdop":2.35,"hdop":1.11,"pdop":2.03,"tdop":1.19,"xdop":1.00,"ydop":2.54,"vdop":1.69,"uSat":6}
{"class":"TPV","device":"/dev/ttyACM0","mode":3,"time":"2024-07-09T11:34:40.248Z","leapseconds":18,"ept":0.005,"lat":52.315809298,"lon":10.563520071,"altHAE":134.9710,"altMSL":91.0740,"alt":91.0740,"epx":14.966,"epy":38.170,"epv":39.100,"track":180.0000,"magtrack":183.2200,"magvar":3.2,"speed":0.006,"climb":-0.008,"eps":307.82,"epc":315.32,"ecefx":3841072.89,"ecefy":716306.31,"ecefz":5024468.21,"ecefvx":0.00,"ecefvy":0.00,"ecefvz":-0.01,"ecefpAcc":4.38,"ecefvAcc":0.32,"velN":-0.006,"velE":0.000,"velD":0.008,"geoidSep":43.897,"eph":21.090,"sep":38.570}
{"class":"SKY","device":"/dev/ttyACM0","time":"2024-07-09T11:34:40.248Z","gdop":2.35,"hdop":1.11,"pdop":2.03,"tdop":1.19,"xdop":1.00,"ydop":2.54,"vdop":1.69,"nSat":14,"uSat":8,"satellites":[{"PRN":2,"gnssid":0,"svid":2,"az":289.0,"el":83.0,"ss":46.0,"used":true,"health":1},{"PRN":28,"gnssid":0,"svid":28,"az":0.0,"el":-9.0,"ss":0.0,"used":false,"health":1},{"PRN":25,"gnssid":0,"svid":25,"az":0.0,"el":-9.0,"ss":0.0,"used":false,"health":1},{"PRN":4,"gnssid":0,"svid":4,"az":0.0,"el":-9.0,"ss":0.0,"used":false,"health":1},{"PRN":26,"gnssid":0,"svid":26,"az":0.0,"el":-9.0,"ss":0.0,"used":false,"health":1},{"PRN":17,"gnssid":0,"svid":17,"az":314.0,"el":24.0,"ss":46.0,"used":true,"health":1},{"PRN":14,"gnssid":0,"svid":14,"az":280.0,"el":18.0,"ss":42.0,"used":true,"health":1},{"PRN":8,"gnssid":0,"svid":8,"az":176.0,"el":27.0,"ss":49.0,"used":true,"health":1},{"PRN":3,"gnssid":0,"svid":3,"az":239.0,"el":38.0,"ss":35.0,"used":true,"health":1},{"PRN":32,"gnssid":0,"svid":32,"az":61.0,"el":38.0,"ss":47.0,"used":true,"health":1},{"PRN":10,"gnssid":0,"svid":10,"az":0.0,"el":-9.0,"ss":0.0,"used":false,"health":1},{"PRN":21,"gnssid":0,"svid":21,"az":119.0,"el":78.0,"ss":46.0,"used":true,"health":1},{"PRN":22,"gnssid":0,"svid":22,"az":303.0,"el":20.0,"ss":36.0,"used":true,"health":1},{"PRN":7,"gnssid":0,"svid":7,"az":0.0,"el":-9.0,"ss":0.0,"used":false,"health":1}]}
{"class":"TPV","device":"/dev/ttyACM0","mode":3,"time":"2024-07-09T11:34:40.500Z","leapseconds":18,"ept":0.005,"lat":52.315809400,"lon":10.563520728,"altHAE":134.9496,"altMSL":91.0525,"alt":91.0525,"epx":14.966,"epy":38.170,"epv":38.870,"track":244.6267,"magtrack":247.8467,"magvar":3.2,"speed":0.011,"climb":-0.009,"eps":0.32,"epc":309.40,"ecefx":3841072.86,"ecefy":716306.35,"ecefz":5024468.20,"ecefvx":0.00,"ecefvy":-0.01,"ecefvz":-0.01,"ecefpAcc":4.38,"ecefvAcc":0.32,"velN":-0.005,"velE":-0.010,"velD":0.009,"geoidSep":43.897,"eph":21.090,"sep":38.570}
{"class":"SKY","device":"/dev/ttyACM0","time":"2024-07-09T11:34:40.248Z","gdop":2.35,"hdop":1.11,"pdop":2.03,"tdop":1.19,"xdop":1.00,"ydop":2.54,"vdop":1.69,"uSat":6}
{"class":"SKY","device":"/dev/ttyACM0","time":"2024-07-09T11:34:40.248Z","gdop":2.35,"hdop":1.11,"pdop":2.03,"tdop":1.19,"xdop":1.00,"ydop":2.54,"vdop":1.70,"uSat":6}
{"class":"TPV","device":"/dev/ttyACM0","mode":3,"time":"2024-07-09T11:34:40.500Z","leapseconds":18,"ept":0.005,"lat":52.315809400,"lon":10.563520728,"altHAE":134.9496,"altMSL":91.0525,"alt":91.0525,"epx":14.966,"epy":38.170,"epv":38.870,"track":244.6267,"magtrack":247.8467,"magvar":3.2,"speed":0.011,"climb":-0.009,"eps":302.93,"epc":309.40,"ecefx":3841072.86,"ecefy":716306.35,"ecefz":5024468.20,"ecefvx":0.00,"ecefvy":-0.01,"ecefvz":-0.01,"ecefpAcc":4.38,"ecefvAcc":0.32,"velN":-0.005,"velE":-0.010,"velD":0.009,"geoidSep":43.897,"eph":21.090,"sep":38.570}
{"class":"SKY","device":"/dev/ttyACM0","time":"2024-07-09T11:34:40.500Z","gdop":2.35,"hdop":1.11,"pdop":2.03,"tdop":1.19,"xdop":1.00,"ydop":2.54,"vdop":1.70,"nSat":14,"uSat":8,"satellites":[{"PRN":2,"gnssid":0,"svid":2,"az":289.0,"el":83.0,"ss":46.0,"used":true,"health":1},{"PRN":28,"gnssid":0,"svid":28,"az":0.0,"el":-9.0,"ss":0.0,"used":false,"health":1},{"PRN":25,"gnssid":0,"svid":25,"az":0.0,"el":-9.0,"ss":0.0,"used":false,"health":1},{"PRN":4,"gnssid":0,"svid":4,"az":0.0,"el":-9.0,"ss":0.0,"used":false,"health":1},{"PRN":26,"gnssid":0,"svid":26,"az":0.0,"el":-9.0,"ss":0.0,"used":false,"health":1},{"PRN":17,"gnssid":0,"svid":17,"az":314.0,"el":24.0,"ss":46.0,"used":true,"health":1},{"PRN":14,"gnssid":0,"svid":14,"az":280.0,"el":18.0,"ss":42.0,"used":true,"health":1},{"PRN":8,"gnssid":0,"svid":8,"az":176.0,"el":27.0,"ss":49.0,"used":true,"health":1},{"PRN":3,"gnssid":0,"svid":3,"az":239.0,"el":38.0,"ss":36.0,"used":true,"health":1},{"PRN":32,"gnssid":0,"svid":32,"az":61.0,"el":38.0,"ss":47.0,"used":true,"health":1},{"PRN":10,"gnssid":0,"svid":10,"az":0.0,"el":-9.0,"ss":0.0,"used":false,"health":1},{"PRN":21,"gnssid":0,"svid":21,"az":119.0,"el":78.0,"ss":46.0,"used":true,"health":1},{"PRN":22,"gnssid":0,"svid":22,"az":303.0,"el":20.0,"ss":36.0,"used":true,"health":1},{"PRN":7,"gnssid":0,"svid":7,"az":0.0,"el":-9.0,"ss":0.0,"used":false,"health":1}]}
{"class":"TPV","device":"/dev/ttyACM0","mode":3,"time":"2024-07-09T11:34:40.748Z","leapseconds":18,"ept":0.005,"lat":52.315809404,"lon":10.563521070,"altHAE":134.9239,"altMSL":91.0269,"alt":91.0269,"epx":14.966,"epy":38.170,"epv":39.100,"track":74.3278,"magtrack":77.5478,"magvar":3.2,"speed":0.024,"climb":-0.018,"eps":0.32,"epc":314.39,"ecefx":3841072.84,"ecefy":716306.37,"ecefz":5024468.18,"ecefvx":-0.02,"ecefvy":0.02,"ecefvz":-0.01,"ecefpAcc":4.38,"ecefvAcc":0.32,"velN":0.007,"velE":0.023,"velD":0.018,"geoidSep":43.897,"eph":21.090,"sep":38.570}
{"class":"SKY","device":"/dev/ttyACM0","time":"2024-07-09T11:34:40.500Z","gdop":2.35,"hdop":1.11,"pdop":2.03,"tdop":1.19,"xdop":1.00,"ydop":2.54,"vdop":1.70,"uSat":6}
{"class":"SKY","device":"/dev/ttyACM0","time":"2024-07-09T11:34:40.500Z","gdop":2.35,"hdop":1.11,"pdop":2.03,"tdop":1.19,"xdop":1.00,"ydop":2.54,"vdop":1.69,"uSat":6}
{"class":"TPV","device":"/dev/ttyACM0","mode":3,"time":"2024-07-09T11:34:40.748Z","leapseconds":18,"ept":0.005,"lat":52.315809404,"lon":10.563521070,"altHAE":134.9239,"altMSL":91.0269,"alt":91.0269,"epx":14.966,"epy":38.170,"epv":39.100,"track":74.3278,"magtrack":77.5478,"magvar":3.2,"speed":0.024,"climb":-0.018,"eps":307.82,"epc":314.39,"ecefx":3841072.84,"ecefy":716306.37,"ecefz":5024468.18,"ecefvx":-0.02,"ecefvy":0.02,"ecefvz":-0.01,"ecefpAcc":4.38,"ecefvAcc":0.32,"velN":0.007,"velE":0.023,"velD":0.018,"geoidSep":43.897,"eph":21.090,"sep":38.570}
{"class":"SKY","device":"/dev/ttyACM0","time":"2024-07-09T11:34:40.748Z","gdop":2.35,"hdop":1.11,"pdop":2.03,"tdop":1.19,"xdop":1.00,"ydop":2.54,"vdop":1.69,"nSat":14,"uSat":8,"satellites":[{"PRN":2,"gnssid":0,"svid":2,"az":289.0,"el":83.0,"ss":46.0,"used":true,"health":1},{"PRN":28,"gnssid":0,"svid":28,"az":0.0,"el":-9.0,"ss":0.0,"used":false,"health":1},{"PRN":25,"gnssid":0,"svid":25,"az":0.0,"el":-9.0,"ss":0.0,"used":false,"health":1},{"PRN":4,"gnssid":0,"svid":4,"az":0.0,"el":-9.0,"ss":0.0,"used":false,"health":1},{"PRN":26,"gnssid":0,"svid":26,"az":0.0,"el":-9.0,"ss":0.0,"used":false,"health":1},{"PRN":17,"gnssid":0,"svid":17,"az":314.0,"el":24.0,"ss":46.0,"used":true,"health":1},{"PRN":14,"gnssid":0,"svid":14,"az":280.0,"el":18.0,"ss":42.0,"used":true,"health":1},{"PRN":8,"gnssid":0,"svid":8,"az":176.0,"el":27.0,"ss":49.0,"used":true,"health":1},{"PRN":3,"gnssid":0,"svid":3,"az":239.0,"el":38.0,"ss":35.0,"used":true,"health":1},{"PRN":32,"gnssid":0,"svid":32,"az":61.0,"el":38.0,"ss":47.0,"used":true,"health":1},{"PRN":10,"gnssid":0,"svid":10,"az":0.0,"el":-9.0,"ss":0.0,"used":false,"health":1},{"PRN":21,"gnssid":0,"svid":21,"az":119.0,"el":78.0,"ss":46.0,"used":true,"health":1},{"PRN":22,"gnssid":0,"svid":22,"az":303.0,"el":20.0,"ss":35.0,"used":true,"health":1},{"PRN":7,"gnssid":0,"svid":7,"az":0.0,"el":-9.0,"ss":0.0,"used":false,"health":1}]}
{"class":"TPV","device":"/dev/ttyACM0","mode":3,"time":"2024-07-09T11:34:41.000Z","leapseconds":18,"ept":0.005,"lat":52.315809296,"lon":10.563521242,"altHAE":134.8953,"altMSL":90.9983,"alt":90.9983,"epx":14.966,"epy":38.170,"epv":38.870,"track":332.4711,"magtrack":335.6911,"magvar":3.2,"speed":0.017,"climb":0.001,"eps":0.33,"epc":309.40,"ecefx":3841072.83,"ecefy":716306.38,"ecefz":5024468.15,"ecefvx":-0.01,"ecefvy":-0.01,"ecefvz":0.01,"ecefpAcc":4.38,"ecefvAcc":0.33,"velN":0.015,"velE":-0.008,"velD":-0.001,"geoidSep":43.897,"eph":21.090,"sep":38.570}
{"class":"SKY","device":"/dev/ttyACM0","time":"2024-07-09T11:34:40.748Z","gdop":2.35,"hdop":1.11,"pdop":2.03,"tdop":1.19,"xdop":1.00,"ydop":2.54,"vdop":1.69,"uSat":6}
{"class":"SKY","device":"/dev/ttyACM0","time":"2024-07-09T11:34:40.748Z","gdop":2.35,"hdop":1.11,"pdop":2.03,"tdop":1.19,"xdop":1.00,"ydop":2.54,"vdop":1.70,"uSat":6}
{"class":"TPV","device":"/dev/ttyACM0","mode":3,"time":"2024-07-09T11:34:41.000Z","leapseconds":18,"ept":0.005,"lat":52.315809296,"lon":10.563521242,"altHAE":134.8953,"altMSL":90.9983,"alt":90.9983,"epx":14.966,"epy":38.170,"epv":38.870,"track":332.4711,"magtrack":335.6911,"magvar":3.2,"speed":0.017,"climb":0.001,"eps":302.93,"epc":309.40,"ecefx":3841072.83,"ecefy":716306.38,"ecefz":5024468.15,"ecefvx":-0.01,"ecefvy":-0.01,"ecefvz":0.01,"ecefpAcc":4.38,"ecefvAcc":0.33,"velN":0.015,"velE":-0.008,"velD":-0.001,"geoidSep":43.897,"eph":21.090,"sep":38.570}
{"class":"SKY","device":"/dev/ttyACM0","time":"2024-07-09T11:34:41.000Z","gdop":2.35,"hdop":1.11,"pdop":2.03,"tdop":1.19,"xdop":1.00,"ydop":2.54,"vdop":1.70,"nSat":14,"uSat":8,"satellites":[{"PRN":2,"gnssid":0,"svid":2,"az":289.0,"el":83.0,"ss":47.0,"used":true,"health":1},{"PRN":28,"gnssid":0,"svid":28,"az":0.0,"el":-9.0,"ss":0.0,"used":false,"health":1},{"PRN":25,"gnssid":0,"svid":25,"az":0.0,"el":-9.0,"ss":0.0,"used":false,"health":1},{"PRN":4,"gnssid":0,"svid":4,"az":0.0,"el":-9.0,"ss":0.0,"used":false,"health":1},{"PRN":26,"gnssid":0,"svid":26,"az":0.0,"el":-9.0,"ss":0.0,"used":false,"health":1},{"PRN":17,"gnssid":0,"svid":17,"az":314.0,"el":24.0,"ss":46.0,"used":true,"health":1},{"PRN":14,"gnssid":0,"svid":14,"az":280.0,"el":18.0,"ss":42.0,"used":true,"health":1},{"PRN":8,"gnssid":0,"svid":8,"az":176.0,"el":27.0,"ss":49.0,"used":true,"health":1},{"PRN":3,"gnssid":0,"svid":3,"az":239.0,"el":38.0,"ss":34.0,"used":true,"health":1},{"PRN":32,"gnssid":0,"svid":32,"az":61.0,"el":38.0,"ss":47.0,"used":true,"health":1},{"PRN":10,"gnssid":0,"svid":10,"az":0.0,"el":-9.0,"ss":0.0,"used":false,"health":1},{"PRN":21,"gnssid":0,"svid":21,"az":119.0,"el":78.0,"ss":46.0,"used":true,"health":1},{"PRN":22,"gnssid":0,"svid":22,"az":303.0,"el":20.0,"ss":36.0,"used":true,"health":1},{"PRN":7,"gnssid":0,"svid":7,"az":0.0,"el":-9.0,"ss":0.0,"used":false,"health":1}]}
{"class":"TPV","device":"/dev/ttyACM0","mode":3,"time":"2024-07-09T11:34:41.248Z","leapseconds":18,"ept":0.005,"lat":52.315809243,"lon":10.563521413,"altHAE":134.8746,"altMSL":90.9775,"alt":90.9775,"epx":14.966,"epy":38.170,"epv":39.100,"track":180.0000,"magtrack":183.2200,"magvar":3.2,"speed":0.006,"climb":-0.008,"eps":0.33,"epc":314.39,"ecefx":3841072.82,"ecefy":716306.39,"ecefz":5024468.13,"ecefvx":0.00,"ecefvy":0.00,"ecefvz":-0.01,"ecefpAcc":4.38,"ecefvAcc":0.33,"velN":-0.006,"velE":0.000,"velD":0.008,"geoidSep":43.897,"eph":21.090,"sep":38.570}
{"class":"SKY","device":"/dev/ttyACM0","time":"2024-07-09T11:34:41.000Z","gdop":2.35,"hdop":1.11,"pdop":2.03,"tdop":1.19,"xdop":1.00,"ydop":2.54,"vdop":1.70,"uSat":6}
{"class":"SKY","device":"/dev/ttyACM0","time":"2024-07-09T11:34:41.000Z","gdop":2.35,"hdop":1.11,"pdop":2.03,"tdop":1.19,"xdop":1.00,"ydop":2.54,"vdop":1.70,"uSat":6}
{"class":"TPV","device":"/dev/ttyACM0","mode":3,"time":"2024-07-09T11:34:41.248Z","leapseconds":18,"ept":0.005,"lat":52.315809243,"lon":10.563521413,"altHAE":134.8746,"altMSL":90.9775,"alt":90.9775,"epx":14.966,"epy":38.170,"epv":39.100,"track":180.0000,"magtrack":183.2200,"magvar":3.2,"speed":0.006,"climb":-0.008,"eps":307.82,"epc":314.39,"ecefx":3841072.82,"ecefy":716306.39,"ecefz":5024468.13,"ecefvx":0.00,"ecefvy":0.00,"ecefvz":-0.01,"ecefpAcc":4.38,"ecefvAcc":0.33,"velN":-0.006,"velE":0.000,"velD":0.008,"geoidSep":43.897,"eph":21.090,"sep":38.570}
{"class":"SKY","device":"/dev/ttyACM0","time":"2024-07-09T11:34:41.248Z","gdop":2.35,"hdop":1.11,"pdop":2.03,"tdop":1.19,"xdop":1.00,"ydop":2.54,"vdop":1.70,"nSat":14,"uSat":8,"satellites":[{"PRN":2,"gnssid":0,"svid":2,"az":289.0,"el":83.0,"ss":47.0,"used":true,"health":1},{"PRN":28,"gnssid":0,"svid":28,"az":0.0,"el":-9.0,"ss":0.0,"used":false,"health":1},{"PRN":25,"gnssid":0,"svid":25,"az":0.0,"el":-9.0,"ss":0.0,"used":false,"health":1},{"PRN":4,"gnssid":0,"svid":4,"az":0.0,"el":-9.0,"ss":0.0,"used":false,"health":1},{"PRN":26,"gnssid":0,"svid":26,"az":0.0,"el":-9.0,"ss":0.0,"used":false,"health":1},{"PRN":17,"gnssid":0,"svid":17,"az":314.0,"el":24.0,"ss":46.0,"used":true,"health":1},{"PRN":14,"gnssid":0,"svid":14,"az":280.0,"el":18.0,"ss":42.0,"used":true,"health":1},{"PRN":8,"gnssid":0,"svid":8,"az":176.0,"el":27.0,"ss":49.0,"used":true,"health":1},{"PRN":3,"gnssid":0,"svid":3,"az":239.0,"el":38.0,"ss":34.0,"used":true,"health":1},{"PRN":32,"gnssid":0,"svid":32,"az":61.0,"el":38.0,"ss":47.0,"used":true,"health":1},{"PRN":10,"gnssid":0,"svid":10,"az":0.0,"el":-9.0,"ss":0.0,"used":false,"health":1},{"PRN":21,"gnssid":0,"svid":21,"az":119.0,"el":78.0,"ss":46.0,"used":true,"health":1},{"PRN":22,"gnssid":0,"svid":22,"az":303.0,"el":20.0,"ss":36.0,"used":true,"health":1},{"PRN":7,"gnssid":0,"svid":7,"az":0.0,"el":-9.0,"ss":0.0,"used":false,"health":1}]}
{"class":"TPV","device":"/dev/ttyACM0","mode":3,"time":"2024-07-09T11:34:41.500Z","leapseconds":18,"ept":0.005,"lat":52.315809302,"lon":10.563521755,"altHAE":134.8569,"altMSL":90.9599,"alt":90.9599,"epx":14.966,"epy":38.170,"epv":39.100,"track":47.7243,"magtrack":50.9443,"magvar":3.2,"speed":0.002,"climb":-0.014,"eps":0.32,"epc":310.32,"ecefx":3841072.80,"ecefy":716306.41,"ecefz":5024468.12,"ecefvx":-0.01,"ecefvy":0.00,"ecefvz":-0.01,"ecefpAcc":4.38,"ecefvAcc":0.32,"velN":0.002,"velE":0.002,"velD":0.014,"geoidSep":43.897,"eph":21.090,"sep":38.570}
{"class":"SKY","device":"/dev/ttyACM0","time":"2024-07-09T11:34:41.248Z","gdop":2.35,"hdop":1.11,"pdop":2.03,"tdop":1.19,"xdop":1.00,"ydop":2.54,"vdop":1.70,"uSat":6}
{"class":"SKY","device":"/dev/ttyACM0","time":"2024-07-09T11:34:41.248Z","gdop":2.35,"hdop":1.11,"pdop":2.03,"tdop":1.19,"xdop":1.00,"ydop":2.54,"vdop":1.69,"uSat":6}
{"class":"TPV","device":"/dev/ttyACM0","mode":3,"time":"2024-07-09T11:34:41.500Z","leapseconds":18,"ept":0.005,"lat":52.315809302,"lon":10.563521755,"altHAE":134.8569,"altMSL":90.9599,"alt":90.9599,"epx":14.966,"epy":38.170,"epv":39.100,"track":47.7243,"magtrack":50.9443,"magvar":3.2,"speed":0.002,"climb":-0.014,"eps":302.93,"epc":310.32,"ecefx":3841072.80,"ecefy":716306.41,"ecefz":5024468.12,"ecefvx":-0.01,"ecefvy":0.00,"ecefvz":-0.01,"ecefpAcc":4.38,"ecefvAcc":0.32,"velN":0.002,"velE":0.002,"velD":0.014,"geoidSep":43.897,"eph":21.090,"sep":38.570}
{"class":"SKY","device":"/dev/ttyACM0","time":"2024-07-09T11:34:41.500Z","gdop":2.35,"hdop":1.11,"pdop":2.03,"tdop":1.19,"xdop":1.00,"ydop":2.54,"vdop":1.69,"nSat":14,"uSat":8,"satellites":[{"PRN":2,"gnssid":0,"svid":2,"az":289.0,"el":83.0,"ss":47.0,"used":true,"health":1},{"PRN":28,"gnssid":0,"svid":28,"az":0.0,"el":-9.0,"ss":0.0,"used":false,"health":1},{"PRN":25,"gnssid":0,"svid":25,"az":0.0,"el":-9.0,"ss":0.0,"used":false,"health":1},{"PRN":4,"gnssid":0,"svid":4,"az":0.0,"el":-9.0,"ss":0.0,"used":false,"health":1},{"PRN":26,"gnssid":0,"svid":26,"az":0.0,"el":-9.0,"ss":0.0,"used":false,"health":1},{"PRN":17,"gnssid":0,"svid":17,"az":314.0,"el":24.0,"ss":46.0,"used":true,"health":1},{"PRN":14,"gnssid":0,"svid":14,"az":280.0,"el":18.0,"ss":42.0,"used":true,"health":1},{"PRN":8,"gnssid":0,"svid":8,"az":176.0,"el":27.0,"ss":49.0,"used":true,"health":1},{"PRN":3,"gnssid":0,"svid":3,"az":239.0,"el":38.0,"ss":35.0,"used":true,"health":1},{"PRN":32,"gnssid":0,"svid":32,"az":61.0,"el":38.0,"ss":47.0,"used":true,"health":1},{"PRN":10,"gnssid":0,"svid":10,"az":0.0,"el":-9.0,"ss":0.0,"used":false,"health":1},{"PRN":21,"gnssid":0,"svid":21,"az":119.0,"el":78.0,"ss":46.0,"used":true,"health":1},{"PRN":22,"gnssid":0,"svid":22,"az":303.0,"el":20.0,"ss":36.0,"used":true,"health":1},{"PRN":7,"gnssid":0,"svid":7,"az":0.0,"el":-9.0,"ss":0.0,"used":false,"health":1}]}
{"class":"TPV","device":"/dev/ttyACM0","mode":3,"time":"2024-07-09T11:34:41.748Z","leapseconds":18,"ept":0.005,"lat":52.315809321,"lon":10.563522124,"altHAE":134.8174,"altMSL":90.9203,"alt":90.9203,"epx":14.966,"epy":38.170,"epv":38.870,"track":241.5149,"magtrack":244.7349,"magvar":3.2,"speed":0.013,"climb":0.005,"eps":0.32,"epc":314.39,"ecefx":3841072.77,"ecefy":716306.43,"ecefz":5024468.09,"ecefvx":0.01,"ecefvy":-0.01,"ecefvz":0.00,"ecefpAcc":4.38,"ecefvAcc":0.32,"velN":-0.006,"velE":-0.012,"velD":-0.005,"geoidSep":43.897,"eph":21.090,"sep":38.570}
{"class":"SKY","device":"/dev/ttyACM0","time":"2024-07-09T11:34:41.500Z","gdop":2.35,"hdop":1.11,"pdop":2.03,"tdop":1.19,"xdop":1.00,"ydop":2.54,"vdop":1.69,"uSat":6}
{"class":"SKY","device":"/dev/ttyACM0","time":"2024-07-09T11:34:41.500Z","gdop":2.35,"hdop":1.11,"pdop":2.03,"tdop":1.19,"xdop":1.00,"ydop":2.54,"vdop":1.70,"uSat":6}
{"class":"TPV","device":"/dev/ttyACM0","mode":3,"time":"2024-07-09T11:34:41.748Z","leapseconds":18,"ept":0.005,"lat":52.315809321,"lon":10.563522124,"altHAE":134.8174,"altMSL":90.9203,"alt":90.9203,"epx":14.966,"epy":38.170,"epv":38.870,"track":241.5149,"magtrack":244.7349,"magvar":3.2,"speed":0.013,"climb":0.005,"eps":307.82,"epc":314.39,"ecefx":3841072.77,"ecefy":716306.43,"ecefz":5024468.09,"ecefvx":0.01,"ecefvy":-0.01,"ecefvz":0.00,"ecefpAcc":4.38,"ecefvAcc":0.32,"velN":-0.006,"velE":-0.012,"velD":-0.005,"geoidSep":43.897,"eph":21.090,"sep":38.570}
{"class":"SKY","device":"/dev/ttyACM0","time":"2024-07-09T11:34:41.748Z","gdop":2.35,"hdop":1.11,"pdop":2.03,"tdop":1.19,"xdop":1.00,"ydop":2.54,"vdop":1.70,"nSat":14,"uSat":8,"satellites":[{"PRN":2,"gnssid":0,"svid":2,"az":289.0,"el":83.0,"ss":46.0,"used":true,"health":1},{"PRN":28,"gnssid":0,"svid":28,"az":0.0,"el":-9.0,"ss":0.0,"used":false,"health":1},{"PRN":25,"gnssid":0,"svid":25,"az":0.0,"el":-9.0,"ss":0.0,"used":false,"health":1},{"PRN":4,"gnssid":0,"svid":4,"az":0.0,"el":-9.0,"ss":0.0,"used":false,"health":1},{"PRN":26,"gnssid":0,"svid":26,"az":0.0,"el":-9.0,"ss":0.0,"used":false,"health":1},{"PRN":17,"gnssid":0,"svid":17,"az":314.0,"el":24.0,"ss":45.0,"used":true,"health":1},{"PRN":14,"gnssid":0,"svid":14,"az":280.0,"el":18.0,"ss":42.0,"used":true,"health":1},{"PRN":8,"gnssid":0,"svid":8,"az":176.0,"el":27.0,"ss":49.0,"used":true,"health":1},{"PRN":3,"gnssid":0,"svid":3,"az":239.0,"el":38.0,"ss":35.0,"used":true,"health":1},{"PRN":32,"gnssid":0,"svid":32,"az":61.0,"el":38.0,"ss":47.0,"used":true,"health":1},{"PRN":10,"gnssid":0,"svid":10,"az":0.0,"el":-9.0,"ss":0.0,"used":false,"health":1},{"PRN":21,"gnssid":0,"svid":21,"az":119.0,"el":78.0,"ss":46.0,"used":true,"health":1},{"PRN":22,"gnssid":0,"svid":22,"az":303.0,"el":20.0,"ss":35.0,"used":true,"health":1},{"PRN":7,"gnssid":0,"svid":7,"az":0.0,"el":-9.0,"ss":0.0,"used":false,"health":1}]}
{"class":"TPV","device":"/dev/ttyACM0","mode":3,"time":"2024-07-09T11:34:42.000Z","leapseconds":18,"ept":0.005,"lat":52.315809325,"lon":10.563522466,"altHAE":134.7918,"altMSL":90.8947,"alt":90.8947,"epx":14.966,"epy":38.170,"epv":39.100,"track":61.5149,"magtrack":64.7349,"magvar":3.2,"speed":0.013,"climb":-0.005,"eps":0.31,"epc":309.40,"ecefx":3841072.75,"ecefy":716306.45,"ecefz":5024468.07,"ecefvx":-0.01,"ecefvy":0.01,"ecefvz":0.00,"ecefpAcc":4.38,"ecefvAcc":0.31,"velN":0.006,"velE":0.012,"velD":0.005,"geoidSep":43.897,"eph":21.090,"sep":38.570}
{"class":"SKY","device":"/dev/ttyACM0","time":"2024-07-09T11:34:41.748Z","gdop":2.35,"hdop":1.11,"pdop":2.03,"tdop":1.19,"xdop":1.00,"ydop":2.54,"vdop":1.70,"uSat":6}
{"class":"SKY","device":"/dev/ttyACM0","time":"2024-07-09T11:34:41.748Z","gdop":2.35,"hdop":1.11,"pdop":2.03,"tdop":1.19,"xdop":1.00,"ydop":2.54,"vdop":1.70,"uSat":6}
{"class":"TPV","device":"/dev/ttyACM0","mode":3,"time":"2024-07-09T11:34:42.000Z","leapseconds":18,"ept":0.005,"lat":52.315809325,"lon":10.563522466,"altHAE":134.7918,"altMSL":90.8947,"alt":90.8947,"epx":14.966,"epy":38.170,"epv":39.100,"track":61.5149,"magtrack":64.7349,"magvar":3.2,"speed":0.013,"climb":-0.005,"eps":302.93,"epc":309.40,"ecefx":3841072.75,"ecefy":716306.45,"ecefz":5024468.07,"ecefvx":-0.01,"ecefvy":0.01,"ecefvz":0.00,"ecefpAcc":4.38,"ecefvAcc":0.31,"velN":0.006,"velE":0.012,"velD":0.005,"geoidSep":43.897,"eph":21.090,"sep":38.570}
{"class":"SKY","device":"/dev/ttyACM0","time":"2024-07-09T11:34:42.000Z","gdop":2.35,"hdop":1.11,"pdop":2.03,"tdop":1.19,"xdop":1.00,"ydop":2.54,"vdop":1.70,"nSat":14,"uSat":8,"satellites":[{"PRN":2,"gnssid":0,"svid":2,"az":289.0,"el":83.0,"ss":46.0,"used":true,"health":1},{"PRN":28,"gnssid":0,"svid":28,"az":0.0,"el":-9.0,"ss":0.0,"used":false,"health":1},{"PRN":25,"gnssid":0,"svid":25,"az":0.0,"el":-9.0,"ss":0.0,"used":false,"health":1},{"PRN":4,"gnssid":0,"svid":4,"az":0.0,"el":-9.0,"ss":0.0,"used":false,"health":1},{"PRN":26,"gnssid":0,"svid":26,"az":0.0,"el":-9.0,"ss":0.0,"used":false,"health":1},{"PRN":17,"gnssid":0,"svid":17,"az":314.0,"el":24.0,"ss":45.0,"used":true,"health":1},{"PRN":14,"gnssid":0,"svid":14,"az":280.0,"el":18.0,"ss":42.0,"used":true,"health":1},{"PRN":8,"gnssid":0,"svid":8,"az":176.0,"el":27.0,"ss":49.0,"used":true,"health":1},{"PRN":3,"gnssid":0,"svid":3,"az":239.0,"el":38.0,"ss":35.0,"used":true,"health":1},{"PRN":32,"gnssid":0,"svid":32,"az":61.0,"el":38.0,"ss":47.0,"used":true,"health":1},{"PRN":10,"gnssid":0,"svid":10,"az":0.0,"el":-9.0,"ss":0.0,"used":false,"health":1},{"PRN":21,"gnssid":0,"svid":21,"az":119.0,"el":78.0,"ss":46.0,"used":true,"health":1},{"PRN":22,"gnssid":0,"svid":22,"az":303.0,"el":20.0,"ss":35.0,"used":true,"health":1},{"PRN":7,"gnssid":0,"svid":7,"az":0.0,"el":-9.0,"ss":0.0,"used":false,"health":1}]}
{"class":"TPV","device":"/dev/ttyACM0","mode":3,"time":"2024-07-09T11:34:42.248Z","leapseconds":18,"ept":0.005,"lat":52.315809217,"lon":10.563522637,"altHAE":134.7631,"altMSL":90.8661,"alt":90.8661,"epx":14.966,"epy":38.170,"epv":39.100,"track":13.2595,"magtrack":16.4794,"magvar":3.2,"speed":0.008,"climb":-0.006,"eps":0.33,"epc":315.32,"ecefx":3841072.74,"ecefy":716306.46,"ecefz":5024468.04,"ecefvx":-0.01,"ecefvy":0.00,"ecefvz":0.00,"ecefpAcc":4.38,"ecefvAcc":0.33,"velN":0.008,"velE":0.002,"velD":0.006,"geoidSep":43.897,"eph":21.090,"sep":38.570}
{"class":"SKY","device":"/dev/ttyACM0","time":"2024-07-09T11:34:42.000Z","gdop":2.35,"hdop":1.11,"pdop":2.03,"tdop":1.19,"xdop":1.00,"ydop":2.54,"vdop":1.70,"uSat":6}
{"class":"SKY","device":"/dev/ttyACM0","time":"2024-07-09T11:34:42.000Z","gdop":2.35,"hdop":1.11,"pdop":2.03,"tdop":1.19,"xdop":1.00,"ydop":2.54,"vdop":1.69,"uSat":6}
{"class":"TPV","device":"/dev/ttyACM0","mode":3,"time":"2024-07-09T11:34:42.248Z","leapseconds":18,"ept":0.005,"lat":52.315809217,"lon":10.563522637,"altHAE":134.7631,"altMSL":90.8661,"alt":90.8661,"epx":14.966,"epy":38.170,"epv":39.100,"track":13.2595,"magtrack":16.4794,"magvar":3.2,"speed":0.008,"climb":-0.006,"eps":307.82,"epc":315.32,"ecefx":3841072.74,"ecefy":716306.46,"ecefz":5024468.04,"ecefvx":-0.01,"ecefvy":0.00,"ecefvz":0.00,"ecefpAcc":4.38,"ecefvAcc":0.33,"velN":0.008,"velE":0.002,"velD":0.006,"geoidSep":43.897,"eph":21.090,"sep":38.570}
{"class":"SKY","device":"/dev/ttyACM0","time":"2024-07-09T11:34:42.248Z","gdop":2.35,"hdop":1.11,"pdop":2.03,"tdop":1.19,"xdop":1.00,"ydop":2.54,"vdop":1.69,"nSat":14,"uSat":8,"satellites":[{"PRN":2,"gnssid":0,"svid":2,"az":289.0,"el":83.0,"ss":46.0,"used":true,"health":1},{"PRN":28,"gnssid":0,"svid":28,"az":0.0,"el":-9.0,"ss":0.0,"used":false,"health":1},{"PRN":25,"gnssid":0,"svid":25,"az":0.0,"el":-9.0,"ss":0.0,"used":false,"health":1},{"PRN":4,"gnssid":0,"svid":4,"az":0.0,"el":-9.0,"ss":0.0,"used":false,"health":1},{"PRN":26,"gnssid":0,"svid":26,"az":0.0,"el":-9.0,"ss":0.0,"used":false,"health":1},{"PRN":17,"gnssid":0,"svid":17,"az":314.0,"el":24.0,"ss":45.0,"used":true,"health":1},{"PRN":14,"gnssid":0,"svid":14,"az":280.0,"el":18.0,"ss":42.0,"used":true,"health":1},{"PRN":8,"gnssid":0,"svid":8,"az":176.0,"el":27.0,"ss":49.0,"used":true,"health":1},{"PRN":3,"gnssid":0,"svid":3,"az":239.0,"el":38.0,"ss":34.0,"used":true,"health":1},{"PRN":32,"gnssid":0,"svid":32,"az":61.0,"el":38.0,"ss":47.0,"used":true,"health":1},{"PRN":10,"gnssid":0,"svid":10,"az":0.0,"el":-9.0,"ss":0.0,"used":false,"health":1},{"PRN":21,"gnssid":0,"svid":21,"az":119.0,"el":78.0,"ss":46.0,"used":true,"health":1},{"PRN":22,"gnssid":0,"svid":22,"az":303.0,"el":20.0,"ss":35.0,"used":true,"health":1},{"PRN":7,"gnssid":0,"svid":7,"az":0.0,"el":-9.0,"ss":0.0,"used":false,"health":1}]}
{"class":"TPV","device":"/dev/ttyACM0","mode":3,"time":"2024-07-09T11:34:42.500Z","leapseconds":18,"ept":0.005,"lat":52.315809179,"lon":10.563522835,"altHAE":134.7285,"altMSL":90.8314,"alt":90.8314,"epx":14.966,"epy":38.170,"epv":38.870,"track":273.2883,"magtrack":276.5082,"magvar":3.2,"speed":0.022,"climb":0.012,"eps":0.32,"epc":309.40,"ecefx":3841072.72,"ecefy":716306.47,"ecefz":5024468.01,"ecefvx":0.01,"ecefvy":-0.02,"ecefvz":0.01,"ecefpAcc":4.38,"ecefvAcc":0.32,"velN":0.001,"velE":-0.021,"velD":-0.012,"geoidSep":43.897,"eph":21.090,"sep":38.380}
{"class":"SKY","device":"/dev/ttyACM0","time":"2024-07-09T11:34:42.248Z","gdop":2.35,"hdop":1.11,"pdop":2.02,"tdop":1.19,"xdop":1.00,"ydop":2.54,"vdop":1.69,"uSat":6}
{"class":"SKY","device":"/dev/ttyACM0","time":"2024-07-09T11:34:42.248Z","gdop":2.35,"hdop":1.11,"pdop":2.02,"tdop":1.19,"xdop":1.00,"ydop":2.54,"vdop":1.69,"uSat":6}
{"class":"TPV","device":"/dev/ttyACM0","mode":3,"time":"2024-07-09T11:34:42.500Z","leapseconds":18,"ept":0.005,"lat":52.315809179,"lon":10.563522835,"altHAE":134.7285,"altMSL":90.8314,"alt":90.8314,"epx":14.966,"epy":38.170,"epv":38.870,"track":273.2883,"magtrack":276.5082,"magvar":3.2,"speed":0.022,"climb":0.012,"eps":302.93,"epc":309.40,"ecefx":3841072.72,"ecefy":716306.47,"ecefz":5024468.01,"ecefvx":0.01,"ecefvy":-0.02,"ecefvz":0.01,"ecefpAcc":4.38,"ecefvAcc":0.32,"velN":0.001,"velE":-0.021,"velD":-0.012,"geoidSep":43.897,"eph":21.090,"sep":38.380}
{"class":"SKY","device":"/dev/ttyACM0","time":"2024-07-09T11:34:42.500Z","gdop":2.35,"hdop":1.11,"pdop":2.02,"tdop":1.19,"xdop":1.00,"ydop":2.54,"vdop":1.69,"nSat":14,"uSat":8,"satellites":[{"PRN":2,"gnssid":0,"svid":2,"az":289.0,"el":83.0,"ss":46.0,"used":true,"health":1},{"PRN":28,"gnssid":0,"svid":28,"az":0.0,"el":-9.0,"ss":0.0,"used":false,"health":1},{"PRN":25,"gnssid":0,"svid":25,"az":0.0,"el":-9.0,"ss":0.0,"used":false,"health":1},{"PRN":4,"gnssid":0,"svid":4,"az":0.0,"el":-9.0,"ss":0.0,"used":false,"health":1},{"PRN":26,"gnssid":0,"svid":26,"az":0.0,"el":-9.0,"ss":0.0,"used":false,"health":1},{"PRN":17,"gnssid":0,"svid":17,"az":314.0,"el":24.0,"ss":46.0,"used":true,"health":1},{"PRN":14,"gnssid":0,"svid":14,"az":280.0,"el":18.0,"ss":42.0,"used":true,"health":1},{"PRN":8,"gnssid":0,"svid":8,"az":176.0,"el":27.0,"ss":49.0,"used":true,"health":1},{"PRN":3,"gnssid":0,"svid":3,"az":239.0,"el":38.0,"ss":34.0,"used":true,"health":1},{"PRN":32,"gnssid":0,"svid":32,"az":61.0,"el":38.0,"ss":47.0,"used":true,"health":1},{"PRN":10,"gnssid":0,"svid":10,"az":0.0,"el":-9.0,"ss":0.0,"used":false,"health":1},{"PRN":21,"gnssid":0,"svid":21,"az":119.0,"el":78.0,"ss":46.0,"used":true,"health":1},{"PRN":22,"gnssid":0,"svid":22,"az":303.0,"el":20.0,"ss":36.0,"used":true,"health":1},{"PRN":7,"gnssid":0,"svid":7,"az":0.0,"el":-9.0,"ss":0.0,"used":false,"health":1}]}
{"class":"TPV","device":"/dev/ttyACM0","mode":3,"time":"2024-07-09T11:34:42.748Z","leapseconds":18,"ept":0.005,"lat":52.315809126,"lon":10.563523006,"altHAE":134.7078,"altMSL":90.8107,"alt":90.8107,"epx":14.966,"epy":38.170,"epv":38.870,"track":139.0949,"magtrack":142.3148,"magvar":3.2,"speed":0.012,"climb":0.007,"eps":0.33,"epc":313.47,"ecefx":3841072.71,"ecefy":716306.48,"ecefz":5024467.99,"ecefvx":0.01,"ecefvy":0.01,"ecefvz":0.00,"ecefpAcc":4.38,"ecefvAcc":0.33,"velN":-0.009,"velE":0.008,"velD":-0.007,"geoidSep":43.897,"eph":21.090,"sep":38.570}
{"class":"SKY","device":"/dev/ttyACM0","time":"2024-07-09T11:34:42.500Z","gdop":2.35,"hdop":1.11,"pdop":2.03,"tdop":1.19,"xdop":1.00,"ydop":2.54,"vdop":1.69,"uSat":6}
{"class":"SKY","device":"/dev/ttyACM0","time":"2024-07-09T11:34:42.500Z","gdop":2.35,"hdop":1.11,"pdop":2.03,"tdop":1.19,"xdop":1.00,"ydop":2.54,"vdop":1.69,"uSat":6}
{"class":"TPV","device":"/dev/ttyACM0","mode":3,"time":"2024-07-09T11:34:42.748Z","leapseconds":18,"ept":0.005,"lat":52.315809126,"lon":10.563523006,"altHAE":134.7078,"altMSL":90.8107,"alt":90.8107,"epx":14.966,"epy":38.170,"epv":38.870,"track":139.0949,"magtrack":142.3148,"magvar":3.2,"speed":0.012,"climb":0.007,"eps":307.82,"epc":313.47,"ecefx":3841072.71,"ecefy":716306.48,"ecefz":5024467.99,"ecefvx":0.01,"ecefvy":0.01,"ecefvz":0.00,"ecefpAcc":4.38,"ecefvAcc":0.33,"velN":-0.009,"velE":0.008,"velD":-0.007,"geoidSep":43.897,"eph":21.090,"sep":38.570}
{"class":"SKY","device":"/dev/ttyACM0","time":"2024-07-09T11:34:42.748Z","gdop":2.35,"hdop":1.11,"pdop":2.03,"tdop":1.19,"xdop":1.00,"ydop":2.54,"vdop":1.69,"nSat":14,"uSat":8,"satellites":[{"PRN":2,"gnssid":0,"svid":2,"az":289.0,"el":83.0,"ss":47.0,"used":true,"health":1},{"PRN":28,"gnssid":0,"svid":28,"az":0.0,"el":-9.0,"ss":0.0,"used":false,"health":1},{"PRN":25,"gnssid":0,"svid":25,"az":0.0,"el":-9.0,"ss":0.0,"used":false,"health":1},{"PRN":4,"gnssid":0,"svid":4,"az":0.0,"el":-9.0,"ss":0.0,"used":false,"health":1},{"PRN":26,"gnssid":0,"svid":26,"az":0.0,"el":-9.0,"ss":0.0,"used":false,"health":1},{"PRN":17,"gnssid":0,"svid":17,"az":314.0,"el":24.0,"ss":46.0,"used":true,"health":1},{"PRN":14,"gnssid":0,"svid":14,"az":280.0,"el":18.0,"ss":43.0,"used":true,"health":1},{"PRN":8,"gnssid":0,"svid":8,"az":176.0,"el":27.0,"ss":49.0,"used":true,"health":1},{"PRN":3,"gnssid":0,"svid":3,"az":239.0,"el":38.0,"ss":34.0,"used":true,"health":1},{"PRN":32,"gnssid":0,"svid":32,"az":61.0,"el":38.0,"ss":47.0,"used":true,"health":1},{"PRN":10,"gnssid":0,"svid":10,"az":0.0,"el":-9.0,"ss":0.0,"used":false,"health":1},{"PRN":21,"gnssid":0,"svid":21,"az":119.0,"el":78.0,"ss":46.0,"used":true,"health":1},{"PRN":22,"gnssid":0,"svid":22,"az":303.0,"el":20.0,"ss":36.0,"used":true,"health":1},{"PRN":7,"gnssid":0,"svid":7,"az":0.0,"el":-9.0,"ss":0.0,"used":false,"health":1}]}
{"class":"TPV","device":"/dev/ttyACM0","mode":3,"time":"2024-07-09T11:34:43.000Z","leapseconds":18,"ept":0.005,"lat":52.315809018,"lon":10.563523177,"altHAE":134.6792,"altMSL":90.7821,"alt":90.7821,"epx":14.966,"epy":38.170,"epv":38.870,"track":98.3953,"magtrack":101.6153,"magvar":3.2,"speed":0.010,"climb":0.001,"eps":0.32,"epc":308.49,"ecefx":3841072.70,"ecefy":716306.49,"ecefz":5024467.96,"ecefvx":0.00,"ecefvy":0.01,"ecefvz":0.00,"ecefpAcc":4.38,"ecefvAcc":0.32,"velN":-0.001,"velE":0.010,"velD":-0.001,"geoidSep":43.897,"eph":21.090,"sep":38.570}
{"class":"SKY","device":"/dev/ttyACM0","time":"2024-07-09T11:34:42.748Z","gdop":2.35,"hdop":1.11,"pdop":2.03,"tdop":1.19,"xdop":1.00,"ydop":2.54,"vdop":1.69,"uSat":6}
{"class":"SKY","device":"/dev/ttyACM0","time":"2024-07-09T11:34:42.748Z","gdop":2.35,"hdop":1.11,"pdop":2.03,"tdop":1.19,"xdop":1.00,"ydop":2.54,"vdop":1.69,"uSat":6}
{"class":"TPV","device":"/dev/ttyACM0","mode":3,"time":"2024-07-09T11:34:43.000Z","leapseconds":18,"ept":0.005,"lat":52.315809018,"lon":10.563523177,"altHAE":134.6792,"altMSL":90.7821,"alt":90.7821,"epx":14.966,"epy":38.170,"epv":38.870,"track":98.3953,"magtrack":101.6153,"magvar":3.2,"speed":0.010,"climb":0.001,"eps":302.93,"epc":308.49,"ecefx":3841072.70,"ecefy":716306.49,"ecefz":5024467.96,"ecefvx":0.00,"ecefvy":0.01,"ecefvz":0.00,"ecefpAcc":4.38,"ecefvAcc":0.32,"velN":-0.001,"velE":0.010,"velD":-0.001,"geoidSep":43.897,"eph":21.090,"sep":38.570}
{"class":"SKY","device":"/dev/ttyACM0","time":"2024-07-09T11:34:43.000Z","gdop":2.35,"hdop":1.11,"pdop":2.03,"tdop":1.19,"xdop":1.00,"ydop":2.54,"vdop":1.69,"nSat":14,"uSat":8,"satellites":[{"PRN":2,"gnssid":0,"svid":2,"az":289.0,"el":83.0,"ss":47.0,"used":true,"health":1},{"PRN":28,"gnssid":0,"svid":28,"az":0.0,"el":-9.0,"ss":0.0,"used":false,"health":1},{"PRN":25,"gnssid":0,"svid":25,"az":0.0,"el":-9.0,"ss":0.0,"used":false,"health":1},{"PRN":4,"gnssid":0,"svid":4,"az":0.0,"el":-9.0,"ss":0.0,"used":false,"health":1},{"PRN":26,"gnssid":0,"svid":26,"az":0.0,"el":-9.0,"ss":0.0,"used":false,"health":1},{"PRN":17,"gnssid":0,"svid":17,"az":314.0,"el":24.0,"ss":46.0,"used":true,"health":1},{"PRN":14,"gnssid":0,"svid":14,"az":280.0,"el":18.0,"ss":43.0,"used":true,"health":1},{"PRN":8,"gnssid":0,"svid":8,"az":176.0,"el":27.0,"ss":49.0,"used":true,"health":1},{"PRN":3,"gnssid":0,"svid":3,"az":239.0,"el":38.0,"ss":34.0,"used":true,"health":1},{"PRN":32,"gnssid":0,"svid":32,"az":61.0,"el":38.0,"ss":47.0,"used":true,"health":1},{"PRN":10,"gnssid":0,"svid":10,"az":0.0,"el":-9.0,"ss":0.0,"used":false,"health":1},{"PRN":21,"gnssid":0,"svid":21,"az":119.0,"el":78.0,"ss":46.0,"used":true,"health":1},{"PRN":22,"gnssid":0,"svid":22,"az":303.0,"el":20.0,"ss":36.0,"used":true,"health":1},{"PRN":7,"gnssid":0,"svid":7,"az":0.0,"el":-9.0,"ss":0.0,"used":false,"health":1}]}
{"class":"TPV","device":"/dev/ttyACM0","mode":3,"time":"2024-07-09T11:34:43.248Z","leapseconds":18,"ept":0.005,"lat":52.315808910,"lon":10.563523348,"altHAE":134.6505,"altMSL":90.7535,"alt":90.7535,"epx":14.966,"epy":38.170,"epv":38.870,"track":0.0000,"magtrack":3.2200,"magvar":3.2,"speed":0.000,"climb":0.000,"eps":0.33,"epc":313.47,"ecefx":3841072.69,"ecefy":716306.50,"ecefz":5024467.93,"ecefvx":0.00,"ecefvy":0.00,"ecefvz":0.00,"ecefpAcc":4.38,"ecefvAcc":0.33,"velN":0.000,"velE":0.000,"velD":0.000,"geoidSep":43.897,"eph":21.090,"sep":38.570}
{"class":"SKY","device":"/dev/ttyACM0","time":"2024-07-09T11:34:43.000Z","gdop":2.35,"hdop":1.11,"pdop":2.03,"tdop":1.19,"xdop":1.00,"ydop":2.54,"vdop":1.69,"uSat":6}
{"class":"SKY","device":"/dev/ttyACM0","time":"2024-07-09T11:34:43.000Z","gdop":2.35,"hdop":1.11,"pdop":2.03,"tdop":1.19,"xdop":1.00,"ydop":2.54,"vdop":1.69,"uSat":6}
