{"class":"VERSION","release":"3.25","rev":"3.25","proto_major":3,"proto_minor":15}
{"class":"DEVICES","devices":[{"class":"DEVICE","path":"/dev/ttyACM0","driver":"u-blox","subtype":"SW 5.00    May 11 2006 14:40:17,HW 00040001","subtype1":"M4T1.2  May 11 2006 14:40:17","activated":"2024-07-09T11:40:44.402Z","flags":1,"native":1,"bps":57600,"parity":"N","stopbits":1,"cycle":1.00,"mincycle":0.02}]}
{"class":"WATCH","enable":true,"json":true,"nmea":false,"raw":0,"scaled":false,"timing":false,"split24":false,"pps":false}
{"class":"TPV","device":"/dev/ttyACM0","mode":3,"time":"2024-07-09T11:38:57.500Z","leapseconds":18,"ept":0.005,"lat":52.315855903,"lon":10.561806781,"altHAE":137.2957,"altMSL":93.3971,"alt":93.3971,"epx":14.966,"epy":38.170,"epv":58.190,"track":153.5842,"magtrack":156.8036,"magvar":3.2,"speed":0.022,"climb":-0.023,"eps":0.43,"epc":461.82,"ecefx":3841091.67,"ecefy":716190.96,"ecefz":5024473.22,"ecefvx":0.00,"ecefvy":0.01,"ecefvz":-0.03,"ecefpAcc":4.30,"ecefvAcc":0.43,"velN":-0.020,"velE":0.010,"velD":0.023,"geoidSep":43.899,"eph":35.340,"sep":59.660}
{"class":"SKY","device":"/dev/ttyACM0","time":"2024-07-09T11:38:57.248Z","gdop":3.73,"hdop":1.86,"pdop":3.14,"tdop":2.02,"xdop":1.00,"ydop":2.54,"vdop":2.53,"uSat":6}
{"class":"SKY","device":"/dev/ttyACM0","time":"2024-07-09T11:38:57.248Z","gdop":3.73,"hdop":1.86,"pdop":3.14,"tdop":2.02,"xdop":1.00,"ydop":2.54,"vdop":2.53,"uSat":6}
{"class":"TPV","device":"/dev/ttyACM0","mode":3,"time":"2024-07-09T11:38:57.500Z","leapseconds":18,"ept":0.005,"lat":52.315855903,"lon":10.561806781,"altHAE":137.2957,"altMSL":93.3971,"alt":93.3971,"epx":14.966,"epy":38.170,"epv":58.190,"track":153.5842,"magtrack":156.8036,"magvar":3.2,"speed":0.022,"climb":-0.023,"eps":302.93,"epc":461.82,"ecefx":3841091.67,"ecefy":716190.96,"ecefz":5024473.22,"ecefvx":0.00,"ecefvy":0.01,"ecefvz":-0.03,"ecefpAcc":4.30,"ecefvAcc":0.43,"velN":-0.020,"velE":0.010,"velD":0.023,"geoidSep":43.899,"eph":35.340,"sep":59.660}
{"class":"SKY","device":"/dev/ttyACM0","time":"2024-07-09T11:38:57.500Z","gdop":3.73,"hdop":1.86,"pdop":3.14,"tdop":2.02,"xdop":1.00,"ydop":2.54,"vdop":2.53,"nSat":14,"uSat":7,"satellites":[{"PRN":2,"gnssid":0,"svid":2,"az":285.0,"el":85.0,"ss":49.0,"used":true,"health":1},{"PRN":15,"gnssid":0,"svid":15,"az":0.0,"el":-9.0,"ss":0.0,"used":false,"health":1},{"PRN":28,"gnssid":0,"svid":28,"az":99.0,"el":6.0,"ss":32.0,"used":false,"health":1},{"PRN":31,"gnssid":0,"svid":31,"az":0.0,"el":-9.0,"ss":0.0,"used":false,"health":1},{"PRN":12,"gnssid":0,"svid":12,"az":0.0,"el":-9.0,"ss":0.0,"used":false,"health":1},{"PRN":17,"gnssid":0,"svid":17,"az":313.0,"el":25.0,"ss":44.0,"used":true,"health":1},{"PRN":14,"gnssid":0,"svid":14,"az":278.0,"el":17.0,"ss":41.0,"used":true,"health":1},{"PRN":8,"gnssid":0,"svid":8,"az":176.0,"el":25.0,"ss":25.0,"used":false,"health":1},{"PRN":3,"gnssid":0,"svid":3,"az":240.0,"el":40.0,"ss":47.0,"used":true,"health":1},{"PRN":32,"gnssid":0,"svid":32,"az":59.0,"el":37.0,"ss":45.0,"used":true,"health":1},{"PRN":10,"gnssid":0,"svid":10,"az":0.0,"el":-9.0,"ss":32.0,"used":false,"health":1},{"PRN":21,"gnssid":0,"svid":21,"az":120.0,"el":76.0,"ss":46.0,"used":true,"health":1},{"PRN":22,"gnssid":0,"svid":22,"az":301.0,"el":19.0,"ss":46.0,"used":true,"health":1},{"PRN":19,"gnssid":0,"svid":19,"az":324.0,"el":2.0,"ss":23.0,"used":false,"health":1}]}
{"class":"TPV","device":"/dev/ttyACM0","mode":3,"time":"2024-07-09T11:38:57.748Z","leapseconds":18,"ept":0.005,"lat":52.315856181,"lon":10.561806718,"altHAE":137.2844,"altMSL":93.3859,"alt":93.3859,"epx":14.966,"epy":38.170,"epv":58.190,"track":122.0566,"magtrack":125.2761,"magvar":3.2,"speed":0.025,"climb":-0.028,"eps":0.43,"epc":469.27,"ecefx":3841091.64,"ecefy":716190.95,"ecefz":5024473.23,"ecefvx":-0.01,"ecefvy":0.02,"ecefvz":-0.03,"ecefpAcc":4.30,"ecefvAcc":0.43,"velN":-0.013,"velE":0.021,"velD":0.028,"geoidSep":43.899,"eph":35.340,"sep":59.660}
{"class":"SKY","device":"/dev/ttyACM0","time":"2024-07-09T11:38:57.500Z","gdop":3.73,"hdop":1.86,"pdop":3.14,"tdop":2.02,"xdop":1.00,"ydop":2.54,"vdop":2.53,"uSat":6}
{"class":"SKY","device":"/dev/ttyACM0","time":"2024-07-09T11:38:57.500Z","gdop":3.73,"hdop":1.86,"pdop":3.14,"tdop":2.02,"xdop":1.00,"ydop":2.54,"vdop":2.53,"uSat":6}
{"class":"TPV","device":"/dev/ttyACM0","mode":3,"time":"2024-07-09T11:38:57.748Z","leapseconds":18,"ept":0.005,"lat":52.315856181,"lon":10.561806718,"altHAE":137.2844,"altMSL":93.3859,"alt":93.3859,"epx":14.966,"epy":38.170,"epv":58.190,"track":122.0566,"magtrack":125.2761,"magvar":3.2,"speed":0.025,"climb":-0.028,"eps":307.82,"epc":469.27,"ecefx":3841091.64,"ecefy":716190.95,"ecefz":5024473.23,"ecefvx":-0.01,"ecefvy":0.02,"ecefvz":-0.03,"ecefpAcc":4.30,"ecefvAcc":0.43,"velN":-0.013,"velE":0.021,"velD":0.028,"geoidSep":43.899,"eph":35.340,"sep":59.660}
{"class":"SKY","device":"/dev/ttyACM0","time":"2024-07-09T11:38:57.748Z","gdop":3.73,"hdop":1.86,"pdop":3.14,"tdop":2.02,"xdop":1.00,"ydop":2.54,"vdop":2.53,"nSat":14,"uSat":7,"satellites":[{"PRN":2,"gnssid":0,"svid":2,"az":285.0,"el":85.0,"ss":49.0,"used":true,"health":1},{"PRN":15,"gnssid":0,"svid":15,"az":0.0,"el":-9.0,"ss":0.0,"used":false,"health":1},{"PRN":28,"gnssid":0,"svid":28,"az":99.0,"el":6.0,"ss":32.0,"used":false,"health":1},{"PRN":31,"gnssid":0,"svid":31,"az":0.0,"el":-9.0,"ss":0.0,"used":false,"health":1},{"PRN":12,"gnssid":0,"svid":12,"az":0.0,"el":-9.0,"ss":0.0,"used":false,"health":1},{"PRN":17,"gnssid":0,"svid":17,"az":313.0,"el":25.0,"ss":45.0,"used":true,"health":1},{"PRN":14,"gnssid":0,"svid":14,"az":278.0,"el":17.0,"ss":41.0,"used":true,"health":1},{"PRN":8,"gnssid":0,"svid":8,"az":176.0,"el":25.0,"ss":25.0,"used":false,"health":1},{"PRN":3,"gnssid":0,"svid":3,"az":240.0,"el":40.0,"ss":47.0,"used":true,"health":1},{"PRN":32,"gnssid":0,"svid":32,"az":59.0,"el":37.0,"ss":45.0,"used":true,"health":1},{"PRN":10,"gnssid":0,"svid":10,"az":0.0,"el":-9.0,"ss":32.0,"used":false,"health":1},{"PRN":21,"gnssid":0,"svid":21,"az":120.0,"el":76.0,"ss":46.0,"used":true,"health":1},{"PRN":22,"gnssid":0,"svid":22,"az":301.0,"el":19.0,"ss":46.0,"used":true,"health":1},{"PRN":19,"gnssid":0,"svid":19,"az":324.0,"el":2.0,"ss":23.0,"used":false,"health":1}]}
{"class":"TPV","device":"/dev/ttyACM0","mode":3,"time":"2024-07-09T11:38:58.000Z","leapseconds":18,"ept":0.005,"lat":52.315856334,"lon":10.561806627,"altHAE":137.2713,"altMSL":93.3728,"alt":93.3728,"epx":14.966,"epy":38.170,"epv":58.190,"track":180.0000,"magtrack":183.2195,"magvar":3.2,"speed":0.012,"climb":-0.016,"eps":0.42,"epc":461.82,"ecefx":3841091.62,"ecefy":716190.94,"ecefz":5024473.23,"ecefvx":0.00,"ecefvy":0.00,"ecefvz":-0.02,"ecefpAcc":4.29,"ecefvAcc":0.42,"velN":-0.012,"velE":0.000,"velD":0.016,"geoidSep":43.899,"eph":35.340,"sep":59.660}
{"class":"SKY","device":"/dev/ttyACM0","time":"2024-07-09T11:38:57.748Z","gdop":3.73,"hdop":1.86,"pdop":3.14,"tdop":2.02,"xdop":1.00,"ydop":2.54,"vdop":2.53,"uSat":6}
{"class":"SKY","device":"/dev/ttyACM0","time":"2024-07-09T11:38:57.748Z","gdop":3.73,"hdop":1.86,"pdop":3.14,"tdop":2.02,"xdop":1.00,"ydop":2.54,"vdop":2.53,"uSat":6}
{"class":"TPV","device":"/dev/ttyACM0","mode":3,"time":"2024-07-09T11:38:58.000Z","leapseconds":18,"ept":0.005,"lat":52.315856334,"lon":10.561806627,"altHAE":137.2713,"altMSL":93.3728,"alt":93.3728,"epx":14.966,"epy":38.170,"epv":58.190,"track":180.0000,"magtrack":183.2195,"magvar":3.2,"speed":0.012,"climb":-0.016,"eps":302.93,"epc":461.82,"ecefx":3841091.62,"ecefy":716190.94,"ecefz":5024473.23,"ecefvx":0.00,"ecefvy":0.00,"ecefvz":-0.02,"ecefpAcc":4.29,"ecefvAcc":0.42,"velN":-0.012,"velE":0.000,"velD":0.016,"geoidSep":43.899,"eph":35.340,"sep":59.660}
{"class":"SKY","device":"/dev/ttyACM0","time":"2024-07-09T11:38:58.000Z","gdop":3.73,"hdop":1.86,"pdop":3.14,"tdop":2.02,"xdop":1.00,"ydop":2.54,"vdop":2.53,"nSat":14,"uSat":7,"satellites":[{"PRN":2,"gnssid":0,"svid":2,"az":285.0,"el":85.0,"ss":49.0,"used":true,"health":1},{"PRN":15,"gnssid":0,"svid":15,"az":0.0,"el":-9.0,"ss":0.0,"used":false,"health":1},{"PRN":28,"gnssid":0,"svid":28,"az":99.0,"el":6.0,"ss":32.0,"used":false,"health":1},{"PRN":31,"gnssid":0,"svid":31,"az":0.0,"el":-9.0,"ss":0.0,"used":false,"health":1},{"PRN":12,"gnssid":0,"svid":12,"az":0.0,"el":-9.0,"ss":0.0,"used":false,"health":1},{"PRN":17,"gnssid":0,"svid":17,"az":313.0,"el":25.0,"ss":44.0,"used":true,"health":1},{"PRN":14,"gnssid":0,"svid":14,"az":278.0,"el":17.0,"ss":42.0,"used":true,"health":1},{"PRN":8,"gnssid":0,"svid":8,"az":176.0,"el":25.0,"ss":24.0,"used":false,"health":1},{"PRN":3,"gnssid":0,"svid":3,"az":240.0,"el":40.0,"ss":47.0,"used":true,"health":1},{"PRN":32,"gnssid":0,"svid":32,"az":59.0,"el":37.0,"ss":45.0,"used":true,"health":1},{"PRN":10,"gnssid":0,"svid":10,"az":0.0,"el":-9.0,"ss":32.0,"used":false,"health":1},{"PRN":21,"gnssid":0,"svid":21,"az":120.0,"el":76.0,"ss":46.0,"used":true,"health":1},{"PRN":22,"gnssid":0,"svid":22,"az":301.0,"el":19.0,"ss":46.0,"used":true,"health":1},{"PRN":19,"gnssid":0,"svid":19,"az":324.0,"el":2.0,"ss":24.0,"used":false,"health":1}]}
{"class":"TPV","device":"/dev/ttyACM0","mode":3,"time":"2024-07-09T11:38:58.248Z","leapseconds":18,"ept":0.005,"lat":52.315856611,"lon":10.561806564,"altHAE":137.2601,"altMSL":93.3615,"alt":93.3615,"epx":14.966,"epy":38.170,"epv":58.190,"track":134.3242,"magtrack":137.5437,"magvar":3.2,"speed":0.041,"climb":-0.028,"eps":0.42,"epc":469.27,"ecefx":3841091.59,"ecefy":716190.93,"ecefz":5024473.24,"ecefvx":0.00,"ecefvy":0.03,"ecefvz":-0.04,"ecefpAcc":4.29,"ecefvAcc":0.42,"velN":-0.029,"velE":0.029,"velD":0.028,"geoidSep":43.899,"eph":35.340,"sep":59.660}
{"class":"SKY","device":"/dev/ttyACM0","time":"2024-07-09T11:38:58.000Z","gdop":3.73,"hdop":1.86,"pdop":3.14,"tdop":2.02,"xdop":1.00,"ydop":2.54,"vdop":2.53,"uSat":6}
{"class":"SKY","device":"/dev/ttyACM0","time":"2024-07-09T11:38:58.000Z","gdop":3.73,"hdop":1.86,"pdop":3.14,"tdop":2.02,"xdop":1.00,"ydop":2.54,"vdop":2.53,"uSat":6}
{"class":"TPV","device":"/dev/ttyACM0","mode":3,"time":"2024-07-09T11:38:58.248Z","leapseconds":18,"ept":0.005,"lat":52.315856611,"lon":10.561806564,"altHAE":137.2601,"altMSL":93.3615,"alt":93.3615,"epx":14.966,"epy":38.170,"epv":58.190,"track":134.3242,"magtrack":137.5437,"magvar":3.2,"speed":0.041,"climb":-0.028,"eps":307.82,"epc":469.27,"ecefx":3841091.59,"ecefy":716190.93,"ecefz":5024473.24,"ecefvx":0.00,"ecefvy":0.03,"ecefvz":-0.04,"ecefpAcc":4.29,"ecefvAcc":0.42,"velN":-0.029,"velE":0.029,"velD":0.028,"geoidSep":43.899,"eph":35.340,"sep":59.660}
{"class":"SKY","device":"/dev/ttyACM0","time":"2024-07-09T11:38:58.248Z","gdop":3.73,"hdop":1.86,"pdop":3.14,"tdop":2.02,"xdop":1.00,"ydop":2.54,"vdop":2.53,"nSat":14,"uSat":7,"satellites":[{"PRN":2,"gnssid":0,"svid":2,"az":285.0,"el":85.0,"ss":49.0,"used":true,"health":1},{"PRN":15,"gnssid":0,"svid":15,"az":0.0,"el":-9.0,"ss":0.0,"used":false,"health":1},{"PRN":28,"gnssid":0,"svid":28,"az":99.0,"el":6.0,"ss":32.0,"used":false,"health":1},{"PRN":31,"gnssid":0,"svid":31,"az":0.0,"el":-9.0,"ss":0.0,"used":false,"health":1},{"PRN":12,"gnssid":0,"svid":12,"az":0.0,"el":-9.0,"ss":0.0,"used":false,"health":1},{"PRN":17,"gnssid":0,"svid":17,"az":313.0,"el":25.0,"ss":45.0,"used":true,"health":1},{"PRN":14,"gnssid":0,"svid":14,"az":278.0,"el":17.0,"ss":42.0,"used":true,"health":1},{"PRN":8,"gnssid":0,"svid":8,"az":176.0,"el":25.0,"ss":25.0,"used":false,"health":1},{"PRN":3,"gnssid":0,"svid":3,"az":240.0,"el":40.0,"ss":48.0,"used":true,"health":1},{"PRN":32,"gnssid":0,"svid":32,"az":59.0,"el":37.0,"ss":46.0,"used":true,"health":1},{"PRN":10,"gnssid":0,"svid":10,"az":0.0,"el":-9.0,"ss":31.0,"used":false,"health":1},{"PRN":21,"gnssid":0,"svid":21,"az":120.0,"el":76.0,"ss":46.0,"used":true,"health":1},{"PRN":22,"gnssid":0,"svid":22,"az":301.0,"el":19.0,"ss":46.0,"used":true,"health":1},{"PRN":19,"gnssid":0,"svid":19,"az":324.0,"el":2.0,"ss":24.0,"used":false,"health":1}]}
{"class":"TPV","device":"/dev/ttyACM0","mode":3,"time":"2024-07-09T11:38:58.500Z","leapseconds":18,"ept":0.005,"lat":52.315856834,"lon":10.561806500,"altHAE":137.2409,"altMSL":93.3424,"alt":93.3424,"epx":14.966,"epy":38.170,"epv":58.190,"track":170.1524,"magtrack":173.3719,"magvar":3.2,"speed":0.011,"climb":-0.030,"eps":0.42,"epc":461.82,"ecefx":3841091.56,"ecefy":716190.92,"ecefz":5024473.24,"ecefvx":-0.01,"ecefvy":0.00,"ecefvz":-0.03,"ecefpAcc":4.29,"ecefvAcc":0.42,"velN":-0.011,"velE":0.002,"velD":0.030,"geoidSep":43.899,"eph":35.340,"sep":59.660}
{"class":"SKY","device":"/dev/ttyACM0","time":"2024-07-09T11:38:58.248Z","gdop":3.73,"hdop":1.86,"pdop":3.14,"tdop":2.02,"xdop":1.00,"ydop":2.54,"vdop":2.53,"uSat":6}
{"class":"SKY","device":"/dev/ttyACM0","time":"2024-07-09T11:38:58.248Z","gdop":3.73,"hdop":1.86,"pdop":3.14,"tdop":2.02,"xdop":1.00,"ydop":2.54,"vdop":2.53,"uSat":6}
{"class":"TPV","device":"/dev/ttyACM0","mode":3,"time":"2024-07-09T11:38:58.500Z","leapseconds":18,"ept":0.005,"lat":52.315856834,"lon":10.561806500,"altHAE":137.2409,"altMSL":93.3424,"alt":93.3424,"epx":14.966,"epy":38.170,"epv":58.190,"track":170.1524,"magtrack":173.3719,"magvar":3.2,"speed":0.011,"climb":-0.030,"eps":302.93,"epc":461.82,"ecefx":3841091.56,"ecefy":716190.92,"ecefz":5024473.24,"ecefvx":-0.01,"ecefvy":0.00,"ecefvz":-0.03,"ecefpAcc":4.29,"ecefvAcc":0.42,"velN":-0.011,"velE":0.002,"velD":0.030,"geoidSep":43.899,"eph":35.340,"sep":59.660}
{"class":"SKY","device":"/dev/ttyACM0","time":"2024-07-09T11:38:58.500Z","gdop":3.73,"hdop":1.86,"pdop":3.14,"tdop":2.02,"xdop":1.00,"ydop":2.54,"vdop":2.53,"nSat":14,"uSat":7,"satellites":[{"PRN":2,"gnssid":0,"svid":2,"az":285.0,"el":85.0,"ss":49.0,"used":true,"health":1},{"PRN":15,"gnssid":0,"svid":15,"az":0.0,"el":-9.0,"ss":0.0,"used":false,"health":1},{"PRN":28,"gnssid":0,"svid":28,"az":99.0,"el":6.0,"ss":32.0,"used":false,"health":1},{"PRN":31,"gnssid":0,"svid":31,"az":0.0,"el":-9.0,"ss":0.0,"used":false,"health":1},{"PRN":12,"gnssid":0,"svid":12,"az":0.0,"el":-9.0,"ss":0.0,"used":false,"health":1},{"PRN":17,"gnssid":0,"svid":17,"az":313.0,"el":25.0,"ss":45.0,"used":true,"health":1},{"PRN":14,"gnssid":0,"svid":14,"az":278.0,"el":17.0,"ss":42.0,"used":true,"health":1},{"PRN":8,"gnssid":0,"svid":8,"az":176.0,"el":25.0,"ss":27.0,"used":false,"health":1},{"PRN":3,"gnssid":0,"svid":3,"az":240.0,"el":40.0,"ss":48.0,"used":true,"health":1},{"PRN":32,"gnssid":0,"svid":32,"az":59.0,"el":37.0,"ss":46.0,"used":true,"health":1},{"PRN":10,"gnssid":0,"svid":10,"az":0.0,"el":-9.0,"ss":32.0,"used":false,"health":1},{"PRN":21,"gnssid":0,"svid":21,"az":120.0,"el":76.0,"ss":46.0,"used":true,"health":1},{"PRN":22,"gnssid":0,"svid":22,"az":301.0,"el":19.0,"ss":46.0,"used":true,"health":1},{"PRN":19,"gnssid":0,"svid":19,"az":324.0,"el":2.0,"ss":24.0,"used":false,"health":1}]}
{"class":"TPV","device":"/dev/ttyACM0","mode":3,"time":"2024-07-09T11:38:58.748Z","leapseconds":18,"ept":0.005,"lat":52.315857070,"lon":10.561806293,"altHAE":137.2206,"altMSL":93.3221,"alt":93.3221,"epx":14.966,"epy":38.170,"epv":58.190,"track":153.5842,"magtrack":156.8036,"magvar":3.2,"speed":0.022,"climb":-0.023,"eps":0.42,"epc":469.27,"ecefx":3841091.53,"ecefy":716190.90,"ecefz":5024473.24,"ecefvx":0.00,"ecefvy":0.01,"ecefvz":-0.03,"ecefpAcc":4.29,"ecefvAcc":0.42,"velN":-0.020,"velE":0.010,"velD":0.023,"geoidSep":43.899,"eph":35.340,"sep":59.660}
{"class":"SKY","device":"/dev/ttyACM0","time":"2024-07-09T11:38:58.500Z","gdop":3.73,"hdop":1.86,"pdop":3.14,"tdop":2.02,"xdop":1.00,"ydop":2.54,"vdop":2.53,"uSat":6}
{"class":"SKY","device":"/dev/ttyACM0","time":"2024-07-09T11:38:58.500Z","gdop":3.73,"hdop":1.86,"pdop":3.14,"tdop":2.02,"xdop":1.00,"ydop":2.54,"vdop":2.53,"uSat":6}
{"class":"TPV","device":"/dev/ttyACM0","mode":3,"time":"2024-07-09T11:38:58.748Z","leapseconds":18,"ept":0.005,"lat":52.315857070,"lon":10.561806293,"altHAE":137.2206,"altMSL":93.3221,"alt":93.3221,"epx":14.966,"epy":38.170,"epv":58.190,"track":153.5842,"magtrack":156.8036,"magvar":3.2,"speed":0.022,"climb":-0.023,"eps":307.82,"epc":469.27,"ecefx":3841091.53,"ecefy":716190.90,"ecefz":5024473.24,"ecefvx":0.00,"ecefvy":0.01,"ecefvz":-0.03,"ecefpAcc":4.29,"ecefvAcc":0.42,"velN":-0.020,"velE":0.010,"velD":0.023,"geoidSep":43.899,"eph":35.340,"sep":59.660}
{"class":"SKY","device":"/dev/ttyACM0","time":"2024-07-09T11:38:58.748Z","gdop":3.73,"hdop":1.86,"pdop":3.14,"tdop":2.02,"xdop":1.00,"ydop":2.54,"vdop":2.53,"nSat":14,"uSat":7,"satellites":[{"PRN":2,"gnssid":0,"svid":2,"az":285.0,"el":85.0,"ss":49.0,"used":true,"health":1},{"PRN":15,"gnssid":0,"svid":15,"az":0.0,"el":-9.0,"ss":0.0,"used":false,"health":1},{"PRN":28,"gnssid":0,"svid":28,"az":99.0,"el":6.0,"ss":33.0,"used":false,"health":1},{"PRN":31,"gnssid":0,"svid":31,"az":0.0,"el":-9.0,"ss":0.0,"used":false,"health":1},{"PRN":12,"gnssid":0,"svid":12,"az":0.0,"el":-9.0,"ss":0.0,"used":false,"health":1},{"PRN":17,"gnssid":0,"svid":17,"az":313.0,"el":25.0,"ss":45.0,"used":true,"health":1},{"PRN":14,"gnssid":0,"svid":14,"az":278.0,"el":17.0,"ss":42.0,"used":true,"health":1},{"PRN":8,"gnssid":0,"svid":8,"az":176.0,"el":25.0,"ss":27.0,"used":false,"health":1},{"PRN":3,"gnssid":0,"svid":3,"az":240.0,"el":40.0,"ss":48.0,"used":true,"health":1},{"PRN":32,"gnssid":0,"svid":32,"az":59.0,"el":37.0,"ss":45.0,"used":true,"health":1},{"PRN":10,"gnssid":0,"svid":10,"az":0.0,"el":-9.0,"ss":31.0,"used":false,"health":1},{"PRN":21,"gnssid":0,"svid":21,"az":120.0,"el":76.0,"ss":46.0,"used":true,"health":1},{"PRN":22,"gnssid":0,"svid":22,"az":301.0,"el":19.0,"ss":46.0,"used":true,"health":1},{"PRN":19,"gnssid":0,"svid":19,"az":324.0,"el":2.0,"ss":24.0,"used":false,"health":1}]}
{"class":"TPV","device":"/dev/ttyACM0","mode":3,"time":"2024-07-09T11:38:59.000Z","leapseconds":18,"ept":0.005,"lat":52.315857363,"lon":10.561806256,"altHAE":137.1955,"altMSL":93.2970,"alt":93.2970,"epx":14.966,"epy":38.170,"epv":58.190,"track":139.8149,"magtrack":143.0344,"magvar":3.2,"speed":0.046,"climb":-0.036,"eps":0.42,"epc":461.82,"ecefx":3841091.49,"ecefy":716190.89,"ecefz":5024473.24,"ecefvx":0.00,"ecefvy":0.03,"ecefvz":-0.05,"ecefpAcc":4.28,"ecefvAcc":0.42,"velN":-0.035,"velE":0.029,"velD":0.036,"geoidSep":43.899,"eph":35.340,"sep":59.660}
{"class":"SKY","device":"/dev/ttyACM0","time":"2024-07-09T11:38:58.748Z","gdop":3.73,"hdop":1.86,"pdop":3.14,"tdop":2.02,"xdop":1.00,"ydop":2.54,"vdop":2.53,"uSat":6}
{"class":"SKY","device":"/dev/ttyACM0","time":"2024-07-09T11:38:58.748Z","gdop":3.73,"hdop":1.86,"pdop":3.14,"tdop":2.02,"xdop":1.00,"ydop":2.54,"vdop":2.53,"uSat":6}
{"class":"TPV","device":"/dev/ttyACM0","mode":3,"time":"2024-07-09T11:38:59.000Z","leapseconds":18,"ept":0.005,"lat":52.315857363,"lon":10.561806256,"altHAE":137.1955,"altMSL":93.2970,"alt":93.2970,"epx":14.966,"epy":38.170,"epv":58.190,"track":139.8149,"magtrack":143.0344,"magvar":3.2,"speed":0.046,"climb":-0.036,"eps":302.93,"epc":461.82,"ecefx":3841091.49,"ecefy":716190.89,"ecefz":5024473.24,"ecefvx":0.00,"ecefvy":0.03,"ecefvz":-0.05,"ecefpAcc":4.28,"ecefvAcc":0.42,"velN":-0.035,"velE":0.029,"velD":0.036,"geoidSep":43.899,"eph":35.340,"sep":59.660}
{"class":"SKY","device":"/dev/ttyACM0","time":"2024-07-09T11:38:59.000Z","gdop":3.73,"hdop":1.86,"pdop":3.14,"tdop":2.02,"xdop":1.00,"ydop":2.54,"vdop":2.53,"nSat":14,"uSat":7,"satellites":[{"PRN":2,"gnssid":0,"svid":2,"az":285.0,"el":85.0,"ss":49.0,"used":true,"health":1},{"PRN":15,"gnssid":0,"svid":15,"az":0.0,"el":-9.0,"ss":0.0,"used":false,"health":1},{"PRN":28,"gnssid":0,"svid":28,"az":99.0,"el":6.0,"ss":33.0,"used":false,"health":1},{"PRN":31,"gnssid":0,"svid":31,"az":0.0,"el":-9.0,"ss":0.0,"used":false,"health":1},{"PRN":12,"gnssid":0,"svid":12,"az":0.0,"el":-9.0,"ss":0.0,"used":false,"health":1},{"PRN":17,"gnssid":0,"svid":17,"az":313.0,"el":25.0,"ss":45.0,"used":true,"health":1},{"PRN":14,"gnssid":0,"svid":14,"az":278.0,"el":17.0,"ss":42.0,"used":true,"health":1},{"PRN":8,"gnssid":0,"svid":8,"az":176.0,"el":25.0,"ss":28.0,"used":false,"health":1},{"PRN":3,"gnssid":0,"svid":3,"az":240.0,"el":40.0,"ss":48.0,"used":true,"health":1},{"PRN":32,"gnssid":0,"svid":32,"az":59.0,"el":37.0,"ss":45.0,"used":true,"health":1},{"PRN":10,"gnssid":0,"svid":10,"az":0.0,"el":-9.0,"ss":31.0,"used":false,"health":1},{"PRN":21,"gnssid":0,"svid":21,"az":120.0,"el":76.0,"ss":46.0,"used":true,"health":1},{"PRN":22,"gnssid":0,"svid":22,"az":301.0,"el":19.0,"ss":46.0,"used":true,"health":1},{"PRN":19,"gnssid":0,"svid":19,"az":324.0,"el":2.0,"ss":24.0,"used":false,"health":1}]}
{"class":"TPV","device":"/dev/ttyACM0","mode":3,"time":"2024-07-09T11:38:59.248Z","leapseconds":18,"ept":0.005,"lat":52.315857627,"lon":10.561806337,"altHAE":137.1854,"altMSL":93.2868,"alt":93.2868,"epx":14.966,"epy":38.170,"epv":58.190,"track":135.8384,"magtrack":139.0579,"magvar":3.2,"speed":0.017,"climb":-0.029,"eps":0.42,"epc":469.27,"ecefx":3841091.46,"ecefy":716190.89,"ecefz":5024473.25,"ecefvx":-0.01,"ecefvy":0.01,"ecefvz":-0.03,"ecefpAcc":4.28,"ecefvAcc":0.42,"velN":-0.012,"velE":0.012,"velD":0.029,"geoidSep":43.899,"eph":35.340,"sep":59.660}
{"class":"SKY","device":"/dev/ttyACM0","time":"2024-07-09T11:38:59.000Z","gdop":3.73,"hdop":1.86,"pdop":3.14,"tdop":2.02,"xdop":1.00,"ydop":2.54,"vdop":2.53,"uSat":6}
{"class":"SKY","device":"/dev/ttyACM0","time":"2024-07-09T11:38:59.000Z","gdop":3.73,"hdop":1.86,"pdop":3.14,"tdop":2.02,"xdop":1.00,"ydop":2.54,"vdop":2.53,"uSat":6}
{"class":"TPV","device":"/dev/ttyACM0","mode":3,"time":"2024-07-09T11:38:59.248Z","leapseconds":18,"ept":0.005,"lat":52.315857627,"lon":10.561806337,"altHAE":137.1854,"altMSL":93.2868,"alt":93.2868,"epx":14.966,"epy":38.170,"epv":58.190,"track":135.8384,"magtrack":139.0579,"magvar":3.2,"speed":0.017,"climb":-0.029,"eps":307.82,"epc":469.27,"ecefx":3841091.46,"ecefy":716190.89,"ecefz":5024473.25,"ecefvx":-0.01,"ecefvy":0.01,"ecefvz":-0.03,"ecefpAcc":4.28,"ecefvAcc":0.42,"velN":-0.012,"velE":0.012,"velD":0.029,"geoidSep":43.899,"eph":35.340,"sep":59.660}
{"class":"SKY","device":"/dev/ttyACM0","time":"2024-07-09T11:38:59.248Z","gdop":3.73,"hdop":1.86,"pdop":3.14,"tdop":2.02,"xdop":1.00,"ydop":2.54,"vdop":2.53,"nSat":14,"uSat":7,"satellites":[{"PRN":2,"gnssid":0,"svid":2,"az":285.0,"el":85.0,"ss":49.0,"used":true,"health":1},{"PRN":15,"gnssid":0,"svid":15,"az":0.0,"el":-9.0,"ss":0.0,"used":false,"health":1},{"PRN":28,"gnssid":0,"svid":28,"az":99.0,"el":6.0,"ss":33.0,"used":false,"health":1},{"PRN":31,"gnssid":0,"svid":31,"az":0.0,"el":-9.0,"ss":0.0,"used":false,"health":1},{"PRN":12,"gnssid":0,"svid":12,"az":0.0,"el":-9.0,"ss":0.0,"used":false,"health":1},{"PRN":17,"gnssid":0,"svid":17,"az":313.0,"el":25.0,"ss":45.0,"used":true,"health":1},{"PRN":14,"gnssid":0,"svid":14,"az":278.0,"el":17.0,"ss":42.0,"used":true,"health":1},{"PRN":8,"gnssid":0,"svid":8,"az":176.0,"el":25.0,"ss":29.0,"used":false,"health":1},{"PRN":3,"gnssid":0,"svid":3,"az":240.0,"el":40.0,"ss":48.0,"used":true,"health":1},{"PRN":32,"gnssid":0,"svid":32,"az":59.0,"el":37.0,"ss":45.0,"used":true,"health":1},{"PRN":10,"gnssid":0,"svid":10,"az":0.0,"el":-9.0,"ss":32.0,"used":false,"health":1},{"PRN":21,"gnssid":0,"svid":21,"az":120.0,"el":76.0,"ss":46.0,"used":true,"health":1},{"PRN":22,"gnssid":0,"svid":22,"az":301.0,"el":19.0,"ss":46.0,"used":true,"health":1},{"PRN":19,"gnssid":0,"svid":19,"az":324.0,"el":2.0,"ss":23.0,"used":false,"health":1}]}
{"class":"TPV","device":"/dev/ttyACM0","mode":3,"time":"2024-07-09T11:38:59.500Z","leapseconds":18,"ept":0.005,"lat":52.315857975,"lon":10.561806300,"altHAE":137.1681,"altMSL":93.2696,"alt":93.2696,"epx":14.966,"epy":38.170,"epv":58.190,"track":170.1524,"magtrack":173.3719,"magvar":3.2,"speed":0.011,"climb":-0.030,"eps":0.42,"epc":461.82,"ecefx":3841091.42,"ecefy":716190.88,"ecefz":5024473.26,"ecefvx":-0.01,"ecefvy":0.00,"ecefvz":-0.03,"ecefpAcc":4.28,"ecefvAcc":0.42,"velN":-0.011,"velE":0.002,"velD":0.030,"geoidSep":43.899,"eph":35.340,"sep":59.660}
{"class":"SKY","device":"/dev/ttyACM0","time":"2024-07-09T11:38:59.248Z","gdop":3.73,"hdop":1.86,"pdop":3.14,"tdop":2.02,"xdop":1.00,"ydop":2.54,"vdop":2.53,"uSat":6}
{"class":"SKY","device":"/dev/ttyACM0","time":"2024-07-09T11:38:59.248Z","gdop":3.73,"hdop":1.86,"pdop":3.14,"tdop":2.02,"xdop":1.00,"ydop":2.54,"vdop":2.53,"uSat":6}
{"class":"TPV","device":"/dev/ttyACM0","mode":3,"time":"2024-07-09T11:38:59.500Z","leapseconds":18,"ept":0.005,"lat":52.315857975,"lon":10.561806300,"altHAE":137.1681,"altMSL":93.2696,"alt":93.2696,"epx":14.966,"epy":38.170,"epv":58.190,"track":170.1524,"magtrack":173.3719,"magvar":3.2,"speed":0.011,"climb":-0.030,"eps":302.93,"epc":461.82,"ecefx":3841091.42,"ecefy":716190.88,"ecefz":5024473.26,"ecefvx":-0.01,"ecefvy":0.00,"ecefvz":-0.03,"ecefpAcc":4.28,"ecefvAcc":0.42,"velN":-0.011,"velE":0.002,"velD":0.030,"geoidSep":43.899,"eph":35.340,"sep":59.660}
{"class":"SKY","device":"/dev/ttyACM0","time":"2024-07-09T11:38:59.500Z","gdop":3.73,"hdop":1.86,"pdop":3.14,"tdop":2.02,"xdop":1.00,"ydop":2.54,"vdop":2.53,"nSat":14,"uSat":7,"satellites":[{"PRN":2,"gnssid":0,"svid":2,"az":285.0,"el":85.0,"ss":49.0,"used":true,"health":1},{"PRN":15,"gnssid":0,"svid":15,"az":0.0,"el":-9.0,"ss":0.0,"used":false,"health":1},{"PRN":28,"gnssid":0,"svid":28,"az":99.0,"el":6.0,"ss":33.0,"used":false,"health":1},{"PRN":31,"gnssid":0,"svid":31,"az":0.0,"el":-9.0,"ss":0.0,"used":false,"health":1},{"PRN":12,"gnssid":0,"svid":12,"az":0.0,"el":-9.0,"ss":0.0,"used":false,"health":1},{"PRN":17,"gnssid":0,"svid":17,"az":313.0,"el":25.0,"ss":45.0,"used":true,"health":1},{"PRN":14,"gnssid":0,"svid":14,"az":278.0,"el":17.0,"ss":42.0,"used":true,"health":1},{"PRN":8,"gnssid":0,"svid":8,"az":176.0,"el":25.0,"ss":29.0,"used":false,"health":1},{"PRN":3,"gnssid":0,"svid":3,"az":240.0,"el":40.0,"ss":48.0,"used":true,"health":1},{"PRN":32,"gnssid":0,"svid":32,"az":59.0,"el":37.0,"ss":45.0,"used":true,"health":1},{"PRN":10,"gnssid":0,"svid":10,"az":0.0,"el":-9.0,"ss":32.0,"used":false,"health":1},{"PRN":21,"gnssid":0,"svid":21,"az":120.0,"el":76.0,"ss":47.0,"used":true,"health":1},{"PRN":22,"gnssid":0,"svid":22,"az":301.0,"el":19.0,"ss":46.0,"used":true,"health":1},{"PRN":19,"gnssid":0,"svid":19,"az":324.0,"el":2.0,"ss":23.0,"used":false,"health":1}]}
{"class":"TPV","device":"/dev/ttyACM0","mode":3,"time":"2024-07-09T11:38:59.748Z","leapseconds":18,"ept":0.005,"lat":52.315858268,"lon":10.561806263,"altHAE":137.1430,"altMSL":93.2444,"alt":93.2444,"epx":14.966,"epy":38.170,"epv":58.190,"track":157.5964,"magtrack":160.8159,"magvar":3.2,"speed":0.005,"climb":-0.022,"eps":0.42,"epc":469.27,"ecefx":3841091.38,"ecefy":716190.87,"ecefz":5024473.26,"ecefvx":-0.01,"ecefvy":0.00,"ecefvz":-0.02,"ecefpAcc":4.28,"ecefvAcc":0.42,"velN":-0.004,"velE":0.002,"velD":0.022,"geoidSep":43.899,"eph":35.340,"sep":59.660}
{"class":"SKY","device":"/dev/ttyACM0","time":"2024-07-09T11:38:59.500Z","gdop":3.73,"hdop":1.86,"pdop":3.14,"tdop":2.02,"xdop":1.00,"ydop":2.54,"vdop":2.53,"uSat":6}
{"class":"SKY","device":"/dev/ttyACM0","time":"2024-07-09T11:38:59.500Z","gdop":3.73,"hdop":1.86,"pdop":3.14,"tdop":2.02,"xdop":1.00,"ydop":2.54,"vdop":2.53,"uSat":6}
{"class":"TPV","device":"/dev/ttyACM0","mode":3,"time":"2024-07-09T11:38:59.748Z","leapseconds":18,"ept":0.005,"lat":52.315858268,"lon":10.561806263,"altHAE":137.1430,"altMSL":93.2444,"alt":93.2444,"epx":14.966,"epy":38.170,"epv":58.190,"track":157.5964,"magtrack":160.8159,"magvar":3.2,"speed":0.005,"climb":-0.022,"eps":307.82,"epc":469.27,"ecefx":3841091.38,"ecefy":716190.87,"ecefz":5024473.26,"ecefvx":-0.01,"ecefvy":0.00,"ecefvz":-0.02,"ecefpAcc":4.28,"ecefvAcc":0.42,"velN":-0.004,"velE":0.002,"velD":0.022,"geoidSep":43.899,"eph":35.340,"sep":59.660}
{"class":"SKY","device":"/dev/ttyACM0","time":"2024-07-09T11:38:59.748Z","gdop":3.73,"hdop":1.86,"pdop":3.14,"tdop":2.02,"xdop":1.00,"ydop":2.54,"vdop":2.53,"nSat":14,"uSat":7,"satellites":[{"PRN":2,"gnssid":0,"svid":2,"az":285.0,"el":85.0,"ss":49.0,"used":true,"health":1},{"PRN":15,"gnssid":0,"svid":15,"az":0.0,"el":-9.0,"ss":0.0,"used":false,"health":1},{"PRN":28,"gnssid":0,"svid":28,"az":99.0,"el":6.0,"ss":33.0,"used":false,"health":1},{"PRN":31,"gnssid":0,"svid":31,"az":0.0,"el":-9.0,"ss":0.0,"used":false,"health":1},{"PRN":12,"gnssid":0,"svid":12,"az":0.0,"el":-9.0,"ss":0.0,"used":false,"health":1},{"PRN":17,"gnssid":0,"svid":17,"az":313.0,"el":25.0,"ss":45.0,"used":true,"health":1},{"PRN":14,"gnssid":0,"svid":14,"az":278.0,"el":17.0,"ss":42.0,"used":true,"health":1},{"PRN":8,"gnssid":0,"svid":8,"az":176.0,"el":25.0,"ss":29.0,"used":false,"health":1},{"PRN":3,"gnssid":0,"svid":3,"az":240.0,"el":40.0,"ss":48.0,"used":true,"health":1},{"PRN":32,"gnssid":0,"svid":32,"az":59.0,"el":37.0,"ss":45.0,"used":true,"health":1},{"PRN":10,"gnssid":0,"svid":10,"az":0.0,"el":-9.0,"ss":33.0,"used":false,"health":1},{"PRN":21,"gnssid":0,"svid":21,"az":120.0,"el":76.0,"ss":46.0,"used":true,"health":1},{"PRN":22,"gnssid":0,"svid":22,"az":301.0,"el":19.0,"ss":46.0,"used":true,"health":1},{"PRN":19,"gnssid":0,"svid":19,"az":324.0,"el":2.0,"ss":23.0,"used":false,"health":1}]}
{"class":"TPV","device":"/dev/ttyACM0","mode":3,"time":"2024-07-09T11:39:00.000Z","leapseconds":18,"ept":0.005,"lat":52.315858615,"lon":10.561806227,"altHAE":137.1257,"altMSL":93.2272,"alt":93.2272,"epx":14.966,"epy":38.170,"epv":58.190,"track":144.2922,"magtrack":147.5116,"magvar":3.2,"speed":0.051,"climb":-0.044,"eps":0.41,"epc":461.82,"ecefx":3841091.34,"ecefy":716190.86,"ecefz":5024473.27,"ecefvx":0.00,"ecefvy":0.03,"ecefvz":-0.06,"ecefpAcc":4.28,"ecefvAcc":0.41,"velN":-0.041,"velE":0.029,"velD":0.044,"geoidSep":43.899,"eph":35.340,"sep":59.660}
{"class":"SKY","device":"/dev/ttyACM0","time":"2024-07-09T11:38:59.748Z","gdop":3.73,"hdop":1.86,"pdop":3.14,"tdop":2.02,"xdop":1.00,"ydop":2.54,"vdop":2.53,"uSat":6}
{"class":"SKY","device":"/dev/ttyACM0","time":"2024-07-09T11:38:59.748Z","gdop":3.73,"hdop":1.86,"pdop":3.14,"tdop":2.02,"xdop":1.00,"ydop":2.54,"vdop":2.53,"uSat":6}
{"class":"TPV","device":"/dev/ttyACM0","mode":3,"time":"2024-07-09T11:39:00.000Z","leapseconds":18,"ept":0.005,"lat":52.315858615,"lon":10.561806227,"altHAE":137.1257,"altMSL":93.2272,"alt":93.2272,"epx":14.966,"epy":38.170,"epv":58.190,"track":144.2922,"magtrack":147.5116,"magvar":3.2,"speed":0.051,"climb":-0.044,"eps":302.93,"epc":461.82,"ecefx":3841091.34,"ecefy":716190.86,"ecefz":5024473.27,"ecefvx":0.00,"ecefvy":0.03,"ecefvz":-0.06,"ecefpAcc":4.28,"ecefvAcc":0.41,"velN":-0.041,"velE":0.029,"velD":0.044,"geoidSep":43.899,"eph":35.340,"sep":59.660}
{"class":"SKY","device":"/dev/ttyACM0","time":"2024-07-09T11:39:00.000Z","gdop":3.73,"hdop":1.86,"pdop":3.14,"tdop":2.02,"xdop":1.00,"ydop":2.54,"vdop":2.53,"nSat":14,"uSat":7,"satellites":[{"PRN":2,"gnssid":0,"svid":2,"az":285.0,"el":85.0,"ss":49.0,"used":true,"health":1},{"PRN":15,"gnssid":0,"svid":15,"az":0.0,"el":-9.0,"ss":0.0,"used":false,"health":1},{"PRN":28,"gnssid":0,"svid":28,"az":99.0,"el":6.0,"ss":33.0,"used":false,"health":1},{"PRN":31,"gnssid":0,"svid":31,"az":0.0,"el":-9.0,"ss":0.0,"used":false,"health":1},{"PRN":12,"gnssid":0,"svid":12,"az":0.0,"el":-9.0,"ss":0.0,"used":false,"health":1},{"PRN":17,"gnssid":0,"svid":17,"az":313.0,"el":25.0,"ss":45.0,"used":true,"health":1},{"PRN":14,"gnssid":0,"svid":14,"az":278.0,"el":17.0,"ss":42.0,"used":true,"health":1},{"PRN":8,"gnssid":0,"svid":8,"az":176.0,"el":25.0,"ss":30.0,"used":false,"health":1},{"PRN":3,"gnssid":0,"svid":3,"az":240.0,"el":40.0,"ss":48.0,"used":true,"health":1},{"PRN":32,"gnssid":0,"svid":32,"az":59.0,"el":37.0,"ss":45.0,"used":true,"health":1},{"PRN":10,"gnssid":0,"svid":10,"az":0.0,"el":-9.0,"ss":32.0,"used":false,"health":1},{"PRN":21,"gnssid":0,"svid":21,"az":120.0,"el":76.0,"ss":46.0,"used":true,"health":1},{"PRN":22,"gnssid":0,"svid":22,"az":301.0,"el":19.0,"ss":46.0,"used":true,"health":1},{"PRN":19,"gnssid":0,"svid":19,"az":324.0,"el":2.0,"ss":0.0,"used":false,"health":1}]}
{"class":"TPV","device":"/dev/ttyACM0","mode":3,"time":"2024-07-09T11:39:00.248Z","leapseconds":18,"ept":0.005,"lat":52.315858952,"lon":10.561806505,"altHAE":137.0968,"altMSL":93.1983,"alt":93.1983,"epx":14.966,"epy":38.170,"epv":58.190,"track":170.1524,"magtrack":173.3719,"magvar":3.2,"speed":0.011,"climb":-0.030,"eps":0.41,"epc":469.27,"ecefx":3841091.29,"ecefy":716190.87,"ecefz":5024473.27,"ecefvx":-0.01,"ecefvy":0.00,"ecefvz":-0.03,"ecefpAcc":4.27,"ecefvAcc":0.41,"velN":-0.011,"velE":0.002,"velD":0.030,"geoidSep":43.899,"eph":35.340,"sep":59.660}
{"class":"SKY","device":"/dev/ttyACM0","time":"2024-07-09T11:39:00.000Z","gdop":3.73,"hdop":1.86,"pdop":3.14,"tdop":2.02,"xdop":1.00,"ydop":2.54,"vdop":2.53,"uSat":6}
{"class":"SKY","device":"/dev/ttyACM0","time":"2024-07-09T11:39:00.000Z","gdop":3.73,"hdop":1.86,"pdop":3.14,"tdop":2.02,"xdop":1.00,"ydop":2.54,"vdop":2.53,"uSat":6}
{"class":"TPV","device":"/dev/ttyACM0","mode":3,"time":"2024-07-09T11:39:00.248Z","leapseconds":18,"ept":0.005,"lat":52.315858952,"lon":10.561806505,"altHAE":137.0968,"altMSL":93.1983,"alt":93.1983,"epx":14.966,"epy":38.170,"epv":58.190,"track":170.1524,"magtrack":173.3719,"magvar":3.2,"speed":0.011,"climb":-0.030,"eps":307.82,"epc":469.27,"ecefx":3841091.29,"ecefy":716190.87,"ecefz":5024473.27,"ecefvx":-0.01,"ecefvy":0.00,"ecefvz":-0.03,"ecefpAcc":4.27,"ecefvAcc":0.41,"velN":-0.011,"velE":0.002,"velD":0.030,"geoidSep":43.899,"eph":35.340,"sep":59.660}
{"class":"SKY","device":"/dev/ttyACM0","time":"2024-07-09T11:39:00.248Z","gdop":3.73,"hdop":1.86,"pdop":3.14,"tdop":2.02,"xdop":1.00,"ydop":2.54,"vdop":2.53,"nSat":14,"uSat":7,"satellites":[{"PRN":2,"gnssid":0,"svid":2,"az":285.0,"el":85.0,"ss":49.0,"used":true,"health":1},{"PRN":15,"gnssid":0,"svid":15,"az":0.0,"el":-9.0,"ss":0.0,"used":false,"health":1},{"PRN":28,"gnssid":0,"svid":28,"az":99.0,"el":6.0,"ss":33.0,"used":false,"health":1},{"PRN":31,"gnssid":0,"svid":31,"az":0.0,"el":-9.0,"ss":0.0,"used":false,"health":1},{"PRN":12,"gnssid":0,"svid":12,"az":0.0,"el":-9.0,"ss":0.0,"used":false,"health":1},{"PRN":17,"gnssid":0,"svid":17,"az":313.0,"el":25.0,"ss":45.0,"used":true,"health":1},{"PRN":14,"gnssid":0,"svid":14,"az":278.0,"el":17.0,"ss":42.0,"used":true,"health":1},{"PRN":8,"gnssid":0,"svid":8,"az":176.0,"el":25.0,"ss":30.0,"used":false,"health":1},{"PRN":3,"gnssid":0,"svid":3,"az":240.0,"el":40.0,"ss":48.0,"used":true,"health":1},{"PRN":32,"gnssid":0,"svid":32,"az":59.0,"el":37.0,"ss":45.0,"used":true,"health":1},{"PRN":10,"gnssid":0,"svid":10,"az":0.0,"el":-9.0,"ss":32.0,"used":false,"health":1},{"PRN":21,"gnssid":0,"svid":21,"az":120.0,"el":76.0,"ss":47.0,"used":true,"health":1},{"PRN":22,"gnssid":0,"svid":22,"az":301.0,"el":19.0,"ss":45.0,"used":true,"health":1},{"PRN":19,"gnssid":0,"svid":19,"az":324.0,"el":2.0,"ss":0.0,"used":false,"health":1}]}
{"class":"TPV","device":"/dev/ttyACM0","mode":3,"time":"2024-07-09T11:39:00.500Z","leapseconds":18,"ept":0.005,"lat":52.315859301,"lon":10.561806640,"altHAE":137.0667,"altMSL":93.1682,"alt":93.1682,"epx":14.966,"epy":38.170,"epv":58.190,"track":98.6212,"magtrack":101.8407,"magvar":3.2,"speed":0.075,"climb":-0.042,"eps":0.41,"epc":461.82,"ecefx":3841091.24,"ecefy":716190.87,"ecefz":5024473.27,"ecefvx":-0.03,"ecefvy":0.07,"ecefvz":-0.04,"ecefpAcc":4.27,"ecefvAcc":0.41,"velN":-0.011,"velE":0.074,"velD":0.042,"geoidSep":43.899,"eph":35.340,"sep":59.660}
{"class":"SKY","device":"/dev/ttyACM0","time":"2024-07-09T11:39:00.248Z","gdop":3.73,"hdop":1.86,"pdop":3.14,"tdop":2.02,"xdop":1.00,"ydop":2.54,"vdop":2.53,"uSat":6}
{"class":"SKY","device":"/dev/ttyACM0","time":"2024-07-09T11:39:00.248Z","gdop":3.73,"hdop":1.86,"pdop":3.14,"tdop":2.02,"xdop":1.00,"ydop":2.54,"vdop":2.53,"uSat":6}
{"class":"TPV","device":"/dev/ttyACM0","mode":3,"time":"2024-07-09T11:39:00.500Z","leapseconds":18,"ept":0.005,"lat":52.315859301,"lon":10.561806640,"altHAE":137.0667,"altMSL":93.1682,"alt":93.1682,"epx":14.966,"epy":38.170,"epv":58.190,"track":98.6212,"magtrack":101.8407,"magvar":3.2,"speed":0.075,"climb":-0.042,"eps":302.93,"epc":461.82,"ecefx":3841091.24,"ecefy":716190.87,"ecefz":5024473.27,"ecefvx":-0.03,"ecefvy":0.07,"ecefvz":-0.04,"ecefpAcc":4.27,"ecefvAcc":0.41,"velN":-0.011,"velE":0.074,"velD":0.042,"geoidSep":43.899,"eph":35.340,"sep":59.660}
{"class":"SKY","device":"/dev/ttyACM0","time":"2024-07-09T11:39:00.500Z","gdop":3.73,"hdop":1.86,"pdop":3.14,"tdop":2.02,"xdop":1.00,"ydop":2.54,"vdop":2.53,"nSat":14,"uSat":7,"satellites":[{"PRN":2,"gnssid":0,"svid":2,"az":285.0,"el":85.0,"ss":49.0,"used":true,"health":1},{"PRN":15,"gnssid":0,"svid":15,"az":0.0,"el":-9.0,"ss":0.0,"used":false,"health":1},{"PRN":28,"gnssid":0,"svid":28,"az":99.0,"el":6.0,"ss":33.0,"used":false,"health":1},{"PRN":31,"gnssid":0,"svid":31,"az":0.0,"el":-9.0,"ss":0.0,"used":false,"health":1},{"PRN":12,"gnssid":0,"svid":12,"az":0.0,"el":-9.0,"ss":0.0,"used":false,"health":1},{"PRN":17,"gnssid":0,"svid":17,"az":313.0,"el":25.0,"ss":45.0,"used":true,"health":1},{"PRN":14,"gnssid":0,"svid":14,"az":278.0,"el":17.0,"ss":42.0,"used":true,"health":1},{"PRN":8,"gnssid":0,"svid":8,"az":176.0,"el":25.0,"ss":30.0,"used":false,"health":1},{"PRN":3,"gnssid":0,"svid":3,"az":240.0,"el":40.0,"ss":48.0,"used":true,"health":1},{"PRN":32,"gnssid":0,"svid":32,"az":59.0,"el":37.0,"ss":45.0,"used":true,"health":1},{"PRN":10,"gnssid":0,"svid":10,"az":0.0,"el":-9.0,"ss":32.0,"used":false,"health":1},{"PRN":21,"gnssid":0,"svid":21,"az":120.0,"el":76.0,"ss":47.0,"used":true,"health":1},{"PRN":22,"gnssid":0,"svid":22,"az":301.0,"el":19.0,"ss":45.0,"used":true,"health":1},{"PRN":19,"gnssid":0,"svid":19,"az":324.0,"el":2.0,"ss":0.0,"used":false,"health":1}]}
{"class":"TPV","device":"/dev/ttyACM0","mode":3,"time":"2024-07-09T11:39:00.748Z","leapseconds":18,"ept":0.005,"lat":52.315859750,"lon":10.561807089,"altHAE":137.0408,"altMSL":93.1423,"alt":93.1423,"epx":14.966,"epy":38.170,"epv":58.190,"track":70.6350,"magtrack":73.8545,"magvar":3.2,"speed":0.188,"climb":-0.048,"eps":0.41,"epc":469.27,"ecefx":3841091.18,"ecefy":716190.89,"ecefz":5024473.28,"ecefvx":-0.11,"ecefvy":0.16,"ecefvz":0.00,"ecefpAcc":4.27,"ecefvAcc":0.41,"velN":0.062,"velE":0.177,"velD":0.048,"geoidSep":43.899,"eph":35.340,"sep":59.660}
{"class":"SKY","device":"/dev/ttyACM0","time":"2024-07-09T11:39:00.500Z","gdop":3.73,"hdop":1.86,"pdop":3.14,"tdop":2.02,"xdop":1.00,"ydop":2.54,"vdop":2.53,"uSat":6}
{"class":"SKY","device":"/dev/ttyACM0","time":"2024-07-09T11:39:00.500Z","gdop":3.73,"hdop":1.86,"pdop":3.14,"tdop":2.02,"xdop":1.00,"ydop":2.54,"vdop":2.53,"uSat":6}
{"class":"TPV","device":"/dev/ttyACM0","mode":3,"time":"2024-07-09T11:39:00.748Z","leapseconds":18,"ept":0.005,"lat":52.315859750,"lon":10.561807089,"altHAE":137.0408,"altMSL":93.1423,"alt":93.1423,"epx":14.966,"epy":38.170,"epv":58.190,"track":70.6350,"magtrack":73.8545,"magvar":3.2,"speed":0.188,"climb":-0.048,"eps":307.82,"epc":469.27,"ecefx":3841091.18,"ecefy":716190.89,"ecefz":5024473.28,"ecefvx":-0.11,"ecefvy":0.16,"ecefvz":0.00,"ecefpAcc":4.27,"ecefvAcc":0.41,"velN":0.062,"velE":0.177,"velD":0.048,"geoidSep":43.899,"eph":35.340,"sep":59.660}
{"class":"SKY","device":"/dev/ttyACM0","time":"2024-07-09T11:39:00.748Z","gdop":3.73,"hdop":1.86,"pdop":3.14,"tdop":2.02,"xdop":1.00,"ydop":2.54,"vdop":2.53,"nSat":14,"uSat":7,"satellites":[{"PRN":2,"gnssid":0,"svid":2,"az":285.0,"el":85.0,"ss":49.0,"used":true,"health":1},{"PRN":15,"gnssid":0,"svid":15,"az":0.0,"el":-9.0,"ss":0.0,"used":false,"health":1},{"PRN":28,"gnssid":0,"svid":28,"az":99.0,"el":6.0,"ss":31.0,"used":false,"health":1},{"PRN":31,"gnssid":0,"svid":31,"az":0.0,"el":-9.0,"ss":0.0,"used":false,"health":1},{"PRN":12,"gnssid":0,"svid":12,"az":0.0,"el":-9.0,"ss":0.0,"used":false,"health":1},{"PRN":17,"gnssid":0,"svid":17,"az":313.0,"el":25.0,"ss":45.0,"used":true,"health":1},{"PRN":14,"gnssid":0,"svid":14,"az":278.0,"el":17.0,"ss":42.0,"used":true,"health":1},{"PRN":8,"gnssid":0,"svid":8,"az":176.0,"el":25.0,"ss":32.0,"used":false,"health":1},{"PRN":3,"gnssid":0,"svid":3,"az":240.0,"el":40.0,"ss":48.0,"used":true,"health":1},{"PRN":32,"gnssid":0,"svid":32,"az":59.0,"el":37.0,"ss":45.0,"used":true,"health":1},{"PRN":10,"gnssid":0,"svid":10,"az":0.0,"el":-9.0,"ss":32.0,"used":false,"health":1},{"PRN":21,"gnssid":0,"svid":21,"az":120.0,"el":76.0,"ss":47.0,"used":true,"health":1},{"PRN":22,"gnssid":0,"svid":22,"az":301.0,"el":19.0,"ss":45.0,"used":true,"health":1},{"PRN":19,"gnssid":0,"svid":19,"az":324.0,"el":2.0,"ss":0.0,"used":false,"health":1}]}
{"class":"TPV","device":"/dev/ttyACM0","mode":3,"time":"2024-07-09T11:39:01.000Z","leapseconds":18,"ept":0.005,"lat":52.315860095,"lon":10.561808457,"altHAE":136.9859,"altMSL":93.0874,"alt":93.0874,"epx":14.966,"epy":38.170,"epv":58.190,"track":60.8200,"magtrack":64.0395,"magvar":3.2,"speed":0.449,"climb":-0.030,"eps":0.41,"epc":461.82,"ecefx":3841091.10,"ecefy":716190.97,"ecefz":5024473.26,"ecefvx":-0.26,"ecefvy":0.35,"ecefvz":0.11,"ecefpAcc":4.26,"ecefvAcc":0.41,"velN":0.219,"velE":0.392,"velD":0.030,"geoidSep":43.899,"eph":35.340,"sep":37.620}
{"class":"SKY","device":"/dev/ttyACM0","time":"2024-07-09T11:39:00.748Z","gdop":3.73,"hdop":1.86,"pdop":1.98,"tdop":2.02,"xdop":1.00,"ydop":2.54,"vdop":2.53,"uSat":6}
{"class":"SKY","device":"/dev/ttyACM0","time":"2024-07-09T11:39:00.748Z","gdop":2.30,"hdop":1.10,"pdop":1.98,"tdop":1.16,"xdop":1.00,"ydop":2.54,"vdop":1.65,"uSat":6}
{"class":"TPV","device":"/dev/ttyACM0","mode":3,"time":"2024-07-09T11:39:01.000Z","leapseconds":18,"ept":0.005,"lat":52.315860095,"lon":10.561808457,"altHAE":136.9859,"altMSL":93.0874,"alt":93.0874,"epx":14.966,"epy":38.170,"epv":58.190,"track":60.8200,"magtrack":64.0395,"magvar":3.2,"speed":0.449,"climb":-0.030,"eps":302.93,"epc":461.82,"ecefx":3841091.10,"ecefy":716190.97,"ecefz":5024473.26,"ecefvx":-0.26,"ecefvy":0.35,"ecefvz":0.11,"ecefpAcc":4.26,"ecefvAcc":0.41,"velN":0.219,"velE":0.392,"velD":0.030,"geoidSep":43.899,"eph":35.340,"sep":37.620}
{"class":"SKY","device":"/dev/ttyACM0","time":"2024-07-09T11:39:01.000Z","gdop":2.30,"hdop":1.10,"pdop":1.98,"tdop":1.16,"xdop":1.00,"ydop":2.54,"vdop":1.65,"nSat":14,"uSat":8,"satellites":[{"PRN":2,"gnssid":0,"svid":2,"az":285.0,"el":85.0,"ss":48.0,"used":true,"health":1},{"PRN":15,"gnssid":0,"svid":15,"az":0.0,"el":-9.0,"ss":0.0,"used":false,"health":1},{"PRN":28,"gnssid":0,"svid":28,"az":99.0,"el":6.0,"ss":30.0,"used":false,"health":1},{"PRN":31,"gnssid":0,"svid":31,"az":0.0,"el":-9.0,"ss":0.0,"used":false,"health":1},{"PRN":12,"gnssid":0,"svid":12,"az":0.0,"el":-9.0,"ss":0.0,"used":false,"health":1},{"PRN":17,"gnssid":0,"svid":17,"az":313.0,"el":25.0,"ss":45.0,"used":true,"health":1},{"PRN":14,"gnssid":0,"svid":14,"az":278.0,"el":17.0,"ss":41.0,"used":true,"health":1},{"PRN":8,"gnssid":0,"svid":8,"az":176.0,"el":25.0,"ss":33.0,"used":true,"health":1},{"PRN":3,"gnssid":0,"svid":3,"az":240.0,"el":40.0,"ss":47.0,"used":true,"health":1},{"PRN":32,"gnssid":0,"svid":32,"az":59.0,"el":37.0,"ss":45.0,"used":true,"health":1},{"PRN":10,"gnssid":0,"svid":10,"az":0.0,"el":-9.0,"ss":33.0,"used":false,"health":1},{"PRN":21,"gnssid":0,"svid":21,"az":120.0,"el":76.0,"ss":47.0,"used":true,"health":1},{"PRN":22,"gnssid":0,"svid":22,"az":301.0,"el":19.0,"ss":44.0,"used":true,"health":1},{"PRN":19,"gnssid":0,"svid":19,"az":324.0,"el":2.0,"ss":0.0,"used":false,"health":1}]}
{"class":"TPV","device":"/dev/ttyACM0","mode":3,"time":"2024-07-09T11:39:01.248Z","leapseconds":18,"ept":0.005,"lat":52.315860724,"lon":10.561810681,"altHAE":136.9065,"altMSL":93.0080,"alt":93.0080,"epx":14.966,"epy":38.170,"epv":37.950,"track":59.7829,"magtrack":63.0023,"magvar":3.2,"speed":0.794,"climb":-0.056,"eps":0.41,"epc":387.66,"ecefx":3841090.97,"ecefy":716191.10,"ecefz":5024473.24,"ecefvx":-0.47,"ecefvy":0.61,"ecefvz":0.20,"ecefpAcc":4.26,"ecefvAcc":0.41,"velN":0.399,"velE":0.686,"velD":0.056,"geoidSep":43.899,"eph":20.900,"sep":37.620}
{"class":"SKY","device":"/dev/ttyACM0","time":"2024-07-09T11:39:01.000Z","gdop":2.30,"hdop":1.10,"pdop":1.98,"tdop":1.16,"xdop":1.00,"ydop":2.54,"vdop":1.65,"uSat":6}
{"class":"SKY","device":"/dev/ttyACM0","time":"2024-07-09T11:39:01.000Z","gdop":2.30,"hdop":1.10,"pdop":1.98,"tdop":1.15,"xdop":1.00,"ydop":2.54,"vdop":1.65,"uSat":6}
{"class":"TPV","device":"/dev/ttyACM0","mode":3,"time":"2024-07-09T11:39:01.248Z","leapseconds":18,"ept":0.005,"lat":52.315860724,"lon":10.561810681,"altHAE":136.9065,"altMSL":93.0080,"alt":93.0080,"epx":14.966,"epy":38.170,"epv":37.950,"track":59.7829,"magtrack":63.0023,"magvar":3.2,"speed":0.794,"climb":-0.056,"eps":307.82,"epc":387.66,"ecefx":3841090.97,"ecefy":716191.10,"ecefz":5024473.24,"ecefvx":-0.47,"ecefvy":0.61,"ecefvz":0.20,"ecefpAcc":4.26,"ecefvAcc":0.41,"velN":0.399,"velE":0.686,"velD":0.056,"geoidSep":43.899,"eph":20.900,"sep":37.620}
{"class":"SKY","device":"/dev/ttyACM0","time":"2024-07-09T11:39:01.248Z","gdop":2.30,"hdop":1.10,"pdop":1.98,"tdop":1.15,"xdop":1.00,"ydop":2.54,"vdop":1.65,"nSat":14,"uSat":8,"satellites":[{"PRN":2,"gnssid":0,"svid":2,"az":285.0,"el":85.0,"ss":48.0,"used":true,"health":1},{"PRN":15,"gnssid":0,"svid":15,"az":0.0,"el":-9.0,"ss":0.0,"used":false,"health":1},{"PRN":28,"gnssid":0,"svid":28,"az":99.0,"el":6.0,"ss":30.0,"used":false,"health":1},{"PRN":31,"gnssid":0,"svid":31,"az":0.0,"el":-9.0,"ss":0.0,"used":false,"health":1},{"PRN":12,"gnssid":0,"svid":12,"az":0.0,"el":-9.0,"ss":0.0,"used":false,"health":1},{"PRN":17,"gnssid":0,"svid":17,"az":313.0,"el":25.0,"ss":46.0,"used":true,"health":1},{"PRN":14,"gnssid":0,"svid":14,"az":278.0,"el":17.0,"ss":42.0,"used":true,"health":1},{"PRN":8,"gnssid":0,"svid":8,"az":176.0,"el":25.0,"ss":35.0,"used":true,"health":1},{"PRN":3,"gnssid":0,"svid":3,"az":240.0,"el":40.0,"ss":47.0,"used":true,"health":1},{"PRN":32,"gnssid":0,"svid":32,"az":59.0,"el":37.0,"ss":46.0,"used":true,"health":1},{"PRN":10,"gnssid":0,"svid":10,"az":0.0,"el":-9.0,"ss":34.0,"used":false,"health":1},{"PRN":21,"gnssid":0,"svid":21,"az":120.0,"el":76.0,"ss":47.0,"used":true,"health":1},{"PRN":22,"gnssid":0,"svid":22,"az":301.0,"el":19.0,"ss":43.0,"used":true,"health":1},{"PRN":19,"gnssid":0,"svid":19,"az":324.0,"el":2.0,"ss":0.0,"used":false,"health":1}]}
{"class":"TPV","device":"/dev/ttyACM0","mode":3,"time":"2024-07-09T11:39:01.500Z","leapseconds":18,"ept":0.005,"lat":52.315862393,"lon":10.561813733,"altHAE":136.9274,"altMSL":93.0289,"alt":93.0289,"epx":14.966,"epy":38.170,"epv":37.950,"track":62.3677,"magtrack":65.5872,"magvar":3.2,"speed":1.189,"climb":-0.047,"eps":0.40,"epc":301.19,"ecefx":3841090.80,"ecefy":716191.28,"ecefz":5024473.37,"ecefvx":-0.65,"ecefvy":0.95,"ecefvz":0.30,"ecefpAcc":4.25,"ecefvAcc":0.40,"velN":0.551,"velE":1.053,"velD":0.047,"geoidSep":43.899,"eph":20.900,"sep":37.620}
{"class":"SKY","device":"/dev/ttyACM0","time":"2024-07-09T11:39:01.248Z","gdop":2.30,"hdop":1.10,"pdop":1.98,"tdop":1.15,"xdop":1.00,"ydop":2.54,"vdop":1.65,"uSat":6}
{"class":"SKY","device":"/dev/ttyACM0","time":"2024-07-09T11:39:01.248Z","gdop":2.29,"hdop":1.10,"pdop":1.98,"tdop":1.15,"xdop":1.00,"ydop":2.54,"vdop":1.65,"uSat":6}
{"class":"TPV","device":"/dev/ttyACM0","mode":3,"time":"2024-07-09T11:39:01.500Z","leapseconds":18,"ept":0.005,"lat":52.315862393,"lon":10.561813733,"altHAE":136.9274,"altMSL":93.0289,"alt":93.0289,"epx":14.966,"epy":38.170,"epv":37.950,"track":62.3677,"magtrack":65.5872,"magvar":3.2,"speed":1.189,"climb":-0.047,"eps":302.93,"epc":301.19,"ecefx":3841090.80,"ecefy":716191.28,"ecefz":5024473.37,"ecefvx":-0.65,"ecefvy":0.95,"ecefvz":0.30,"ecefpAcc":4.25,"ecefvAcc":0.40,"velN":0.551,"velE":1.053,"velD":0.047,"geoidSep":43.899,"eph":20.900,"sep":37.620}
{"class":"SKY","device":"/dev/ttyACM0","time":"2024-07-09T11:39:01.500Z","gdop":2.29,"hdop":1.10,"pdop":1.98,"tdop":1.15,"xdop":1.00,"ydop":2.54,"vdop":1.65,"nSat":14,"uSat":8,"satellites":[{"PRN":2,"gnssid":0,"svid":2,"az":285.0,"el":85.0,"ss":48.0,"used":true,"health":1},{"PRN":15,"gnssid":0,"svid":15,"az":0.0,"el":-9.0,"ss":0.0,"used":false,"health":1},{"PRN":28,"gnssid":0,"svid":28,"az":99.0,"el":6.0,"ss":29.0,"used":false,"health":1},{"PRN":31,"gnssid":0,"svid":31,"az":0.0,"el":-9.0,"ss":0.0,"used":false,"health":1},{"PRN":12,"gnssid":0,"svid":12,"az":0.0,"el":-9.0,"ss":0.0,"used":false,"health":1},{"PRN":17,"gnssid":0,"svid":17,"az":313.0,"el":25.0,"ss":47.0,"used":true,"health":1},{"PRN":14,"gnssid":0,"svid":14,"az":278.0,"el":17.0,"ss":42.0,"used":true,"health":1},{"PRN":8,"gnssid":0,"svid":8,"az":176.0,"el":25.0,"ss":37.0,"used":true,"health":1},{"PRN":3,"gnssid":0,"svid":3,"az":240.0,"el":40.0,"ss":46.0,"used":true,"health":1},{"PRN":32,"gnssid":0,"svid":32,"az":59.0,"el":37.0,"ss":45.0,"used":true,"health":1},{"PRN":10,"gnssid":0,"svid":10,"az":0.0,"el":-9.0,"ss":34.0,"used":false,"health":1},{"PRN":21,"gnssid":0,"svid":21,"az":120.0,"el":76.0,"ss":47.0,"used":true,"health":1},{"PRN":22,"gnssid":0,"svid":22,"az":301.0,"el":19.0,"ss":44.0,"used":true,"health":1},{"PRN":19,"gnssid":0,"svid":19,"az":324.0,"el":2.0,"ss":0.0,"used":false,"health":1}]}
{"class":"TPV","device":"/dev/ttyACM0","mode":3,"time":"2024-07-09T11:39:01.748Z","leapseconds":18,"ept":0.005,"lat":52.315863950,"lon":10.561818360,"altHAE":136.8820,"altMSL":92.9835,"alt":92.9835,"epx":14.966,"epy":38.170,"epv":37.950,"track":60.7204,"magtrack":63.9398,"magvar":3.2,"speed":1.569,"climb":-0.037,"eps":0.40,"epc":306.05,"ecefx":3841090.58,"ecefy":716191.56,"ecefz":5024473.44,"ecefvx":-0.87,"ecefvy":1.23,"ecefvz":0.44,"ecefpAcc":4.24,"ecefvAcc":0.40,"velN":0.767,"velE":1.369,"velD":0.037,"geoidSep":43.899,"eph":20.900,"sep":37.620}
{"class":"SKY","device":"/dev/ttyACM0","time":"2024-07-09T11:39:01.500Z","gdop":2.29,"hdop":1.10,"pdop":1.98,"tdop":1.15,"xdop":1.00,"ydop":2.54,"vdop":1.65,"uSat":6}
{"class":"SKY","device":"/dev/ttyACM0","time":"2024-07-09T11:39:01.500Z","gdop":2.29,"hdop":1.10,"pdop":1.98,"tdop":1.15,"xdop":1.00,"ydop":2.54,"vdop":1.65,"uSat":6}
{"class":"TPV","device":"/dev/ttyACM0","mode":3,"time":"2024-07-09T11:39:01.748Z","leapseconds":18,"ept":0.005,"lat":52.315863950,"lon":10.561818360,"altHAE":136.8820,"altMSL":92.9835,"alt":92.9835,"epx":14.966,"epy":38.170,"epv":37.950,"track":60.7204,"magtrack":63.9398,"magvar":3.2,"speed":1.569,"climb":-0.037,"eps":307.82,"epc":306.05,"ecefx":3841090.58,"ecefy":716191.56,"ecefz":5024473.44,"ecefvx":-0.87,"ecefvy":1.23,"ecefvz":0.44,"ecefpAcc":4.24,"ecefvAcc":0.40,"velN":0.767,"velE":1.369,"velD":0.037,"geoidSep":43.899,"eph":20.900,"sep":37.620}
{"class":"SKY","device":"/dev/ttyACM0","time":"2024-07-09T11:39:01.748Z","gdop":2.29,"hdop":1.10,"pdop":1.98,"tdop":1.15,"xdop":1.00,"ydop":2.54,"vdop":1.65,"nSat":14,"uSat":8,"satellites":[{"PRN":2,"gnssid":0,"svid":2,"az":285.0,"el":85.0,"ss":48.0,"used":true,"health":1},{"PRN":15,"gnssid":0,"svid":15,"az":0.0,"el":-9.0,"ss":0.0,"used":false,"health":1},{"PRN":28,"gnssid":0,"svid":28,"az":99.0,"el":6.0,"ss":29.0,"used":false,"health":1},{"PRN":31,"gnssid":0,"svid":31,"az":0.0,"el":-9.0,"ss":0.0,"used":false,"health":1},{"PRN":12,"gnssid":0,"svid":12,"az":0.0,"el":-9.0,"ss":0.0,"used":false,"health":1},{"PRN":17,"gnssid":0,"svid":17,"az":313.0,"el":25.0,"ss":47.0,"used":true,"health":1},{"PRN":14,"gnssid":0,"svid":14,"az":278.0,"el":17.0,"ss":42.0,"used":true,"health":1},{"PRN":8,"gnssid":0,"svid":8,"az":176.0,"el":25.0,"ss":40.0,"used":true,"health":1},{"PRN":3,"gnssid":0,"svid":3,"az":240.0,"el":40.0,"ss":47.0,"used":true,"health":1},{"PRN":32,"gnssid":0,"svid":32,"az":59.0,"el":37.0,"ss":46.0,"used":true,"health":1},{"PRN":10,"gnssid":0,"svid":10,"az":0.0,"el":-9.0,"ss":33.0,"used":false,"health":1},{"PRN":21,"gnssid":0,"svid":21,"az":120.0,"el":76.0,"ss":47.0,"used":true,"health":1},{"PRN":22,"gnssid":0,"svid":22,"az":301.0,"el":19.0,"ss":44.0,"used":true,"health":1},{"PRN":19,"gnssid":0,"svid":19,"az":324.0,"el":2.0,"ss":0.0,"used":false,"health":1}]}
{"class":"TPV","device":"/dev/ttyACM0","mode":3,"time":"2024-07-09T11:39:02.000Z","leapseconds":18,"ept":0.005,"lat":52.315865725,"lon":10.561824393,"altHAE":136.8305,"altMSL":92.9320,"alt":92.9320,"epx":14.966,"epy":38.170,"epv":37.950,"track":61.0440,"magtrack":64.2635,"magvar":3.2,"speed":1.930,"climb":-0.039,"eps":0.40,"epc":301.19,"ecefx":3841090.32,"ecefy":716191.93,"ecefz":5024473.52,"ecefvx":-1.06,"ecefvy":1.52,"ecefvz":0.54,"ecefpAcc":4.23,"ecefvAcc":0.40,"velN":0.934,"velE":1.689,"velD":0.039,"geoidSep":43.898,"eph":20.900,"sep":37.620}
{"class":"SKY","device":"/dev/ttyACM0","time":"2024-07-09T11:39:01.748Z","gdop":2.29,"hdop":1.10,"pdop":1.98,"tdop":1.15,"xdop":1.00,"ydop":2.54,"vdop":1.65,"uSat":6}
{"class":"SKY","device":"/dev/ttyACM0","time":"2024-07-09T11:39:01.748Z","gdop":2.29,"hdop":1.10,"pdop":1.98,"tdop":1.15,"xdop":1.00,"ydop":2.54,"vdop":1.65,"uSat":6}
{"class":"TPV","device":"/dev/ttyACM0","mode":3,"time":"2024-07-09T11:39:02.000Z","leapseconds":18,"ept":0.005,"lat":52.315865725,"lon":10.561824393,"altHAE":136.8305,"altMSL":92.9320,"alt":92.9320,"epx":14.966,"epy":38.170,"epv":37.950,"track":61.0440,"magtrack":64.2635,"magvar":3.2,"speed":1.930,"climb":-0.039,"eps":302.93,"epc":301.19,"ecefx":3841090.32,"ecefy":716191.93,"ecefz":5024473.52,"ecefvx":-1.06,"ecefvy":1.52,"ecefvz":0.54,"ecefpAcc":4.23,"ecefvAcc":0.40,"velN":0.934,"velE":1.689,"velD":0.039,"geoidSep":43.898,"eph":20.900,"sep":37.620}
{"class":"SKY","device":"/dev/ttyACM0","time":"2024-07-09T11:39:02.000Z","gdop":2.29,"hdop":1.10,"pdop":1.98,"tdop":1.15,"xdop":1.00,"ydop":2.54,"vdop":1.65,"nSat":14,"uSat":8,"satellites":[{"PRN":2,"gnssid":0,"svid":2,"az":285.0,"el":85.0,"ss":48.0,"used":true,"health":1},{"PRN":15,"gnssid":0,"svid":15,"az":0.0,"el":-9.0,"ss":0.0,"used":false,"health":1},{"PRN":28,"gnssid":0,"svid":28,"az":99.0,"el":6.0,"ss":29.0,"used":false,"health":1},{"PRN":31,"gnssid":0,"svid":31,"az":0.0,"el":-9.0,"ss":0.0,"used":false,"health":1},{"PRN":12,"gnssid":0,"svid":12,"az":0.0,"el":-9.0,"ss":0.0,"used":false,"health":1},{"PRN":17,"gnssid":0,"svid":17,"az":313.0,"el":25.0,"ss":47.0,"used":true,"health":1},{"PRN":14,"gnssid":0,"svid":14,"az":278.0,"el":17.0,"ss":39.0,"used":true,"health":1},{"PRN":8,"gnssid":0,"svid":8,"az":176.0,"el":25.0,"ss":39.0,"used":true,"health":1},{"PRN":3,"gnssid":0,"svid":3,"az":240.0,"el":40.0,"ss":47.0,"used":true,"health":1},{"PRN":32,"gnssid":0,"svid":32,"az":59.0,"el":37.0,"ss":45.0,"used":true,"health":1},{"PRN":10,"gnssid":0,"svid":10,"az":0.0,"el":-9.0,"ss":33.0,"used":false,"health":1},{"PRN":21,"gnssid":0,"svid":21,"az":120.0,"el":76.0,"ss":47.0,"used":true,"health":1},{"PRN":22,"gnssid":0,"svid":22,"az":301.0,"el":19.0,"ss":43.0,"used":true,"health":1},{"PRN":19,"gnssid":0,"svid":19,"az":324.0,"el":2.0,"ss":0.0,"used":false,"health":1}]}
{"class":"TPV","device":"/dev/ttyACM0","mode":3,"time":"2024-07-09T11:39:02.248Z","leapseconds":18,"ept":0.005,"lat":52.315867702,"lon":10.561831398,"altHAE":136.7617,"altMSL":92.8632,"alt":92.8632,"epx":14.966,"epy":38.170,"epv":37.950,"track":60.5222,"magtrack":63.7417,"magvar":3.2,"speed":2.262,"climb":-0.038,"eps":0.41,"epc":306.05,"ecefx":3841090.02,"ecefy":716192.36,"ecefz":5024473.60,"ecefvx":-1.25,"ecefvy":1.77,"ecefvz":0.65,"ecefpAcc":4.22,"ecefvAcc":0.41,"velN":1.113,"velE":1.969,"velD":0.038,"geoidSep":43.898,"eph":20.900,"sep":37.620}
{"class":"SKY","device":"/dev/ttyACM0","time":"2024-07-09T11:39:02.000Z","gdop":2.29,"hdop":1.10,"pdop":1.98,"tdop":1.15,"xdop":1.00,"ydop":2.54,"vdop":1.65,"uSat":6}
{"class":"SKY","device":"/dev/ttyACM0","time":"2024-07-09T11:39:02.000Z","gdop":2.29,"hdop":1.10,"pdop":1.98,"tdop":1.15,"xdop":1.00,"ydop":2.54,"vdop":1.65,"uSat":6}
{"class":"TPV","device":"/dev/ttyACM0","mode":3,"time":"2024-07-09T11:39:02.248Z","leapseconds":18,"ept":0.005,"lat":52.315867702,"lon":10.561831398,"altHAE":136.7617,"altMSL":92.8632,"alt":92.8632,"epx":14.966,"epy":38.170,"epv":37.950,"track":60.5222,"magtrack":63.7417,"magvar":3.2,"speed":2.262,"climb":-0.038,"eps":307.82,"epc":306.05,"ecefx":3841090.02,"ecefy":716192.36,"ecefz":5024473.60,"ecefvx":-1.25,"ecefvy":1.77,"ecefvz":0.65,"ecefpAcc":4.22,"ecefvAcc":0.41,"velN":1.113,"velE":1.969,"velD":0.038,"geoidSep":43.898,"eph":20.900,"sep":37.620}
{"class":"SKY","device":"/dev/ttyACM0","time":"2024-07-09T11:39:02.248Z","gdop":2.29,"hdop":1.10,"pdop":1.98,"tdop":1.15,"xdop":1.00,"ydop":2.54,"vdop":1.65,"nSat":14,"uSat":8,"satellites":[{"PRN":2,"gnssid":0,"svid":2,"az":285.0,"el":85.0,"ss":48.0,"used":true,"health":1},{"PRN":15,"gnssid":0,"svid":15,"az":0.0,"el":-9.0,"ss":0.0,"used":false,"health":1},{"PRN":28,"gnssid":0,"svid":28,"az":99.0,"el":6.0,"ss":29.0,"used":false,"health":1},{"PRN":31,"gnssid":0,"svid":31,"az":0.0,"el":-9.0,"ss":0.0,"used":false,"health":1},{"PRN":12,"gnssid":0,"svid":12,"az":0.0,"el":-9.0,"ss":0.0,"used":false,"health":1},{"PRN":17,"gnssid":0,"svid":17,"az":313.0,"el":25.0,"ss":47.0,"used":true,"health":1},{"PRN":14,"gnssid":0,"svid":14,"az":278.0,"el":17.0,"ss":42.0,"used":true,"health":1},{"PRN":8,"gnssid":0,"svid":8,"az":176.0,"el":25.0,"ss":41.0,"used":true,"health":1},{"PRN":3,"gnssid":0,"svid":3,"az":240.0,"el":40.0,"ss":47.0,"used":true,"health":1},{"PRN":32,"gnssid":0,"svid":32,"az":59.0,"el":37.0,"ss":46.0,"used":true,"health":1},{"PRN":10,"gnssid":0,"svid":10,"az":0.0,"el":-9.0,"ss":34.0,"used":false,"health":1},{"PRN":21,"gnssid":0,"svid":21,"az":120.0,"el":76.0,"ss":47.0,"used":true,"health":1},{"PRN":22,"gnssid":0,"svid":22,"az":301.0,"el":19.0,"ss":43.0,"used":true,"health":1},{"PRN":19,"gnssid":0,"svid":19,"az":324.0,"el":2.0,"ss":0.0,"used":false,"health":1}]}
{"class":"TPV","device":"/dev/ttyACM0","mode":3,"time":"2024-07-09T11:39:02.500Z","leapseconds":18,"ept":0.005,"lat":52.315870215,"lon":10.561839888,"altHAE":136.6847,"altMSL":92.7862,"alt":92.7862,"epx":14.966,"epy":38.170,"epv":37.950,"track":61.3546,"magtrack":64.5741,"magvar":3.2,"speed":2.740,"climb":-0.029,"eps":0.40,"epc":301.19,"ecefx":3841089.65,"ecefy":716192.88,"ecefz":5024473.71,"ecefvx":-1.48,"ecefvy":2.17,"ecefvz":0.78,"ecefpAcc":4.21,"ecefvAcc":0.40,"velN":1.313,"velE":2.405,"velD":0.029,"geoidSep":43.898,"eph":20.900,"sep":37.620}
{"class":"SKY","device":"/dev/ttyACM0","time":"2024-07-09T11:39:02.248Z","gdop":2.29,"hdop":1.10,"pdop":1.98,"tdop":1.15,"xdop":1.00,"ydop":2.54,"vdop":1.65,"uSat":6}
{"class":"SKY","device":"/dev/ttyACM0","time":"2024-07-09T11:39:02.248Z","gdop":2.29,"hdop":1.10,"pdop":1.98,"tdop":1.15,"xdop":1.00,"ydop":2.54,"vdop":1.65,"uSat":6}
{"class":"TPV","device":"/dev/ttyACM0","mode":3,"time":"2024-07-09T11:39:02.500Z","leapseconds":18,"ept":0.005,"lat":52.315870215,"lon":10.561839888,"altHAE":136.6847,"altMSL":92.7862,"alt":92.7862,"epx":14.966,"epy":38.170,"epv":37.950,"track":61.3546,"magtrack":64.5741,"magvar":3.2,"speed":2.740,"climb":-0.029,"eps":302.93,"epc":301.19,"ecefx":3841089.65,"ecefy":716192.88,"ecefz":5024473.71,"ecefvx":-1.48,"ecefvy":2.17,"ecefvz":0.78,"ecefpAcc":4.21,"ecefvAcc":0.40,"velN":1.313,"velE":2.405,"velD":0.029,"geoidSep":43.898,"eph":20.900,"sep":37.620}
