{"class":"VERSION","release":"3.25","rev":"3.25","proto_major":3,"proto_minor":15}
{"class":"DEVICES","devices":[{"class":"DEVICE","path":"/dev/ttyACM0","driver":"u-blox","subtype":"SW 5.00    May 11 2006 14:40:17,HW 00040001","subtype1":"M4T1.2  May 11 2006 14:40:17","activated":"2024-07-09T11:39:03.146Z","flags":1,"native":1,"bps":57600,"parity":"N","stopbits":1,"cycle":1.00,"mincycle":0.02}]}
{"class":"WATCH","enable":true,"json":true,"nmea":false,"raw":0,"scaled":false,"timing":false,"split24":false,"pps":false}
{"class":"TPV","device":"/dev/ttyACM0","mode":3,"time":"2024-07-09T11:37:16.248Z","leapseconds":18,"ept":0.005,"lat":52.315810256,"lon":10.563454486,"altHAE":136.2407,"altMSL":92.3436,"alt":92.3436,"epx":14.966,"epy":38.170,"epv":57.730,"track":7.5171,"magtrack":10.7370,"magvar":3.2,"speed":0.028,"climb":0.004,"eps":0.45,"epc":465.56,"ecefx":3841074.39,"ecefy":716302.04,"ecefz":5024469.28,"ecefvx":-0.02,"ecefvy":0.00,"ecefvz":0.02,"ecefpAcc":4.25,"ecefvAcc":0.45,"velN":0.028,"velE":0.004,"velD":-0.004,"geoidSep":43.897,"eph":34.770,"sep":59.090}
{"class":"SKY","device":"/dev/ttyACM0","time":"2024-07-09T11:37:16.000Z","gdop":3.70,"hdop":1.83,"pdop":3.11,"tdop":2.00,"xdop":1.00,"ydop":2.54,"vdop":2.51,"uSat":6}
{"class":"SKY","device":"/dev/ttyACM0","time":"2024-07-09T11:37:16.000Z","gdop":3.70,"hdop":1.84,"pdop":3.11,"tdop":2.01,"xdop":1.00,"ydop":2.54,"vdop":2.52,"uSat":6}
{"class":"TPV","device":"/dev/ttyACM0","mode":3,"time":"2024-07-09T11:37:16.248Z","leapseconds":18,"ept":0.005,"lat":52.315810256,"lon":10.563454486,"altHAE":136.2407,"altMSL":92.3436,"alt":92.3436,"epx":14.966,"epy":38.170,"epv":57.730,"track":7.5171,"magtrack":10.7370,"magvar":3.2,"speed":0.028,"climb":0.004,"eps":307.82,"epc":465.56,"ecefx":3841074.39,"ecefy":716302.04,"ecefz":5024469.28,"ecefvx":-0.02,"ecefvy":0.00,"ecefvz":0.02,"ecefpAcc":4.25,"ecefvAcc":0.45,"velN":0.028,"velE":0.004,"velD":-0.004,"geoidSep":43.897,"eph":34.770,"sep":59.090}
{"class":"SKY","device":"/dev/ttyACM0","time":"2024-07-09T11:37:16.248Z","gdop":3.70,"hdop":1.84,"pdop":3.11,"tdop":2.01,"xdop":1.00,"ydop":2.54,"vdop":2.52,"nSat":14,"uSat":7,"satellites":[{"PRN":2,"gnssid":0,"svid":2,"az":287.0,"el":84.0,"ss":45.0,"used":true,"health":1},{"PRN":15,"gnssid":0,"svid":15,"az":0.0,"el":-9.0,"ss":0.0,"used":false,"health":1},{"PRN":28,"gnssid":0,"svid":28,"az":100.0,"el":6.0,"ss":34.0,"used":false,"health":1},{"PRN":30,"gnssid":0,"svid":30,"az":0.0,"el":-9.0,"ss":0.0,"used":false,"health":1},{"PRN":31,"gnssid":0,"svid":31,"az":0.0,"el":-9.0,"ss":0.0,"used":false,"health":1},{"PRN":17,"gnssid":0,"svid":17,"az":314.0,"el":25.0,"ss":45.0,"used":true,"health":1},{"PRN":14,"gnssid":0,"svid":14,"az":279.0,"el":17.0,"ss":38.0,"used":true,"health":1},{"PRN":8,"gnssid":0,"svid":8,"az":176.0,"el":26.0,"ss":30.0,"used":false,"health":1},{"PRN":3,"gnssid":0,"svid":3,"az":239.0,"el":40.0,"ss":35.0,"used":true,"health":1},{"PRN":32,"gnssid":0,"svid":32,"az":60.0,"el":37.0,"ss":47.0,"used":true,"health":1},{"PRN":10,"gnssid":0,"svid":10,"az":0.0,"el":-9.0,"ss":40.0,"used":false,"health":1},{"PRN":21,"gnssid":0,"svid":21,"az":120.0,"el":77.0,"ss":47.0,"used":true,"health":1},{"PRN":22,"gnssid":0,"svid":22,"az":302.0,"el":19.0,"ss":40.0,"used":true,"health":1},{"PRN":19,"gnssid":0,"svid":19,"az":324.0,"el":1.0,"ss":19.0,"used":false,"health":1}]}
{"class":"TPV","device":"/dev/ttyACM0","mode":3,"time":"2024-07-09T11:37:16.500Z","leapseconds":18,"ept":0.005,"lat":52.315811083,"lon":10.563454422,"altHAE":136.3086,"altMSL":92.4115,"alt":92.4115,"epx":14.966,"epy":38.170,"epv":57.960,"track":187.5171,"magtrack":190.7370,"magvar":3.2,"speed":0.014,"climb":-0.002,"eps":0.45,"epc":459.09,"ecefx":3841074.36,"ecefy":716302.03,"ecefz":5024469.39,"ecefvx":0.01,"ecefvy":0.00,"ecefvz":-0.01,"ecefpAcc":4.25,"ecefvAcc":0.45,"velN":-0.014,"velE":-0.002,"velD":0.002,"geoidSep":43.897,"eph":34.960,"sep":59.090}
{"class":"SKY","device":"/dev/ttyACM0","time":"2024-07-09T11:37:16.248Z","gdop":3.70,"hdop":1.84,"pdop":3.11,"tdop":2.01,"xdop":1.00,"ydop":2.54,"vdop":2.52,"uSat":6}
{"class":"SKY","device":"/dev/ttyACM0","time":"2024-07-09T11:37:16.248Z","gdop":3.70,"hdop":1.83,"pdop":3.11,"tdop":2.00,"xdop":1.00,"ydop":2.54,"vdop":2.51,"uSat":6}
{"class":"TPV","device":"/dev/ttyACM0","mode":3,"time":"2024-07-09T11:37:16.500Z","leapseconds":18,"ept":0.005,"lat":52.315811083,"lon":10.563454422,"altHAE":136.3086,"altMSL":92.4115,"alt":92.4115,"epx":14.966,"epy":38.170,"epv":57.960,"track":187.5171,"magtrack":190.7370,"magvar":3.2,"speed":0.014,"climb":-0.002,"eps":302.93,"epc":459.09,"ecefx":3841074.36,"ecefy":716302.03,"ecefz":5024469.39,"ecefvx":0.01,"ecefvy":0.00,"ecefvz":-0.01,"ecefpAcc":4.25,"ecefvAcc":0.45,"velN":-0.014,"velE":-0.002,"velD":0.002,"geoidSep":43.897,"eph":34.960,"sep":59.090}
{"class":"SKY","device":"/dev/ttyACM0","time":"2024-07-09T11:37:16.500Z","gdop":3.70,"hdop":1.83,"pdop":3.11,"tdop":2.00,"xdop":1.00,"ydop":2.54,"vdop":2.51,"nSat":14,"uSat":7,"satellites":[{"PRN":2,"gnssid":0,"svid":2,"az":287.0,"el":84.0,"ss":44.0,"used":true,"health":1},{"PRN":15,"gnssid":0,"svid":15,"az":0.0,"el":-9.0,"ss":0.0,"used":false,"health":1},{"PRN":28,"gnssid":0,"svid":28,"az":100.0,"el":6.0,"ss":34.0,"used":false,"health":1},{"PRN":30,"gnssid":0,"svid":30,"az":0.0,"el":-9.0,"ss":0.0,"used":false,"health":1},{"PRN":31,"gnssid":0,"svid":31,"az":0.0,"el":-9.0,"ss":0.0,"used":false,"health":1},{"PRN":17,"gnssid":0,"svid":17,"az":314.0,"el":25.0,"ss":45.0,"used":true,"health":1},{"PRN":14,"gnssid":0,"svid":14,"az":279.0,"el":17.0,"ss":39.0,"used":true,"health":1},{"PRN":8,"gnssid":0,"svid":8,"az":176.0,"el":26.0,"ss":28.0,"used":false,"health":1},{"PRN":3,"gnssid":0,"svid":3,"az":239.0,"el":40.0,"ss":34.0,"used":true,"health":1},{"PRN":32,"gnssid":0,"svid":32,"az":60.0,"el":37.0,"ss":47.0,"used":true,"health":1},{"PRN":10,"gnssid":0,"svid":10,"az":0.0,"el":-9.0,"ss":40.0,"used":false,"health":1},{"PRN":21,"gnssid":0,"svid":21,"az":120.0,"el":77.0,"ss":47.0,"used":true,"health":1},{"PRN":22,"gnssid":0,"svid":22,"az":302.0,"el":19.0,"ss":40.0,"used":true,"health":1},{"PRN":19,"gnssid":0,"svid":19,"az":324.0,"el":1.0,"ss":21.0,"used":false,"health":1}]}
{"class":"TPV","device":"/dev/ttyACM0","mode":3,"time":"2024-07-09T11:37:16.748Z","leapseconds":18,"ept":0.005,"lat":52.315811605,"lon":10.563454305,"altHAE":136.3648,"altMSL":92.4677,"alt":92.4677,"epx":14.966,"epy":38.170,"epv":57.730,"track":307.5758,"magtrack":310.7957,"magvar":3.2,"speed":0.012,"climb":0.007,"eps":0.46,"epc":466.49,"ecefx":3841074.35,"ecefy":716302.02,"ecefz":5024469.47,"ecefvx":0.00,"ecefvy":-0.01,"ecefvz":0.01,"ecefpAcc":4.26,"ecefvAcc":0.46,"velN":0.008,"velE":-0.010,"velD":-0.007,"geoidSep":43.897,"eph":34.770,"sep":59.090}
{"class":"SKY","device":"/dev/ttyACM0","time":"2024-07-09T11:37:16.500Z","gdop":3.70,"hdop":1.83,"pdop":3.11,"tdop":2.00,"xdop":1.00,"ydop":2.54,"vdop":2.51,"uSat":6}
{"class":"SKY","device":"/dev/ttyACM0","time":"2024-07-09T11:37:16.500Z","gdop":3.70,"hdop":1.84,"pdop":3.11,"tdop":2.00,"xdop":1.00,"ydop":2.54,"vdop":2.51,"uSat":6}
{"class":"TPV","device":"/dev/ttyACM0","mode":3,"time":"2024-07-09T11:37:16.748Z","leapseconds":18,"ept":0.005,"lat":52.315811605,"lon":10.563454305,"altHAE":136.3648,"altMSL":92.4677,"alt":92.4677,"epx":14.966,"epy":38.170,"epv":57.730,"track":307.5758,"magtrack":310.7957,"magvar":3.2,"speed":0.012,"climb":0.007,"eps":307.82,"epc":466.49,"ecefx":3841074.35,"ecefy":716302.02,"ecefz":5024469.47,"ecefvx":0.00,"ecefvy":-0.01,"ecefvz":0.01,"ecefpAcc":4.26,"ecefvAcc":0.46,"velN":0.008,"velE":-0.010,"velD":-0.007,"geoidSep":43.897,"eph":34.770,"sep":59.090}
{"class":"SKY","device":"/dev/ttyACM0","time":"2024-07-09T11:37:16.748Z","gdop":3.70,"hdop":1.84,"pdop":3.11,"tdop":2.00,"xdop":1.00,"ydop":2.54,"vdop":2.51,"nSat":14,"uSat":7,"satellites":[{"PRN":2,"gnssid":0,"svid":2,"az":287.0,"el":84.0,"ss":44.0,"used":true,"health":1},{"PRN":15,"gnssid":0,"svid":15,"az":0.0,"el":-9.0,"ss":0.0,"used":false,"health":1},{"PRN":28,"gnssid":0,"svid":28,"az":100.0,"el":6.0,"ss":34.0,"used":false,"health":1},{"PRN":30,"gnssid":0,"svid":30,"az":0.0,"el":-9.0,"ss":0.0,"used":false,"health":1},{"PRN":31,"gnssid":0,"svid":31,"az":0.0,"el":-9.0,"ss":0.0,"used":false,"health":1},{"PRN":17,"gnssid":0,"svid":17,"az":314.0,"el":25.0,"ss":45.0,"used":true,"health":1},{"PRN":14,"gnssid":0,"svid":14,"az":279.0,"el":17.0,"ss":38.0,"used":true,"health":1},{"PRN":8,"gnssid":0,"svid":8,"az":176.0,"el":26.0,"ss":30.0,"used":false,"health":1},{"PRN":3,"gnssid":0,"svid":3,"az":239.0,"el":40.0,"ss":33.0,"used":true,"health":1},{"PRN":32,"gnssid":0,"svid":32,"az":60.0,"el":37.0,"ss":47.0,"used":true,"health":1},{"PRN":10,"gnssid":0,"svid":10,"az":0.0,"el":-9.0,"ss":40.0,"used":false,"health":1},{"PRN":21,"gnssid":0,"svid":21,"az":120.0,"el":77.0,"ss":47.0,"used":true,"health":1},{"PRN":22,"gnssid":0,"svid":22,"az":302.0,"el":19.0,"ss":40.0,"used":true,"health":1},{"PRN":19,"gnssid":0,"svid":19,"az":324.0,"el":1.0,"ss":21.0,"used":false,"health":1}]}
{"class":"TPV","device":"/dev/ttyACM0","mode":3,"time":"2024-07-09T11:37:17.000Z","leapseconds":18,"ept":0.005,"lat":52.315811866,"lon":10.563454043,"altHAE":136.3803,"altMSL":92.4832,"alt":92.4832,"epx":14.966,"epy":38.170,"epv":57.730,"track":296.1579,"magtrack":299.3778,"magvar":3.2,"speed":0.086,"climb":0.009,"eps":0.47,"epc":458.17,"ecefx":3841074.34,"ecefy":716302.00,"ecefz":5024469.50,"ecefvx":-0.01,"ecefvy":-0.08,"ecefvz":0.03,"ecefpAcc":4.26,"ecefvAcc":0.47,"velN":0.038,"velE":-0.077,"velD":-0.009,"geoidSep":43.897,"eph":34.960,"sep":59.090}
{"class":"SKY","device":"/dev/ttyACM0","time":"2024-07-09T11:37:16.748Z","gdop":3.70,"hdop":1.84,"pdop":3.11,"tdop":2.00,"xdop":1.00,"ydop":2.54,"vdop":2.51,"uSat":6}
{"class":"SKY","device":"/dev/ttyACM0","time":"2024-07-09T11:37:16.748Z","gdop":3.70,"hdop":1.83,"pdop":3.11,"tdop":2.00,"xdop":1.00,"ydop":2.54,"vdop":2.51,"uSat":6}
{"class":"TPV","device":"/dev/ttyACM0","mode":3,"time":"2024-07-09T11:37:17.000Z","leapseconds":18,"ept":0.005,"lat":52.315811866,"lon":10.563454043,"altHAE":136.3803,"altMSL":92.4832,"alt":92.4832,"epx":14.966,"epy":38.170,"epv":57.730,"track":296.1579,"magtrack":299.3778,"magvar":3.2,"speed":0.086,"climb":0.009,"eps":302.93,"epc":458.17,"ecefx":3841074.34,"ecefy":716302.00,"ecefz":5024469.50,"ecefvx":-0.01,"ecefvy":-0.08,"ecefvz":0.03,"ecefpAcc":4.26,"ecefvAcc":0.47,"velN":0.038,"velE":-0.077,"velD":-0.009,"geoidSep":43.897,"eph":34.960,"sep":59.090}
{"class":"SKY","device":"/dev/ttyACM0","time":"2024-07-09T11:37:17.000Z","gdop":3.70,"hdop":1.83,"pdop":3.11,"tdop":2.00,"xdop":1.00,"ydop":2.54,"vdop":2.51,"nSat":14,"uSat":7,"satellites":[{"PRN":2,"gnssid":0,"svid":2,"az":287.0,"el":84.0,"ss":44.0,"used":true,"health":1},{"PRN":15,"gnssid":0,"svid":15,"az":0.0,"el":-9.0,"ss":0.0,"used":false,"health":1},{"PRN":28,"gnssid":0,"svid":28,"az":100.0,"el":6.0,"ss":32.0,"used":false,"health":1},{"PRN":30,"gnssid":0,"svid":30,"az":0.0,"el":-9.0,"ss":0.0,"used":false,"health":1},{"PRN":31,"gnssid":0,"svid":31,"az":0.0,"el":-9.0,"ss":0.0,"used":false,"health":1},{"PRN":17,"gnssid":0,"svid":17,"az":314.0,"el":25.0,"ss":45.0,"used":true,"health":1},{"PRN":14,"gnssid":0,"svid":14,"az":279.0,"el":17.0,"ss":37.0,"used":true,"health":1},{"PRN":8,"gnssid":0,"svid":8,"az":176.0,"el":26.0,"ss":30.0,"used":false,"health":1},{"PRN":3,"gnssid":0,"svid":3,"az":239.0,"el":40.0,"ss":31.0,"used":true,"health":1},{"PRN":32,"gnssid":0,"svid":32,"az":60.0,"el":37.0,"ss":47.0,"used":true,"health":1},{"PRN":10,"gnssid":0,"svid":10,"az":0.0,"el":-9.0,"ss":40.0,"used":false,"health":1},{"PRN":21,"gnssid":0,"svid":21,"az":120.0,"el":77.0,"ss":47.0,"used":true,"health":1},{"PRN":22,"gnssid":0,"svid":22,"az":302.0,"el":19.0,"ss":40.0,"used":true,"health":1},{"PRN":19,"gnssid":0,"svid":19,"az":324.0,"el":1.0,"ss":23.0,"used":false,"health":1}]}
{"class":"TPV","device":"/dev/ttyACM0","mode":3,"time":"2024-07-09T11:37:17.248Z","leapseconds":18,"ept":0.005,"lat":52.315812164,"lon":10.563453178,"altHAE":136.4052,"altMSL":92.5081,"alt":92.5081,"epx":14.966,"epy":38.170,"epv":57.730,"track":280.2095,"magtrack":283.4295,"magvar":3.2,"speed":0.322,"climb":-0.006,"eps":0.48,"epc":465.56,"ecefx":3841074.34,"ecefy":716301.94,"ecefz":5024469.54,"ecefvx":0.01,"ecefvy":-0.32,"ecefvz":0.03,"ecefpAcc":4.27,"ecefvAcc":0.48,"velN":0.057,"velE":-0.316,"velD":0.006,"geoidSep":43.897,"eph":34.770,"sep":71.820}
{"class":"SKY","device":"/dev/ttyACM0","time":"2024-07-09T11:37:17.000Z","gdop":3.70,"hdop":1.83,"pdop":3.78,"tdop":2.00,"xdop":1.00,"ydop":2.54,"vdop":2.51,"uSat":6}
{"class":"SKY","device":"/dev/ttyACM0","time":"2024-07-09T11:37:17.000Z","gdop":4.47,"hdop":2.56,"pdop":3.78,"tdop":2.39,"xdop":1.00,"ydop":2.54,"vdop":2.78,"uSat":6}
{"class":"TPV","device":"/dev/ttyACM0","mode":3,"time":"2024-07-09T11:37:17.248Z","leapseconds":18,"ept":0.005,"lat":52.315812164,"lon":10.563453178,"altHAE":136.4052,"altMSL":92.5081,"alt":92.5081,"epx":14.966,"epy":38.170,"epv":57.730,"track":280.2095,"magtrack":283.4295,"magvar":3.2,"speed":0.322,"climb":-0.006,"eps":307.82,"epc":465.56,"ecefx":3841074.34,"ecefy":716301.94,"ecefz":5024469.54,"ecefvx":0.01,"ecefvy":-0.32,"ecefvz":0.03,"ecefpAcc":4.27,"ecefvAcc":0.48,"velN":0.057,"velE":-0.316,"velD":0.006,"geoidSep":43.897,"eph":34.770,"sep":71.820}
{"class":"SKY","device":"/dev/ttyACM0","time":"2024-07-09T11:37:17.248Z","gdop":4.47,"hdop":2.56,"pdop":3.78,"tdop":2.39,"xdop":1.00,"ydop":2.54,"vdop":2.78,"nSat":14,"uSat":6,"satellites":[{"PRN":2,"gnssid":0,"svid":2,"az":287.0,"el":84.0,"ss":44.0,"used":true,"health":1},{"PRN":15,"gnssid":0,"svid":15,"az":0.0,"el":-9.0,"ss":0.0,"used":false,"health":1},{"PRN":28,"gnssid":0,"svid":28,"az":100.0,"el":6.0,"ss":30.0,"used":false,"health":1},{"PRN":30,"gnssid":0,"svid":30,"az":0.0,"el":-9.0,"ss":0.0,"used":false,"health":1},{"PRN":31,"gnssid":0,"svid":31,"az":0.0,"el":-9.0,"ss":0.0,"used":false,"health":1},{"PRN":17,"gnssid":0,"svid":17,"az":314.0,"el":25.0,"ss":45.0,"used":true,"health":1},{"PRN":14,"gnssid":0,"svid":14,"az":279.0,"el":17.0,"ss":39.0,"used":true,"health":1},{"PRN":8,"gnssid":0,"svid":8,"az":176.0,"el":26.0,"ss":31.0,"used":false,"health":1},{"PRN":3,"gnssid":0,"svid":3,"az":239.0,"el":40.0,"ss":35.0,"used":false,"health":1},{"PRN":32,"gnssid":0,"svid":32,"az":60.0,"el":37.0,"ss":48.0,"used":true,"health":1},{"PRN":10,"gnssid":0,"svid":10,"az":0.0,"el":-9.0,"ss":40.0,"used":false,"health":1},{"PRN":21,"gnssid":0,"svid":21,"az":120.0,"el":77.0,"ss":47.0,"used":true,"health":1},{"PRN":22,"gnssid":0,"svid":22,"az":302.0,"el":19.0,"ss":40.0,"used":true,"health":1},{"PRN":19,"gnssid":0,"svid":19,"az":324.0,"el":1.0,"ss":23.0,"used":false,"health":1}]}
{"class":"TPV","device":"/dev/ttyACM0","mode":3,"time":"2024-07-09T11:37:17.500Z","leapseconds":18,"ept":0.005,"lat":52.315813459,"lon":10.563452358,"altHAE":136.4582,"altMSL":92.5611,"alt":92.5611,"epx":14.966,"epy":38.170,"epv":63.940,"track":285.1571,"magtrack":288.3770,"magvar":3.2,"speed":0.546,"climb":-0.009,"eps":0.47,"epc":482.82,"ecefx":3841074.27,"ecefy":716301.87,"ecefz":5024469.67,"ecefvx":-0.02,"ecefvy":-0.54,"ecefvz":0.08,"ecefpAcc":4.70,"ecefvAcc":0.47,"velN":0.143,"velE":-0.527,"velD":0.009,"geoidSep":43.897,"eph":48.640,"sep":38.000}
{"class":"SKY","device":"/dev/ttyACM0","time":"2024-07-09T11:37:17.248Z","gdop":4.47,"hdop":2.56,"pdop":2.00,"tdop":2.39,"xdop":1.00,"ydop":2.54,"vdop":2.78,"uSat":6}
{"class":"SKY","device":"/dev/ttyACM0","time":"2024-07-09T11:37:17.248Z","gdop":2.32,"hdop":1.10,"pdop":2.00,"tdop":1.17,"xdop":1.00,"ydop":2.54,"vdop":1.67,"uSat":6}
{"class":"TPV","device":"/dev/ttyACM0","mode":3,"time":"2024-07-09T11:37:17.500Z","leapseconds":18,"ept":0.005,"lat":52.315813459,"lon":10.563452358,"altHAE":136.4582,"altMSL":92.5611,"alt":92.5611,"epx":14.966,"epy":38.170,"epv":63.940,"track":285.1571,"magtrack":288.3770,"magvar":3.2,"speed":0.546,"climb":-0.009,"eps":302.93,"epc":482.82,"ecefx":3841074.27,"ecefy":716301.87,"ecefz":5024469.67,"ecefvx":-0.02,"ecefvy":-0.54,"ecefvz":0.08,"ecefpAcc":4.70,"ecefvAcc":0.47,"velN":0.143,"velE":-0.527,"velD":0.009,"geoidSep":43.897,"eph":48.640,"sep":38.000}
{"class":"SKY","device":"/dev/ttyACM0","time":"2024-07-09T11:37:17.500Z","gdop":2.32,"hdop":1.10,"pdop":2.00,"tdop":1.17,"xdop":1.00,"ydop":2.54,"vdop":1.67,"nSat":14,"uSat":8,"satellites":[{"PRN":2,"gnssid":0,"svid":2,"az":287.0,"el":84.0,"ss":43.0,"used":true,"health":1},{"PRN":15,"gnssid":0,"svid":15,"az":0.0,"el":-9.0,"ss":0.0,"used":false,"health":1},{"PRN":28,"gnssid":0,"svid":28,"az":100.0,"el":6.0,"ss":35.0,"used":false,"health":1},{"PRN":30,"gnssid":0,"svid":30,"az":0.0,"el":-9.0,"ss":0.0,"used":false,"health":1},{"PRN":31,"gnssid":0,"svid":31,"az":0.0,"el":-9.0,"ss":0.0,"used":false,"health":1},{"PRN":17,"gnssid":0,"svid":17,"az":314.0,"el":25.0,"ss":45.0,"used":true,"health":1},{"PRN":14,"gnssid":0,"svid":14,"az":279.0,"el":17.0,"ss":41.0,"used":true,"health":1},{"PRN":8,"gnssid":0,"svid":8,"az":176.0,"el":26.0,"ss":37.0,"used":true,"health":1},{"PRN":3,"gnssid":0,"svid":3,"az":239.0,"el":40.0,"ss":39.0,"used":true,"health":1},{"PRN":32,"gnssid":0,"svid":32,"az":60.0,"el":37.0,"ss":49.0,"used":true,"health":1},{"PRN":10,"gnssid":0,"svid":10,"az":0.0,"el":-9.0,"ss":41.0,"used":false,"health":1},{"PRN":21,"gnssid":0,"svid":21,"az":120.0,"el":77.0,"ss":45.0,"used":true,"health":1},{"PRN":22,"gnssid":0,"svid":22,"az":302.0,"el":19.0,"ss":40.0,"used":true,"health":1},{"PRN":19,"gnssid":0,"svid":19,"az":324.0,"el":1.0,"ss":24.0,"used":false,"health":1}]}
{"class":"TPV","device":"/dev/ttyACM0","mode":3,"time":"2024-07-09T11:37:17.748Z","leapseconds":18,"ept":0.005,"lat":52.315815048,"lon":10.563450330,"altHAE":136.5617,"altMSL":92.6646,"alt":92.6646,"epx":14.966,"epy":38.170,"epv":38.410,"track":282.2675,"magtrack":285.4875,"magvar":3.2,"speed":0.839,"climb":0.014,"eps":0.49,"epc":412.70,"ecefx":3841074.22,"ecefy":716301.72,"ecefz":5024469.86,"ecefvx":0.02,"ecefvy":-0.83,"ecefvz":0.12,"ecefpAcc":4.33,"ecefvAcc":0.49,"velN":0.178,"velE":-0.820,"velD":-0.014,"geoidSep":43.897,"eph":20.900,"sep":38.000}
{"class":"SKY","device":"/dev/ttyACM0","time":"2024-07-09T11:37:17.500Z","gdop":2.32,"hdop":1.10,"pdop":2.00,"tdop":1.17,"xdop":1.00,"ydop":2.54,"vdop":1.67,"uSat":6}
{"class":"SKY","device":"/dev/ttyACM0","time":"2024-07-09T11:37:17.500Z","gdop":2.32,"hdop":1.10,"pdop":2.00,"tdop":1.17,"xdop":1.00,"ydop":2.54,"vdop":1.67,"uSat":6}
{"class":"TPV","device":"/dev/ttyACM0","mode":3,"time":"2024-07-09T11:37:17.748Z","leapseconds":18,"ept":0.005,"lat":52.315815048,"lon":10.563450330,"altHAE":136.5617,"altMSL":92.6646,"alt":92.6646,"epx":14.966,"epy":38.170,"epv":38.410,"track":282.2675,"magtrack":285.4875,"magvar":3.2,"speed":0.839,"climb":0.014,"eps":307.82,"epc":412.70,"ecefx":3841074.22,"ecefy":716301.72,"ecefz":5024469.86,"ecefvx":0.02,"ecefvy":-0.83,"ecefvz":0.12,"ecefpAcc":4.33,"ecefvAcc":0.49,"velN":0.178,"velE":-0.820,"velD":-0.014,"geoidSep":43.897,"eph":20.900,"sep":38.000}
{"class":"SKY","device":"/dev/ttyACM0","time":"2024-07-09T11:37:17.748Z","gdop":2.32,"hdop":1.10,"pdop":2.00,"tdop":1.17,"xdop":1.00,"ydop":2.54,"vdop":1.67,"nSat":14,"uSat":8,"satellites":[{"PRN":2,"gnssid":0,"svid":2,"az":287.0,"el":84.0,"ss":42.0,"used":true,"health":1},{"PRN":15,"gnssid":0,"svid":15,"az":0.0,"el":-9.0,"ss":0.0,"used":false,"health":1},{"PRN":28,"gnssid":0,"svid":28,"az":100.0,"el":6.0,"ss":34.0,"used":false,"health":1},{"PRN":30,"gnssid":0,"svid":30,"az":0.0,"el":-9.0,"ss":0.0,"used":false,"health":1},{"PRN":31,"gnssid":0,"svid":31,"az":0.0,"el":-9.0,"ss":0.0,"used":false,"health":1},{"PRN":17,"gnssid":0,"svid":17,"az":314.0,"el":25.0,"ss":45.0,"used":true,"health":1},{"PRN":14,"gnssid":0,"svid":14,"az":279.0,"el":17.0,"ss":39.0,"used":true,"health":1},{"PRN":8,"gnssid":0,"svid":8,"az":176.0,"el":26.0,"ss":36.0,"used":true,"health":1},{"PRN":3,"gnssid":0,"svid":3,"az":239.0,"el":40.0,"ss":41.0,"used":true,"health":1},{"PRN":32,"gnssid":0,"svid":32,"az":60.0,"el":37.0,"ss":48.0,"used":true,"health":1},{"PRN":10,"gnssid":0,"svid":10,"az":0.0,"el":-9.0,"ss":40.0,"used":false,"health":1},{"PRN":21,"gnssid":0,"svid":21,"az":120.0,"el":77.0,"ss":45.0,"used":true,"health":1},{"PRN":22,"gnssid":0,"svid":22,"az":302.0,"el":19.0,"ss":41.0,"used":true,"health":1},{"PRN":19,"gnssid":0,"svid":19,"az":324.0,"el":1.0,"ss":28.0,"used":false,"health":1}]}
{"class":"TPV","device":"/dev/ttyACM0","mode":3,"time":"2024-07-09T11:37:18.000Z","leapseconds":18,"ept":0.005,"lat":52.315816682,"lon":10.563446806,"altHAE":136.6739,"altMSL":92.7768,"alt":92.7768,"epx":14.966,"epy":38.170,"epv":38.410,"track":281.6408,"magtrack":284.8607,"magvar":3.2,"speed":1.186,"climb":0.055,"eps":0.49,"epc":304.84,"ecefx":3841074.19,"ecefy":716301.47,"ecefz":5024470.06,"ecefvx":0.06,"ecefvy":-1.17,"ecefvz":0.19,"ecefpAcc":4.25,"ecefvAcc":0.49,"velN":0.239,"velE":-1.161,"velD":-0.055,"geoidSep":43.897,"eph":20.900,"sep":38.000}
{"class":"SKY","device":"/dev/ttyACM0","time":"2024-07-09T11:37:17.748Z","gdop":2.32,"hdop":1.10,"pdop":2.00,"tdop":1.17,"xdop":1.00,"ydop":2.54,"vdop":1.67,"uSat":6}
{"class":"SKY","device":"/dev/ttyACM0","time":"2024-07-09T11:37:17.748Z","gdop":2.32,"hdop":1.10,"pdop":2.00,"tdop":1.17,"xdop":1.00,"ydop":2.54,"vdop":1.67,"uSat":6}
{"class":"TPV","device":"/dev/ttyACM0","mode":3,"time":"2024-07-09T11:37:18.000Z","leapseconds":18,"ept":0.005,"lat":52.315816682,"lon":10.563446806,"altHAE":136.6739,"altMSL":92.7768,"alt":92.7768,"epx":14.966,"epy":38.170,"epv":38.410,"track":281.6408,"magtrack":284.8607,"magvar":3.2,"speed":1.186,"climb":0.055,"eps":302.93,"epc":304.84,"ecefx":3841074.19,"ecefy":716301.47,"ecefz":5024470.06,"ecefvx":0.06,"ecefvy":-1.17,"ecefvz":0.19,"ecefpAcc":4.25,"ecefvAcc":0.49,"velN":0.239,"velE":-1.161,"velD":-0.055,"geoidSep":43.897,"eph":20.900,"sep":38.000}
{"class":"SKY","device":"/dev/ttyACM0","time":"2024-07-09T11:37:18.000Z","gdop":2.32,"hdop":1.10,"pdop":2.00,"tdop":1.17,"xdop":1.00,"ydop":2.54,"vdop":1.67,"nSat":14,"uSat":8,"satellites":[{"PRN":2,"gnssid":0,"svid":2,"az":287.0,"el":84.0,"ss":43.0,"used":true,"health":1},{"PRN":15,"gnssid":0,"svid":15,"az":0.0,"el":-9.0,"ss":0.0,"used":false,"health":1},{"PRN":28,"gnssid":0,"svid":28,"az":100.0,"el":6.0,"ss":35.0,"used":false,"health":1},{"PRN":30,"gnssid":0,"svid":30,"az":0.0,"el":-9.0,"ss":0.0,"used":false,"health":1},{"PRN":31,"gnssid":0,"svid":31,"az":0.0,"el":-9.0,"ss":0.0,"used":false,"health":1},{"PRN":17,"gnssid":0,"svid":17,"az":314.0,"el":25.0,"ss":45.0,"used":true,"health":1},{"PRN":14,"gnssid":0,"svid":14,"az":279.0,"el":17.0,"ss":39.0,"used":true,"health":1},{"PRN":8,"gnssid":0,"svid":8,"az":176.0,"el":26.0,"ss":36.0,"used":true,"health":1},{"PRN":3,"gnssid":0,"svid":3,"az":239.0,"el":40.0,"ss":41.0,"used":true,"health":1},{"PRN":32,"gnssid":0,"svid":32,"az":60.0,"el":37.0,"ss":47.0,"used":true,"health":1},{"PRN":10,"gnssid":0,"svid":10,"az":0.0,"el":-9.0,"ss":43.0,"used":false,"health":1},{"PRN":21,"gnssid":0,"svid":21,"az":120.0,"el":77.0,"ss":45.0,"used":true,"health":1},{"PRN":22,"gnssid":0,"svid":22,"az":302.0,"el":19.0,"ss":40.0,"used":true,"health":1},{"PRN":19,"gnssid":0,"svid":19,"az":324.0,"el":1.0,"ss":29.0,"used":false,"health":1}]}
{"class":"TPV","device":"/dev/ttyACM0","mode":3,"time":"2024-07-09T11:37:18.248Z","leapseconds":18,"ept":0.005,"lat":52.315817311,"lon":10.563443085,"altHAE":136.6704,"altMSL":92.7733,"alt":92.7733,"epx":14.966,"epy":38.170,"epv":38.410,"track":274.5512,"magtrack":277.7711,"magvar":3.2,"speed":1.236,"climb":0.051,"eps":0.50,"epc":309.76,"ecefx":3841074.18,"ecefy":716301.21,"ecefz":5024470.10,"ecefvx":0.18,"ecefvy":-1.22,"ecefvz":0.10,"ecefpAcc":4.55,"ecefvAcc":0.50,"velN":0.098,"velE":-1.232,"velD":-0.051,"geoidSep":43.897,"eph":20.900,"sep":39.140}
{"class":"SKY","device":"/dev/ttyACM0","time":"2024-07-09T11:37:18.000Z","gdop":2.32,"hdop":1.10,"pdop":2.06,"tdop":1.17,"xdop":1.00,"ydop":2.54,"vdop":1.67,"uSat":6}
{"class":"SKY","device":"/dev/ttyACM0","time":"2024-07-09T11:37:18.000Z","gdop":2.39,"hdop":1.13,"pdop":2.06,"tdop":1.22,"xdop":1.00,"ydop":2.54,"vdop":1.72,"uSat":6}
{"class":"TPV","device":"/dev/ttyACM0","mode":3,"time":"2024-07-09T11:37:18.248Z","leapseconds":18,"ept":0.005,"lat":52.315817311,"lon":10.563443085,"altHAE":136.6704,"altMSL":92.7733,"alt":92.7733,"epx":14.966,"epy":38.170,"epv":38.410,"track":274.5512,"magtrack":277.7711,"magvar":3.2,"speed":1.236,"climb":0.051,"eps":307.82,"epc":309.76,"ecefx":3841074.18,"ecefy":716301.21,"ecefz":5024470.10,"ecefvx":0.18,"ecefvy":-1.22,"ecefvz":0.10,"ecefpAcc":4.55,"ecefvAcc":0.50,"velN":0.098,"velE":-1.232,"velD":-0.051,"geoidSep":43.897,"eph":20.900,"sep":39.140}
{"class":"SKY","device":"/dev/ttyACM0","time":"2024-07-09T11:37:18.248Z","gdop":2.39,"hdop":1.13,"pdop":2.06,"tdop":1.22,"xdop":1.00,"ydop":2.54,"vdop":1.72,"nSat":14,"uSat":7,"satellites":[{"PRN":2,"gnssid":0,"svid":2,"az":287.0,"el":84.0,"ss":44.0,"used":true,"health":1},{"PRN":15,"gnssid":0,"svid":15,"az":0.0,"el":-9.0,"ss":0.0,"used":false,"health":1},{"PRN":28,"gnssid":0,"svid":28,"az":100.0,"el":6.0,"ss":33.0,"used":false,"health":1},{"PRN":30,"gnssid":0,"svid":30,"az":0.0,"el":-9.0,"ss":0.0,"used":false,"health":1},{"PRN":31,"gnssid":0,"svid":31,"az":0.0,"el":-9.0,"ss":0.0,"used":false,"health":1},{"PRN":17,"gnssid":0,"svid":17,"az":314.0,"el":25.0,"ss":45.0,"used":true,"health":1},{"PRN":14,"gnssid":0,"svid":14,"az":279.0,"el":17.0,"ss":39.0,"used":false,"health":1},{"PRN":8,"gnssid":0,"svid":8,"az":176.0,"el":26.0,"ss":35.0,"used":true,"health":1},{"PRN":3,"gnssid":0,"svid":3,"az":239.0,"el":40.0,"ss":40.0,"used":true,"health":1},{"PRN":32,"gnssid":0,"svid":32,"az":60.0,"el":37.0,"ss":47.0,"used":true,"health":1},{"PRN":10,"gnssid":0,"svid":10,"az":0.0,"el":-9.0,"ss":43.0,"used":false,"health":1},{"PRN":21,"gnssid":0,"svid":21,"az":120.0,"el":77.0,"ss":43.0,"used":true,"health":1},{"PRN":22,"gnssid":0,"svid":22,"az":302.0,"el":19.0,"ss":41.0,"used":true,"health":1},{"PRN":19,"gnssid":0,"svid":19,"az":324.0,"el":1.0,"ss":29.0,"used":false,"health":1}]}
{"class":"TPV","device":"/dev/ttyACM0","mode":3,"time":"2024-07-09T11:37:18.500Z","leapseconds":18,"ept":0.005,"lat":52.315818031,"lon":10.563438355,"altHAE":136.6591,"altMSL":92.7620,"alt":92.7620,"epx":14.966,"epy":38.170,"epv":39.560,"track":279.6951,"magtrack":282.9151,"magvar":3.2,"speed":1.554,"climb":0.038,"eps":0.51,"epc":309.40,"ecefx":3841074.17,"ecefy":716300.88,"ecefz":5024470.14,"ecefvx":0.10,"ecefvy":-1.54,"ecefvz":0.19,"ecefpAcc":4.25,"ecefvAcc":0.51,"velN":0.262,"velE":-1.532,"velD":-0.038,"geoidSep":43.897,"eph":21.470,"sep":38.000}
{"class":"SKY","device":"/dev/ttyACM0","time":"2024-07-09T11:37:18.248Z","gdop":2.39,"hdop":1.13,"pdop":2.00,"tdop":1.22,"xdop":1.00,"ydop":2.54,"vdop":1.72,"uSat":6}
{"class":"SKY","device":"/dev/ttyACM0","time":"2024-07-09T11:37:18.248Z","gdop":2.32,"hdop":1.10,"pdop":2.00,"tdop":1.17,"xdop":1.00,"ydop":2.54,"vdop":1.67,"uSat":6}
{"class":"TPV","device":"/dev/ttyACM0","mode":3,"time":"2024-07-09T11:37:18.500Z","leapseconds":18,"ept":0.005,"lat":52.315818031,"lon":10.563438355,"altHAE":136.6591,"altMSL":92.7620,"alt":92.7620,"epx":14.966,"epy":38.170,"epv":39.560,"track":279.6951,"magtrack":282.9151,"magvar":3.2,"speed":1.554,"climb":0.038,"eps":302.93,"epc":309.40,"ecefx":3841074.17,"ecefy":716300.88,"ecefz":5024470.14,"ecefvx":0.10,"ecefvy":-1.54,"ecefvz":0.19,"ecefpAcc":4.25,"ecefvAcc":0.51,"velN":0.262,"velE":-1.532,"velD":-0.038,"geoidSep":43.897,"eph":21.470,"sep":38.000}
{"class":"SKY","device":"/dev/ttyACM0","time":"2024-07-09T11:37:18.500Z","gdop":2.32,"hdop":1.10,"pdop":2.00,"tdop":1.17,"xdop":1.00,"ydop":2.54,"vdop":1.67,"nSat":14,"uSat":8,"satellites":[{"PRN":2,"gnssid":0,"svid":2,"az":287.0,"el":84.0,"ss":45.0,"used":true,"health":1},{"PRN":15,"gnssid":0,"svid":15,"az":0.0,"el":-9.0,"ss":0.0,"used":false,"health":1},{"PRN":28,"gnssid":0,"svid":28,"az":100.0,"el":6.0,"ss":35.0,"used":false,"health":1},{"PRN":30,"gnssid":0,"svid":30,"az":0.0,"el":-9.0,"ss":0.0,"used":false,"health":1},{"PRN":31,"gnssid":0,"svid":31,"az":0.0,"el":-9.0,"ss":0.0,"used":false,"health":1},{"PRN":17,"gnssid":0,"svid":17,"az":314.0,"el":25.0,"ss":45.0,"used":true,"health":1},{"PRN":14,"gnssid":0,"svid":14,"az":279.0,"el":17.0,"ss":39.0,"used":true,"health":1},{"PRN":8,"gnssid":0,"svid":8,"az":176.0,"el":26.0,"ss":34.0,"used":true,"health":1},{"PRN":3,"gnssid":0,"svid":3,"az":239.0,"el":40.0,"ss":42.0,"used":true,"health":1},{"PRN":32,"gnssid":0,"svid":32,"az":60.0,"el":37.0,"ss":48.0,"used":true,"health":1},{"PRN":10,"gnssid":0,"svid":10,"az":0.0,"el":-9.0,"ss":43.0,"used":false,"health":1},{"PRN":21,"gnssid":0,"svid":21,"az":120.0,"el":77.0,"ss":44.0,"used":true,"health":1},{"PRN":22,"gnssid":0,"svid":22,"az":302.0,"el":19.0,"ss":41.0,"used":true,"health":1},{"PRN":19,"gnssid":0,"svid":19,"az":324.0,"el":1.0,"ss":29.0,"used":false,"health":1}]}
{"class":"TPV","device":"/dev/ttyACM0","mode":3,"time":"2024-07-09T11:37:18.748Z","leapseconds":18,"ept":0.005,"lat":52.315819362,"lon":10.563432328,"altHAE":136.7089,"altMSL":92.8118,"alt":92.8118,"epx":14.966,"epy":38.170,"epv":38.410,"track":277.3365,"magtrack":280.5564,"magvar":3.2,"speed":1.867,"climb":0.043,"eps":0.54,"epc":314.39,"ecefx":3841074.16,"ecefy":716300.46,"ecefz":5024470.27,"ecefvx":0.18,"ecefvy":-1.85,"ecefvz":0.18,"ecefpAcc":4.26,"ecefvAcc":0.54,"velN":0.238,"velE":-1.852,"velD":-0.043,"geoidSep":43.897,"eph":20.900,"sep":80.750}
{"class":"SKY","device":"/dev/ttyACM0","time":"2024-07-09T11:37:18.500Z","gdop":2.32,"hdop":1.10,"pdop":4.25,"tdop":1.17,"xdop":1.00,"ydop":2.54,"vdop":1.67,"uSat":6}
{"class":"SKY","device":"/dev/ttyACM0","time":"2024-07-09T11:37:18.500Z","gdop":5.01,"hdop":2.11,"pdop":4.25,"tdop":2.66,"xdop":1.00,"ydop":2.54,"vdop":3.68,"uSat":6}
{"class":"TPV","device":"/dev/ttyACM0","mode":3,"time":"2024-07-09T11:37:18.748Z","leapseconds":18,"ept":0.005,"lat":52.315819362,"lon":10.563432328,"altHAE":136.7089,"altMSL":92.8118,"alt":92.8118,"epx":14.966,"epy":38.170,"epv":38.410,"track":277.3365,"magtrack":280.5564,"magvar":3.2,"speed":1.867,"climb":0.043,"eps":307.82,"epc":314.39,"ecefx":3841074.16,"ecefy":716300.46,"ecefz":5024470.27,"ecefvx":0.18,"ecefvy":-1.85,"ecefvz":0.18,"ecefpAcc":4.26,"ecefvAcc":0.54,"velN":0.238,"velE":-1.852,"velD":-0.043,"geoidSep":43.897,"eph":20.900,"sep":80.750}
{"class":"SKY","device":"/dev/ttyACM0","time":"2024-07-09T11:37:18.748Z","gdop":5.01,"hdop":2.11,"pdop":4.25,"tdop":2.66,"xdop":1.00,"ydop":2.54,"vdop":3.68,"nSat":14,"uSat":6,"satellites":[{"PRN":2,"gnssid":0,"svid":2,"az":287.0,"el":84.0,"ss":42.0,"used":false,"health":1},{"PRN":15,"gnssid":0,"svid":15,"az":0.0,"el":-9.0,"ss":0.0,"used":false,"health":1},{"PRN":28,"gnssid":0,"svid":28,"az":100.0,"el":6.0,"ss":35.0,"used":false,"health":1},{"PRN":30,"gnssid":0,"svid":30,"az":0.0,"el":-9.0,"ss":0.0,"used":false,"health":1},{"PRN":31,"gnssid":0,"svid":31,"az":0.0,"el":-9.0,"ss":0.0,"used":false,"health":1},{"PRN":17,"gnssid":0,"svid":17,"az":314.0,"el":25.0,"ss":46.0,"used":true,"health":1},{"PRN":14,"gnssid":0,"svid":14,"az":279.0,"el":17.0,"ss":39.0,"used":true,"health":1},{"PRN":8,"gnssid":0,"svid":8,"az":176.0,"el":26.0,"ss":34.0,"used":false,"health":1},{"PRN":3,"gnssid":0,"svid":3,"az":239.0,"el":40.0,"ss":42.0,"used":true,"health":1},{"PRN":32,"gnssid":0,"svid":32,"az":60.0,"el":37.0,"ss":48.0,"used":true,"health":1},{"PRN":10,"gnssid":0,"svid":10,"az":0.0,"el":-9.0,"ss":42.0,"used":false,"health":1},{"PRN":21,"gnssid":0,"svid":21,"az":120.0,"el":77.0,"ss":45.0,"used":true,"health":1},{"PRN":22,"gnssid":0,"svid":22,"az":302.0,"el":19.0,"ss":40.0,"used":true,"health":1},{"PRN":19,"gnssid":0,"svid":19,"az":324.0,"el":1.0,"ss":28.0,"used":false,"health":1}]}
{"class":"TPV","device":"/dev/ttyACM0","mode":3,"time":"2024-07-09T11:37:19.000Z","leapseconds":18,"ept":0.005,"lat":52.315819449,"lon":10.563425328,"altHAE":136.6256,"altMSL":92.7285,"alt":92.7285,"epx":14.966,"epy":38.170,"epv":84.640,"track":278.8569,"magtrack":282.0769,"magvar":3.2,"speed":2.199,"climb":0.042,"eps":0.54,"epc":488.29,"ecefx":3841074.19,"ecefy":716299.98,"ecefz":5024470.21,"ecefvx":0.16,"ecefvy":-2.18,"ecefvz":0.24,"ecefpAcc":4.26,"ecefvAcc":0.54,"velN":0.339,"velE":-2.172,"velD":-0.042,"geoidSep":43.897,"eph":40.090,"sep":38.000}
{"class":"SKY","device":"/dev/ttyACM0","time":"2024-07-09T11:37:18.748Z","gdop":5.01,"hdop":2.11,"pdop":2.00,"tdop":2.66,"xdop":1.00,"ydop":2.54,"vdop":3.68,"uSat":6}
{"class":"SKY","device":"/dev/ttyACM0","time":"2024-07-09T11:37:18.748Z","gdop":2.32,"hdop":1.10,"pdop":2.00,"tdop":1.17,"xdop":1.00,"ydop":2.54,"vdop":1.67,"uSat":6}
{"class":"TPV","device":"/dev/ttyACM0","mode":3,"time":"2024-07-09T11:37:19.000Z","leapseconds":18,"ept":0.005,"lat":52.315819449,"lon":10.563425328,"altHAE":136.6256,"altMSL":92.7285,"alt":92.7285,"epx":14.966,"epy":38.170,"epv":84.640,"track":278.8569,"magtrack":282.0769,"magvar":3.2,"speed":2.199,"climb":0.042,"eps":302.93,"epc":488.29,"ecefx":3841074.19,"ecefy":716299.98,"ecefz":5024470.21,"ecefvx":0.16,"ecefvy":-2.18,"ecefvz":0.24,"ecefpAcc":4.26,"ecefvAcc":0.54,"velN":0.339,"velE":-2.172,"velD":-0.042,"geoidSep":43.897,"eph":40.090,"sep":38.000}
{"class":"SKY","device":"/dev/ttyACM0","time":"2024-07-09T11:37:19.000Z","gdop":2.32,"hdop":1.10,"pdop":2.00,"tdop":1.17,"xdop":1.00,"ydop":2.54,"vdop":1.67,"nSat":14,"uSat":8,"satellites":[{"PRN":2,"gnssid":0,"svid":2,"az":287.0,"el":84.0,"ss":44.0,"used":true,"health":1},{"PRN":15,"gnssid":0,"svid":15,"az":0.0,"el":-9.0,"ss":0.0,"used":false,"health":1},{"PRN":28,"gnssid":0,"svid":28,"az":100.0,"el":6.0,"ss":36.0,"used":false,"health":1},{"PRN":30,"gnssid":0,"svid":30,"az":0.0,"el":-9.0,"ss":0.0,"used":false,"health":1},{"PRN":31,"gnssid":0,"svid":31,"az":0.0,"el":-9.0,"ss":0.0,"used":false,"health":1},{"PRN":17,"gnssid":0,"svid":17,"az":314.0,"el":25.0,"ss":45.0,"used":true,"health":1},{"PRN":14,"gnssid":0,"svid":14,"az":279.0,"el":17.0,"ss":39.0,"used":true,"health":1},{"PRN":8,"gnssid":0,"svid":8,"az":176.0,"el":26.0,"ss":38.0,"used":true,"health":1},{"PRN":3,"gnssid":0,"svid":3,"az":239.0,"el":40.0,"ss":43.0,"used":true,"health":1},{"PRN":32,"gnssid":0,"svid":32,"az":60.0,"el":37.0,"ss":48.0,"used":true,"health":1},{"PRN":10,"gnssid":0,"svid":10,"az":0.0,"el":-9.0,"ss":43.0,"used":false,"health":1},{"PRN":21,"gnssid":0,"svid":21,"az":120.0,"el":77.0,"ss":45.0,"used":true,"health":1},{"PRN":22,"gnssid":0,"svid":22,"az":302.0,"el":19.0,"ss":41.0,"used":true,"health":1},{"PRN":19,"gnssid":0,"svid":19,"az":324.0,"el":1.0,"ss":28.0,"used":false,"health":1}]}
{"class":"TPV","device":"/dev/ttyACM0","mode":3,"time":"2024-07-09T11:37:19.248Z","leapseconds":18,"ept":0.005,"lat":52.315819971,"lon":10.563417346,"altHAE":136.5681,"altMSL":92.6710,"alt":92.6710,"epx":14.966,"epy":38.170,"epv":38.410,"track":277.9657,"magtrack":281.1857,"magvar":3.2,"speed":2.437,"climb":0.017,"eps":0.55,"epc":496.17,"ecefx":3841074.21,"ecefy":716299.43,"ecefz":5024470.20,"ecefvx":0.19,"ecefvy":-2.42,"ecefvz":0.22,"ecefpAcc":4.25,"ecefvAcc":0.55,"velN":0.338,"velE":-2.414,"velD":-0.017,"geoidSep":43.897,"eph":20.900,"sep":38.000}
{"class":"SKY","device":"/dev/ttyACM0","time":"2024-07-09T11:37:19.000Z","gdop":2.32,"hdop":1.10,"pdop":2.00,"tdop":1.17,"xdop":1.00,"ydop":2.54,"vdop":1.67,"uSat":6}
{"class":"SKY","device":"/dev/ttyACM0","time":"2024-07-09T11:37:19.000Z","gdop":2.32,"hdop":1.10,"pdop":2.00,"tdop":1.17,"xdop":1.00,"ydop":2.54,"vdop":1.67,"uSat":6}
{"class":"TPV","device":"/dev/ttyACM0","mode":3,"time":"2024-07-09T11:37:19.248Z","leapseconds":18,"ept":0.005,"lat":52.315819971,"lon":10.563417346,"altHAE":136.5681,"altMSL":92.6710,"alt":92.6710,"epx":14.966,"epy":38.170,"epv":38.410,"track":277.9657,"magtrack":281.1857,"magvar":3.2,"speed":2.437,"climb":0.017,"eps":307.82,"epc":496.17,"ecefx":3841074.21,"ecefy":716299.43,"ecefz":5024470.20,"ecefvx":0.19,"ecefvy":-2.42,"ecefvz":0.22,"ecefpAcc":4.25,"ecefvAcc":0.55,"velN":0.338,"velE":-2.414,"velD":-0.017,"geoidSep":43.897,"eph":20.900,"sep":38.000}
{"class":"SKY","device":"/dev/ttyACM0","time":"2024-07-09T11:37:19.248Z","gdop":2.32,"hdop":1.10,"pdop":2.00,"tdop":1.17,"xdop":1.00,"ydop":2.54,"vdop":1.67,"nSat":14,"uSat":8,"satellites":[{"PRN":2,"gnssid":0,"svid":2,"az":287.0,"el":84.0,"ss":45.0,"used":true,"health":1},{"PRN":15,"gnssid":0,"svid":15,"az":0.0,"el":-9.0,"ss":0.0,"used":false,"health":1},{"PRN":28,"gnssid":0,"svid":28,"az":100.0,"el":6.0,"ss":36.0,"used":false,"health":1},{"PRN":30,"gnssid":0,"svid":30,"az":0.0,"el":-9.0,"ss":0.0,"used":false,"health":1},{"PRN":31,"gnssid":0,"svid":31,"az":0.0,"el":-9.0,"ss":0.0,"used":false,"health":1},{"PRN":17,"gnssid":0,"svid":17,"az":314.0,"el":25.0,"ss":45.0,"used":true,"health":1},{"PRN":14,"gnssid":0,"svid":14,"az":279.0,"el":17.0,"ss":39.0,"used":true,"health":1},{"PRN":8,"gnssid":0,"svid":8,"az":176.0,"el":26.0,"ss":38.0,"used":true,"health":1},{"PRN":3,"gnssid":0,"svid":3,"az":239.0,"el":40.0,"ss":41.0,"used":true,"health":1},{"PRN":32,"gnssid":0,"svid":32,"az":60.0,"el":37.0,"ss":49.0,"used":true,"health":1},{"PRN":10,"gnssid":0,"svid":10,"az":0.0,"el":-9.0,"ss":41.0,"used":false,"health":1},{"PRN":21,"gnssid":0,"svid":21,"az":120.0,"el":77.0,"ss":43.0,"used":true,"health":1},{"PRN":22,"gnssid":0,"svid":22,"az":302.0,"el":19.0,"ss":40.0,"used":true,"health":1},{"PRN":19,"gnssid":0,"svid":19,"az":324.0,"el":1.0,"ss":28.0,"used":false,"health":1}]}
{"class":"TPV","device":"/dev/ttyACM0","mode":3,"time":"2024-07-09T11:37:19.500Z","leapseconds":18,"ept":0.005,"lat":52.315820481,"lon":10.563407932,"altHAE":136.5622,"altMSL":92.6651,"alt":92.6651,"epx":14.966,"epy":38.170,"epv":38.410,"track":277.0967,"magtrack":280.3167,"magvar":3.2,"speed":2.733,"climb":0.042,"eps":0.54,"epc":304.84,"ecefx":3841074.28,"ecefy":716298.79,"ecefz":5024470.23,"ecefvx":0.26,"ecefvy":-2.71,"ecefvz":0.24,"ecefpAcc":4.24,"ecefvAcc":0.54,"velN":0.338,"velE":-2.712,"velD":-0.042,"geoidSep":43.897,"eph":20.900,"sep":38.000}
{"class":"SKY","device":"/dev/ttyACM0","time":"2024-07-09T11:37:19.248Z","gdop":2.32,"hdop":1.10,"pdop":2.00,"tdop":1.17,"xdop":1.00,"ydop":2.54,"vdop":1.67,"uSat":6}
{"class":"SKY","device":"/dev/ttyACM0","time":"2024-07-09T11:37:19.248Z","gdop":2.32,"hdop":1.10,"pdop":2.00,"tdop":1.17,"xdop":1.00,"ydop":2.54,"vdop":1.67,"uSat":6}
{"class":"TPV","device":"/dev/ttyACM0","mode":3,"time":"2024-07-09T11:37:19.500Z","leapseconds":18,"ept":0.005,"lat":52.315820481,"lon":10.563407932,"altHAE":136.5622,"altMSL":92.6651,"alt":92.6651,"epx":14.966,"epy":38.170,"epv":38.410,"track":277.0967,"magtrack":280.3167,"magvar":3.2,"speed":2.733,"climb":0.042,"eps":302.93,"epc":304.84,"ecefx":3841074.28,"ecefy":716298.79,"ecefz":5024470.23,"ecefvx":0.26,"ecefvy":-2.71,"ecefvz":0.24,"ecefpAcc":4.24,"ecefvAcc":0.54,"velN":0.338,"velE":-2.712,"velD":-0.042,"geoidSep":43.897,"eph":20.900,"sep":38.000}
{"class":"SKY","device":"/dev/ttyACM0","time":"2024-07-09T11:37:19.500Z","gdop":2.32,"hdop":1.10,"pdop":2.00,"tdop":1.17,"xdop":1.00,"ydop":2.54,"vdop":1.67,"nSat":14,"uSat":8,"satellites":[{"PRN":2,"gnssid":0,"svid":2,"az":287.0,"el":84.0,"ss":46.0,"used":true,"health":1},{"PRN":15,"gnssid":0,"svid":15,"az":0.0,"el":-9.0,"ss":0.0,"used":false,"health":1},{"PRN":28,"gnssid":0,"svid":28,"az":100.0,"el":6.0,"ss":36.0,"used":false,"health":1},{"PRN":30,"gnssid":0,"svid":30,"az":0.0,"el":-9.0,"ss":0.0,"used":false,"health":1},{"PRN":31,"gnssid":0,"svid":31,"az":0.0,"el":-9.0,"ss":0.0,"used":false,"health":1},{"PRN":17,"gnssid":0,"svid":17,"az":314.0,"el":25.0,"ss":45.0,"used":true,"health":1},{"PRN":14,"gnssid":0,"svid":14,"az":279.0,"el":17.0,"ss":40.0,"used":true,"health":1},{"PRN":8,"gnssid":0,"svid":8,"az":176.0,"el":26.0,"ss":39.0,"used":true,"health":1},{"PRN":3,"gnssid":0,"svid":3,"az":239.0,"el":40.0,"ss":42.0,"used":true,"health":1},{"PRN":32,"gnssid":0,"svid":32,"az":60.0,"el":37.0,"ss":48.0,"used":true,"health":1},{"PRN":10,"gnssid":0,"svid":10,"az":0.0,"el":-9.0,"ss":41.0,"used":false,"health":1},{"PRN":21,"gnssid":0,"svid":21,"az":120.0,"el":77.0,"ss":44.0,"used":true,"health":1},{"PRN":22,"gnssid":0,"svid":22,"az":302.0,"el":19.0,"ss":41.0,"used":true,"health":1},{"PRN":19,"gnssid":0,"svid":19,"az":324.0,"el":1.0,"ss":28.0,"used":false,"health":1}]}
{"class":"TPV","device":"/dev/ttyACM0","mode":3,"time":"2024-07-09T11:37:19.748Z","leapseconds":18,"ept":0.005,"lat":52.315820708,"lon":10.563397428,"altHAE":136.5427,"altMSL":92.6456,"alt":92.6456,"epx":14.966,"epy":38.170,"epv":38.410,"track":275.6080,"magtrack":278.8280,"magvar":3.2,"speed":2.957,"climb":0.042,"eps":0.58,"epc":309.76,"ecefx":3841074.38,"ecefy":716298.08,"ecefz":5024470.23,"ecefvx":0.34,"ecefvy":-2.93,"ecefvz":0.21,"ecefpAcc":4.24,"ecefvAcc":0.58,"velN":0.289,"velE":-2.943,"velD":-0.042,"geoidSep":43.897,"eph":20.900,"sep":40.280}
{"class":"SKY","device":"/dev/ttyACM0","time":"2024-07-09T11:37:19.500Z","gdop":2.32,"hdop":1.10,"pdop":2.12,"tdop":1.17,"xdop":1.00,"ydop":2.54,"vdop":1.67,"uSat":6}
{"class":"SKY","device":"/dev/ttyACM0","time":"2024-07-09T11:37:19.500Z","gdop":2.43,"hdop":1.22,"pdop":2.12,"tdop":1.19,"xdop":1.00,"ydop":2.54,"vdop":1.73,"uSat":6}
{"class":"TPV","device":"/dev/ttyACM0","mode":3,"time":"2024-07-09T11:37:19.748Z","leapseconds":18,"ept":0.005,"lat":52.315820708,"lon":10.563397428,"altHAE":136.5427,"altMSL":92.6456,"alt":92.6456,"epx":14.966,"epy":38.170,"epv":38.410,"track":275.6080,"magtrack":278.8280,"magvar":3.2,"speed":2.957,"climb":0.042,"eps":307.82,"epc":309.76,"ecefx":3841074.38,"ecefy":716298.08,"ecefz":5024470.23,"ecefvx":0.34,"ecefvy":-2.93,"ecefvz":0.21,"ecefpAcc":4.24,"ecefvAcc":0.58,"velN":0.289,"velE":-2.943,"velD":-0.042,"geoidSep":43.897,"eph":20.900,"sep":40.280}
{"class":"SKY","device":"/dev/ttyACM0","time":"2024-07-09T11:37:19.748Z","gdop":2.43,"hdop":1.22,"pdop":2.12,"tdop":1.19,"xdop":1.00,"ydop":2.54,"vdop":1.73,"nSat":14,"uSat":7,"satellites":[{"PRN":2,"gnssid":0,"svid":2,"az":287.0,"el":84.0,"ss":46.0,"used":true,"health":1},{"PRN":15,"gnssid":0,"svid":15,"az":0.0,"el":-9.0,"ss":0.0,"used":false,"health":1},{"PRN":28,"gnssid":0,"svid":28,"az":100.0,"el":6.0,"ss":35.0,"used":false,"health":1},{"PRN":30,"gnssid":0,"svid":30,"az":0.0,"el":-9.0,"ss":0.0,"used":false,"health":1},{"PRN":31,"gnssid":0,"svid":31,"az":0.0,"el":-9.0,"ss":0.0,"used":false,"health":1},{"PRN":17,"gnssid":0,"svid":17,"az":314.0,"el":25.0,"ss":45.0,"used":true,"health":1},{"PRN":14,"gnssid":0,"svid":14,"az":279.0,"el":17.0,"ss":40.0,"used":true,"health":1},{"PRN":8,"gnssid":0,"svid":8,"az":176.0,"el":26.0,"ss":42.0,"used":true,"health":1},{"PRN":3,"gnssid":0,"svid":3,"az":239.0,"el":40.0,"ss":39.0,"used":false,"health":1},{"PRN":32,"gnssid":0,"svid":32,"az":60.0,"el":37.0,"ss":48.0,"used":true,"health":1},{"PRN":10,"gnssid":0,"svid":10,"az":0.0,"el":-9.0,"ss":42.0,"used":false,"health":1},{"PRN":21,"gnssid":0,"svid":21,"az":120.0,"el":77.0,"ss":41.0,"used":true,"health":1},{"PRN":22,"gnssid":0,"svid":22,"az":302.0,"el":19.0,"ss":41.0,"used":true,"health":1},{"PRN":19,"gnssid":0,"svid":19,"az":324.0,"el":1.0,"ss":28.0,"used":false,"health":1}]}
{"class":"TPV","device":"/dev/ttyACM0","mode":3,"time":"2024-07-09T11:37:20.000Z","leapseconds":18,"ept":0.005,"lat":52.315821907,"lon":10.563385852,"altHAE":136.5912,"altMSL":92.6941,"alt":92.6941,"epx":14.966,"epy":38.170,"epv":39.790,"track":276.6603,"magtrack":279.8802,"magvar":3.2,"speed":3.287,"climb":0.047,"eps":0.63,"epc":310.32,"ecefx":3841074.45,"ecefy":716297.29,"ecefz":5024470.35,"ecefvx":0.33,"ecefvy":-3.26,"ecefvz":0.27,"ecefpAcc":4.25,"ecefvAcc":0.63,"velN":0.381,"velE":-3.265,"velD":-0.047,"geoidSep":43.897,"eph":23.180,"sep":59.090}
{"class":"SKY","device":"/dev/ttyACM0","time":"2024-07-09T11:37:19.748Z","gdop":2.43,"hdop":1.22,"pdop":3.11,"tdop":1.19,"xdop":1.00,"ydop":2.54,"vdop":1.73,"uSat":6}
{"class":"SKY","device":"/dev/ttyACM0","time":"2024-07-09T11:37:19.748Z","gdop":3.70,"hdop":1.84,"pdop":3.11,"tdop":2.00,"xdop":1.00,"ydop":2.54,"vdop":2.51,"uSat":6}
{"class":"TPV","device":"/dev/ttyACM0","mode":3,"time":"2024-07-09T11:37:20.000Z","leapseconds":18,"ept":0.005,"lat":52.315821907,"lon":10.563385852,"altHAE":136.5912,"altMSL":92.6941,"alt":92.6941,"epx":14.966,"epy":38.170,"epv":39.790,"track":276.6603,"magtrack":279.8802,"magvar":3.2,"speed":3.287,"climb":0.047,"eps":302.93,"epc":310.32,"ecefx":3841074.45,"ecefy":716297.29,"ecefz":5024470.35,"ecefvx":0.33,"ecefvy":-3.26,"ecefvz":0.27,"ecefpAcc":4.25,"ecefvAcc":0.63,"velN":0.381,"velE":-3.265,"velD":-0.047,"geoidSep":43.897,"eph":23.180,"sep":59.090}
{"class":"SKY","device":"/dev/ttyACM0","time":"2024-07-09T11:37:20.000Z","gdop":3.70,"hdop":1.84,"pdop":3.11,"tdop":2.00,"xdop":1.00,"ydop":2.54,"vdop":2.51,"nSat":14,"uSat":7,"satellites":[{"PRN":2,"gnssid":0,"svid":2,"az":287.0,"el":84.0,"ss":47.0,"used":true,"health":1},{"PRN":15,"gnssid":0,"svid":15,"az":0.0,"el":-9.0,"ss":0.0,"used":false,"health":1},{"PRN":28,"gnssid":0,"svid":28,"az":100.0,"el":6.0,"ss":35.0,"used":false,"health":1},{"PRN":30,"gnssid":0,"svid":30,"az":0.0,"el":-9.0,"ss":0.0,"used":false,"health":1},{"PRN":31,"gnssid":0,"svid":31,"az":0.0,"el":-9.0,"ss":0.0,"used":false,"health":1},{"PRN":17,"gnssid":0,"svid":17,"az":314.0,"el":25.0,"ss":45.0,"used":true,"health":1},{"PRN":14,"gnssid":0,"svid":14,"az":279.0,"el":17.0,"ss":40.0,"used":true,"health":1},{"PRN":8,"gnssid":0,"svid":8,"az":176.0,"el":26.0,"ss":38.0,"used":false,"health":1},{"PRN":3,"gnssid":0,"svid":3,"az":239.0,"el":40.0,"ss":40.0,"used":true,"health":1},{"PRN":32,"gnssid":0,"svid":32,"az":60.0,"el":37.0,"ss":48.0,"used":true,"health":1},{"PRN":10,"gnssid":0,"svid":10,"az":0.0,"el":-9.0,"ss":42.0,"used":false,"health":1},{"PRN":21,"gnssid":0,"svid":21,"az":120.0,"el":77.0,"ss":41.0,"used":true,"health":1},{"PRN":22,"gnssid":0,"svid":22,"az":302.0,"el":19.0,"ss":40.0,"used":true,"health":1},{"PRN":19,"gnssid":0,"svid":19,"az":324.0,"el":1.0,"ss":26.0,"used":false,"health":1}]}
{"class":"TPV","device":"/dev/ttyACM0","mode":3,"time":"2024-07-09T11:37:20.248Z","leapseconds":18,"ept":0.005,"lat":52.315823464,"lon":10.563373752,"altHAE":136.6470,"altMSL":92.7498,"alt":92.7498,"epx":14.966,"epy":38.170,"epv":57.730,"track":278.8434,"magtrack":282.0633,"magvar":3.2,"speed":3.397,"climb":0.051,"eps":0.67,"epc":393.23,"ecefx":3841074.50,"ecefy":716296.46,"ecefz":5024470.50,"ecefvx":0.24,"ecefvy":-3.37,"ecefvz":0.36,"ecefpAcc":4.27,"ecefvAcc":0.67,"velN":0.522,"velE":-3.357,"velD":-0.051,"geoidSep":43.897,"eph":34.960,"sep":38.000}
{"class":"SKY","device":"/dev/ttyACM0","time":"2024-07-09T11:37:20.000Z","gdop":3.70,"hdop":1.84,"pdop":2.00,"tdop":2.00,"xdop":1.00,"ydop":2.54,"vdop":2.51,"uSat":6}
{"class":"SKY","device":"/dev/ttyACM0","time":"2024-07-09T11:37:20.000Z","gdop":2.32,"hdop":1.10,"pdop":2.00,"tdop":1.17,"xdop":1.00,"ydop":2.54,"vdop":1.67,"uSat":6}
{"class":"TPV","device":"/dev/ttyACM0","mode":3,"time":"2024-07-09T11:37:20.248Z","leapseconds":18,"ept":0.005,"lat":52.315823464,"lon":10.563373752,"altHAE":136.6470,"altMSL":92.7498,"alt":92.7498,"epx":14.966,"epy":38.170,"epv":57.730,"track":278.8434,"magtrack":282.0633,"magvar":3.2,"speed":3.397,"climb":0.051,"eps":307.82,"epc":393.23,"ecefx":3841074.50,"ecefy":716296.46,"ecefz":5024470.50,"ecefvx":0.24,"ecefvy":-3.37,"ecefvz":0.36,"ecefpAcc":4.27,"ecefvAcc":0.67,"velN":0.522,"velE":-3.357,"velD":-0.051,"geoidSep":43.897,"eph":34.960,"sep":38.000}
{"class":"SKY","device":"/dev/ttyACM0","time":"2024-07-09T11:37:20.248Z","gdop":2.32,"hdop":1.10,"pdop":2.00,"tdop":1.17,"xdop":1.00,"ydop":2.54,"vdop":1.67,"nSat":14,"uSat":8,"satellites":[{"PRN":2,"gnssid":0,"svid":2,"az":287.0,"el":84.0,"ss":47.0,"used":true,"health":1},{"PRN":15,"gnssid":0,"svid":15,"az":0.0,"el":-9.0,"ss":0.0,"used":false,"health":1},{"PRN":28,"gnssid":0,"svid":28,"az":100.0,"el":6.0,"ss":35.0,"used":false,"health":1},{"PRN":30,"gnssid":0,"svid":30,"az":0.0,"el":-9.0,"ss":0.0,"used":false,"health":1},{"PRN":31,"gnssid":0,"svid":31,"az":0.0,"el":-9.0,"ss":0.0,"used":false,"health":1},{"PRN":17,"gnssid":0,"svid":17,"az":314.0,"el":25.0,"ss":45.0,"used":true,"health":1},{"PRN":14,"gnssid":0,"svid":14,"az":279.0,"el":17.0,"ss":40.0,"used":true,"health":1},{"PRN":8,"gnssid":0,"svid":8,"az":176.0,"el":26.0,"ss":33.0,"used":true,"health":1},{"PRN":3,"gnssid":0,"svid":3,"az":239.0,"el":40.0,"ss":43.0,"used":true,"health":1},{"PRN":32,"gnssid":0,"svid":32,"az":60.0,"el":37.0,"ss":49.0,"used":true,"health":1},{"PRN":10,"gnssid":0,"svid":10,"az":0.0,"el":-9.0,"ss":42.0,"used":false,"health":1},{"PRN":21,"gnssid":0,"svid":21,"az":120.0,"el":77.0,"ss":43.0,"used":true,"health":1},{"PRN":22,"gnssid":0,"svid":22,"az":302.0,"el":19.0,"ss":40.0,"used":true,"health":1},{"PRN":19,"gnssid":0,"svid":19,"az":324.0,"el":1.0,"ss":25.0,"used":false,"health":1}]}
{"class":"TPV","device":"/dev/ttyACM0","mode":3,"time":"2024-07-09T11:37:20.500Z","leapseconds":18,"ept":0.005,"lat":52.315825033,"lon":10.563361104,"altHAE":136.6764,"altMSL":92.7792,"alt":92.7792,"epx":14.966,"epy":38.170,"epv":38.410,"track":280.2070,"magtrack":283.4269,"magvar":3.2,"speed":3.500,"climb":0.052,"eps":0.65,"epc":381.51,"ecefx":3841074.54,"ecefy":716295.59,"ecefz":5024470.63,"ecefvx":0.18,"ecefvy":-3.47,"ecefvz":0.42,"ecefpAcc":4.27,"ecefvAcc":0.65,"velN":0.620,"velE":-3.444,"velD":-0.052,"geoidSep":43.897,"eph":20.900,"sep":38.000}
{"class":"SKY","device":"/dev/ttyACM0","time":"2024-07-09T11:37:20.248Z","gdop":2.32,"hdop":1.10,"pdop":2.00,"tdop":1.17,"xdop":1.00,"ydop":2.54,"vdop":1.67,"uSat":6}
{"class":"SKY","device":"/dev/ttyACM0","time":"2024-07-09T11:37:20.248Z","gdop":2.32,"hdop":1.10,"pdop":2.00,"tdop":1.17,"xdop":1.00,"ydop":2.54,"vdop":1.67,"uSat":6}
{"class":"TPV","device":"/dev/ttyACM0","mode":3,"time":"2024-07-09T11:37:20.500Z","leapseconds":18,"ept":0.005,"lat":52.315825033,"lon":10.563361104,"altHAE":136.6764,"altMSL":92.7792,"alt":92.7792,"epx":14.966,"epy":38.170,"epv":38.410,"track":280.2070,"magtrack":283.4269,"magvar":3.2,"speed":3.500,"climb":0.052,"eps":302.93,"epc":381.51,"ecefx":3841074.54,"ecefy":716295.59,"ecefz":5024470.63,"ecefvx":0.18,"ecefvy":-3.47,"ecefvz":0.42,"ecefpAcc":4.27,"ecefvAcc":0.65,"velN":0.620,"velE":-3.444,"velD":-0.052,"geoidSep":43.897,"eph":20.900,"sep":38.000}
{"class":"SKY","device":"/dev/ttyACM0","time":"2024-07-09T11:37:20.500Z","gdop":2.32,"hdop":1.10,"pdop":2.00,"tdop":1.17,"xdop":1.00,"ydop":2.54,"vdop":1.67,"nSat":14,"uSat":8,"satellites":[{"PRN":2,"gnssid":0,"svid":2,"az":287.0,"el":84.0,"ss":47.0,"used":true,"health":1},{"PRN":15,"gnssid":0,"svid":15,"az":0.0,"el":-9.0,"ss":0.0,"used":false,"health":1},{"PRN":28,"gnssid":0,"svid":28,"az":100.0,"el":6.0,"ss":36.0,"used":false,"health":1},{"PRN":30,"gnssid":0,"svid":30,"az":0.0,"el":-9.0,"ss":0.0,"used":false,"health":1},{"PRN":31,"gnssid":0,"svid":31,"az":0.0,"el":-9.0,"ss":0.0,"used":false,"health":1},{"PRN":17,"gnssid":0,"svid":17,"az":314.0,"el":25.0,"ss":45.0,"used":true,"health":1},{"PRN":14,"gnssid":0,"svid":14,"az":279.0,"el":17.0,"ss":40.0,"used":true,"health":1},{"PRN":8,"gnssid":0,"svid":8,"az":176.0,"el":26.0,"ss":34.0,"used":true,"health":1},{"PRN":3,"gnssid":0,"svid":3,"az":239.0,"el":40.0,"ss":45.0,"used":true,"health":1},{"PRN":32,"gnssid":0,"svid":32,"az":60.0,"el":37.0,"ss":48.0,"used":true,"health":1},{"PRN":10,"gnssid":0,"svid":10,"az":0.0,"el":-9.0,"ss":43.0,"used":false,"health":1},{"PRN":21,"gnssid":0,"svid":21,"az":120.0,"el":77.0,"ss":43.0,"used":true,"health":1},{"PRN":22,"gnssid":0,"svid":22,"az":302.0,"el":19.0,"ss":41.0,"used":true,"health":1},{"PRN":19,"gnssid":0,"svid":19,"az":324.0,"el":1.0,"ss":26.0,"used":false,"health":1}]}
{"class":"TPV","device":"/dev/ttyACM0","mode":3,"time":"2024-07-09T11:37:20.748Z","leapseconds":18,"ept":0.005,"lat":52.315826738,"lon":10.563348167,"altHAE":136.7194,"altMSL":92.8222,"alt":92.8222,"epx":14.966,"epy":38.170,"epv":38.410,"track":278.7562,"magtrack":281.9761,"magvar":3.2,"speed":3.609,"climb":0.056,"eps":0.69,"epc":309.76,"ecefx":3841074.58,"ecefy":716294.70,"ecefz":5024470.78,"ecefvx":0.26,"ecefvy":-3.58,"ecefvz":0.38,"ecefpAcc":4.29,"ecefvAcc":0.69,"velN":0.549,"velE":-3.567,"velD":-0.056,"geoidSep":43.897,"eph":20.900,"sep":64.600}
{"class":"SKY","device":"/dev/ttyACM0","time":"2024-07-09T11:37:20.500Z","gdop":2.32,"hdop":1.10,"pdop":3.40,"tdop":1.17,"xdop":1.00,"ydop":2.54,"vdop":1.67,"uSat":6}
{"class":"SKY","device":"/dev/ttyACM0","time":"2024-07-09T11:37:20.500Z","gdop":4.09,"hdop":1.93,"pdop":3.40,"tdop":2.26,"xdop":1.00,"ydop":2.54,"vdop":2.80,"uSat":6}
{"class":"TPV","device":"/dev/ttyACM0","mode":3,"time":"2024-07-09T11:37:20.748Z","leapseconds":18,"ept":0.005,"lat":52.315826738,"lon":10.563348167,"altHAE":136.7194,"altMSL":92.8222,"alt":92.8222,"epx":14.966,"epy":38.170,"epv":38.410,"track":278.7562,"magtrack":281.9761,"magvar":3.2,"speed":3.609,"climb":0.056,"eps":307.82,"epc":309.76,"ecefx":3841074.58,"ecefy":716294.70,"ecefz":5024470.78,"ecefvx":0.26,"ecefvy":-3.58,"ecefvz":0.38,"ecefpAcc":4.29,"ecefvAcc":0.69,"velN":0.549,"velE":-3.567,"velD":-0.056,"geoidSep":43.897,"eph":20.900,"sep":64.600}
{"class":"SKY","device":"/dev/ttyACM0","time":"2024-07-09T11:37:20.748Z","gdop":4.09,"hdop":1.93,"pdop":3.40,"tdop":2.26,"xdop":1.00,"ydop":2.54,"vdop":2.80,"nSat":14,"uSat":6,"satellites":[{"PRN":2,"gnssid":0,"svid":2,"az":287.0,"el":84.0,"ss":48.0,"used":true,"health":1},{"PRN":15,"gnssid":0,"svid":15,"az":0.0,"el":-9.0,"ss":0.0,"used":false,"health":1},{"PRN":28,"gnssid":0,"svid":28,"az":100.0,"el":6.0,"ss":36.0,"used":false,"health":1},{"PRN":30,"gnssid":0,"svid":30,"az":0.0,"el":-9.0,"ss":0.0,"used":false,"health":1},{"PRN":31,"gnssid":0,"svid":31,"az":0.0,"el":-9.0,"ss":0.0,"used":false,"health":1},{"PRN":17,"gnssid":0,"svid":17,"az":314.0,"el":25.0,"ss":45.0,"used":true,"health":1},{"PRN":14,"gnssid":0,"svid":14,"az":279.0,"el":17.0,"ss":40.0,"used":false,"health":1},{"PRN":8,"gnssid":0,"svid":8,"az":176.0,"el":26.0,"ss":33.0,"used":false,"health":1},{"PRN":3,"gnssid":0,"svid":3,"az":239.0,"el":40.0,"ss":44.0,"used":true,"health":1},{"PRN":32,"gnssid":0,"svid":32,"az":60.0,"el":37.0,"ss":48.0,"used":true,"health":1},{"PRN":10,"gnssid":0,"svid":10,"az":0.0,"el":-9.0,"ss":42.0,"used":false,"health":1},{"PRN":21,"gnssid":0,"svid":21,"az":120.0,"el":77.0,"ss":43.0,"used":true,"health":1},{"PRN":22,"gnssid":0,"svid":22,"az":302.0,"el":19.0,"ss":40.0,"used":true,"health":1},{"PRN":19,"gnssid":0,"svid":19,"az":324.0,"el":1.0,"ss":25.0,"used":false,"health":1}]}
{"class":"TPV","device":"/dev/ttyACM0","mode":3,"time":"2024-07-09T11:37:21.000Z","leapseconds":18,"ept":0.005,"lat":52.315828523,"lon":10.563334941,"altHAE":136.7681,"altMSL":92.8709,"alt":92.8709,"epx":14.966,"epy":38.170,"epv":64.400,"track":283.1264,"magtrack":286.3463,"magvar":3.2,"speed":3.623,"climb":0.072,"eps":0.70,"epc":407.98,"ecefx":3841074.62,"ecefy":716293.79,"ecefz":5024470.94,"ecefvx":0.05,"ecefvy":-3.58,"ecefvz":0.56,"ecefpAcc":4.31,"ecefvAcc":0.70,"velN":0.823,"velE":-3.528,"velD":-0.072,"geoidSep":43.897,"eph":36.670,"sep":59.090}
{"class":"SKY","device":"/dev/ttyACM0","time":"2024-07-09T11:37:20.748Z","gdop":4.09,"hdop":1.93,"pdop":3.11,"tdop":2.26,"xdop":1.00,"ydop":2.54,"vdop":2.80,"uSat":6}
{"class":"SKY","device":"/dev/ttyACM0","time":"2024-07-09T11:37:20.748Z","gdop":3.70,"hdop":1.84,"pdop":3.11,"tdop":2.00,"xdop":1.00,"ydop":2.54,"vdop":2.51,"uSat":6}
{"class":"TPV","device":"/dev/ttyACM0","mode":3,"time":"2024-07-09T11:37:21.000Z","leapseconds":18,"ept":0.005,"lat":52.315828523,"lon":10.563334941,"altHAE":136.7681,"altMSL":92.8709,"alt":92.8709,"epx":14.966,"epy":38.170,"epv":64.400,"track":283.1264,"magtrack":286.3463,"magvar":3.2,"speed":3.623,"climb":0.072,"eps":302.93,"epc":407.98,"ecefx":3841074.62,"ecefy":716293.79,"ecefz":5024470.94,"ecefvx":0.05,"ecefvy":-3.58,"ecefvz":0.56,"ecefpAcc":4.31,"ecefvAcc":0.70,"velN":0.823,"velE":-3.528,"velD":-0.072,"geoidSep":43.897,"eph":36.670,"sep":59.090}
{"class":"SKY","device":"/dev/ttyACM0","time":"2024-07-09T11:37:21.000Z","gdop":3.70,"hdop":1.84,"pdop":3.11,"tdop":2.00,"xdop":1.00,"ydop":2.54,"vdop":2.51,"nSat":14,"uSat":7,"satellites":[{"PRN":2,"gnssid":0,"svid":2,"az":287.0,"el":84.0,"ss":48.0,"used":true,"health":1},{"PRN":15,"gnssid":0,"svid":15,"az":0.0,"el":-9.0,"ss":0.0,"used":false,"health":1},{"PRN":28,"gnssid":0,"svid":28,"az":100.0,"el":6.0,"ss":37.0,"used":false,"health":1},{"PRN":30,"gnssid":0,"svid":30,"az":0.0,"el":-9.0,"ss":0.0,"used":false,"health":1},{"PRN":31,"gnssid":0,"svid":31,"az":0.0,"el":-9.0,"ss":0.0,"used":false,"health":1},{"PRN":17,"gnssid":0,"svid":17,"az":314.0,"el":25.0,"ss":44.0,"used":true,"health":1},{"PRN":14,"gnssid":0,"svid":14,"az":279.0,"el":17.0,"ss":40.0,"used":true,"health":1},{"PRN":8,"gnssid":0,"svid":8,"az":176.0,"el":26.0,"ss":32.0,"used":false,"health":1},{"PRN":3,"gnssid":0,"svid":3,"az":239.0,"el":40.0,"ss":43.0,"used":true,"health":1},{"PRN":32,"gnssid":0,"svid":32,"az":60.0,"el":37.0,"ss":48.0,"used":true,"health":1},{"PRN":10,"gnssid":0,"svid":10,"az":0.0,"el":-9.0,"ss":42.0,"used":false,"health":1},{"PRN":21,"gnssid":0,"svid":21,"az":120.0,"el":77.0,"ss":45.0,"used":true,"health":1},{"PRN":22,"gnssid":0,"svid":22,"az":302.0,"el":19.0,"ss":40.0,"used":true,"health":1},{"PRN":19,"gnssid":0,"svid":19,"az":324.0,"el":1.0,"ss":25.0,"used":false,"health":1}]}
{"class":"TPV","device":"/dev/ttyACM0","mode":3,"time":"2024-07-09T11:37:21.248Z","leapseconds":18,"ept":0.005,"lat":52.315829826,"lon":10.563321400,"altHAE":136.7572,"altMSL":92.8600,"alt":92.8600,"epx":14.966,"epy":38.170,"epv":57.730,"track":282.0912,"magtrack":285.3111,"magvar":3.2,"speed":3.801,"climb":0.080,"eps":0.69,"epc":492.46,"ecefx":3841074.67,"ecefy":716292.86,"ecefz":5024471.02,"ecefvx":0.11,"ecefvy":-3.76,"ecefvz":0.55,"ecefpAcc":4.31,"ecefvAcc":0.69,"velN":0.796,"velE":-3.716,"velD":-0.080,"geoidSep":43.897,"eph":34.960,"sep":38.000}
{"class":"SKY","device":"/dev/ttyACM0","time":"2024-07-09T11:37:21.000Z","gdop":3.70,"hdop":1.84,"pdop":2.00,"tdop":2.00,"xdop":1.00,"ydop":2.54,"vdop":2.51,"uSat":6}
{"class":"SKY","device":"/dev/ttyACM0","time":"2024-07-09T11:37:21.000Z","gdop":2.32,"hdop":1.10,"pdop":2.00,"tdop":1.17,"xdop":1.00,"ydop":2.54,"vdop":1.67,"uSat":6}
{"class":"TPV","device":"/dev/ttyACM0","mode":3,"time":"2024-07-09T11:37:21.248Z","leapseconds":18,"ept":0.005,"lat":52.315829826,"lon":10.563321400,"altHAE":136.7572,"altMSL":92.8600,"alt":92.8600,"epx":14.966,"epy":38.170,"epv":57.730,"track":282.0912,"magtrack":285.3111,"magvar":3.2,"speed":3.801,"climb":0.080,"eps":307.82,"epc":492.46,"ecefx":3841074.67,"ecefy":716292.86,"ecefz":5024471.02,"ecefvx":0.11,"ecefvy":-3.76,"ecefvz":0.55,"ecefpAcc":4.31,"ecefvAcc":0.69,"velN":0.796,"velE":-3.716,"velD":-0.080,"geoidSep":43.897,"eph":34.960,"sep":38.000}
