{"class":"VERSION","release":"3.25","rev":"3.25","proto_major":3,"proto_minor":15}
{"class":"DEVICES","devices":[{"class":"DEVICE","path":"/dev/ttyACM0","driver":"u-blox","subtype":"SW 5.00    May 11 2006 14:40:17,HW 00040001","subtype1":"M4T1.2  May 11 2006 14:40:17","activated":"2024-07-09T11:43:41.148Z","flags":1,"native":1,"bps":57600,"parity":"N","stopbits":1,"cycle":1.00,"mincycle":0.02}]}
{"class":"WATCH","enable":true,"json":true,"nmea":false,"raw":0,"scaled":false,"timing":false,"split24":false,"pps":false}
{"class":"TPV","device":"/dev/ttyACM0","mode":3,"time":"2024-07-09T11:41:54.248Z","leapseconds":18,"ept":0.005,"lat":52.315719071,"lon":10.564590115,"altHAE":134.8668,"altMSL":90.9706,"alt":90.9706,"epx":14.966,"epy":38.170,"epv":37.260,"track":282.1661,"magtrack":285.3864,"magvar":3.2,"speed":2.033,"climb":0.048,"eps":0.37,"epc":300.48,"ecefx":3841067.26,"ecefy":716379.49,"ecefz":5024461.99,"ecefvx":0.06,"ecefvy":-2.01,"ecefvz":0.30,"ecefpAcc":2.95,"ecefvAcc":0.37,"velN":0.428,"velE":-1.987,"velD":-0.048,"geoidSep":43.896,"eph":20.710,"sep":29.830}
{"class":"SKY","device":"/dev/ttyACM0","time":"2024-07-09T11:41:54.000Z","gdop":2.25,"hdop":1.09,"pdop":1.57,"tdop":1.13,"xdop":1.00,"ydop":2.54,"vdop":1.62,"uSat":6}
{"class":"SKY","device":"/dev/ttyACM0","time":"2024-07-09T11:41:54.000Z","gdop":1.76,"hdop":0.92,"pdop":1.57,"tdop":0.79,"xdop":1.00,"ydop":2.54,"vdop":1.27,"uSat":6}
{"class":"TPV","device":"/dev/ttyACM0","mode":3,"time":"2024-07-09T11:41:54.248Z","leapseconds":18,"ept":0.005,"lat":52.315719071,"lon":10.564590115,"altHAE":134.8668,"altMSL":90.9706,"alt":90.9706,"epx":14.966,"epy":38.170,"epv":37.260,"track":282.1661,"magtrack":285.3864,"magvar":3.2,"speed":2.033,"climb":0.048,"eps":307.82,"epc":300.48,"ecefx":3841067.26,"ecefy":716379.49,"ecefz":5024461.99,"ecefvx":0.06,"ecefvy":-2.01,"ecefvz":0.30,"ecefpAcc":2.95,"ecefvAcc":0.37,"velN":0.428,"velE":-1.987,"velD":-0.048,"geoidSep":43.896,"eph":20.710,"sep":29.830}
{"class":"SKY","device":"/dev/ttyACM0","time":"2024-07-09T11:41:54.248Z","gdop":1.76,"hdop":0.92,"pdop":1.57,"tdop":0.79,"xdop":1.00,"ydop":2.54,"vdop":1.27,"nSat":13,"uSat":9,"satellites":[{"PRN":2,"gnssid":0,"svid":2,"az":279.0,"el":86.0,"ss":48.0,"used":true,"health":1},{"PRN":15,"gnssid":0,"svid":15,"az":0.0,"el":-9.0,"ss":0.0,"used":false,"health":1},{"PRN":28,"gnssid":0,"svid":28,"az":99.0,"el":7.0,"ss":0.0,"used":false,"health":1},{"PRN":33,"gnssid":1,"svid":120,"az":0.0,"el":-9.0,"ss":0.0,"used":false,"health":1},{"PRN":8,"gnssid":0,"svid":8,"az":176.0,"el":24.0,"ss":43.0,"used":true,"health":1},{"PRN":17,"gnssid":0,"svid":17,"az":313.0,"el":26.0,"ss":43.0,"used":true,"health":1},{"PRN":14,"gnssid":0,"svid":14,"az":277.0,"el":16.0,"ss":35.0,"used":true,"health":1},{"PRN":3,"gnssid":0,"svid":3,"az":241.0,"el":42.0,"ss":46.0,"used":true,"health":1},{"PRN":32,"gnssid":0,"svid":32,"az":58.0,"el":36.0,"ss":48.0,"used":true,"health":1},{"PRN":10,"gnssid":0,"svid":10,"az":62.0,"el":10.0,"ss":40.0,"used":true,"health":1},{"PRN":21,"gnssid":0,"svid":21,"az":121.0,"el":75.0,"ss":47.0,"used":true,"health":1},{"PRN":22,"gnssid":0,"svid":22,"az":300.0,"el":19.0,"ss":38.0,"used":true,"health":1},{"PRN":19,"gnssid":0,"svid":19,"az":324.0,"el":3.0,"ss":30.0,"used":false,"health":1}]}
{"class":"TPV","device":"/dev/ttyACM0","mode":3,"time":"2024-07-09T11:41:54.500Z","leapseconds":18,"ept":0.005,"lat":52.315720105,"lon":10.564582330,"altHAE":134.8538,"altMSL":90.9575,"alt":90.9575,"epx":14.966,"epy":38.170,"epv":29.210,"track":282.9050,"magtrack":286.1253,"magvar":3.2,"speed":2.182,"climb":0.015,"eps":0.36,"epc":263.77,"ecefx":3841067.26,"ecefy":716378.95,"ecefz":5024462.05,"ecefvx":0.02,"ecefvy":-2.16,"ecefvz":0.31,"ecefpAcc":2.94,"ecefvAcc":0.36,"velN":0.487,"velE":-2.127,"velD":-0.015,"geoidSep":43.896,"eph":17.480,"sep":29.830}
{"class":"SKY","device":"/dev/ttyACM0","time":"2024-07-09T11:41:54.248Z","gdop":1.76,"hdop":0.92,"pdop":1.57,"tdop":0.79,"xdop":1.00,"ydop":2.54,"vdop":1.27,"uSat":6}
{"class":"SKY","device":"/dev/ttyACM0","time":"2024-07-09T11:41:54.248Z","gdop":1.76,"hdop":0.92,"pdop":1.57,"tdop":0.79,"xdop":1.00,"ydop":2.54,"vdop":1.27,"uSat":6}
{"class":"TPV","device":"/dev/ttyACM0","mode":3,"time":"2024-07-09T11:41:54.500Z","leapseconds":18,"ept":0.005,"lat":52.315720105,"lon":10.564582330,"altHAE":134.8538,"altMSL":90.9575,"alt":90.9575,"epx":14.966,"epy":38.170,"epv":29.210,"track":282.9050,"magtrack":286.1253,"magvar":3.2,"speed":2.182,"climb":0.015,"eps":302.93,"epc":263.77,"ecefx":3841067.26,"ecefy":716378.95,"ecefz":5024462.05,"ecefvx":0.02,"ecefvy":-2.16,"ecefvz":0.31,"ecefpAcc":2.94,"ecefvAcc":0.36,"velN":0.487,"velE":-2.127,"velD":-0.015,"geoidSep":43.896,"eph":17.480,"sep":29.830}
{"class":"SKY","device":"/dev/ttyACM0","time":"2024-07-09T11:41:54.500Z","gdop":1.76,"hdop":0.92,"pdop":1.57,"tdop":0.79,"xdop":1.00,"ydop":2.54,"vdop":1.27,"nSat":13,"uSat":9,"satellites":[{"PRN":2,"gnssid":0,"svid":2,"az":279.0,"el":86.0,"ss":48.0,"used":true,"health":1},{"PRN":15,"gnssid":0,"svid":15,"az":0.0,"el":-9.0,"ss":0.0,"used":false,"health":1},{"PRN":28,"gnssid":0,"svid":28,"az":99.0,"el":7.0,"ss":0.0,"used":false,"health":1},{"PRN":33,"gnssid":1,"svid":120,"az":0.0,"el":-9.0,"ss":0.0,"used":false,"health":1},{"PRN":8,"gnssid":0,"svid":8,"az":176.0,"el":24.0,"ss":44.0,"used":true,"health":1},{"PRN":17,"gnssid":0,"svid":17,"az":313.0,"el":26.0,"ss":42.0,"used":true,"health":1},{"PRN":14,"gnssid":0,"svid":14,"az":277.0,"el":16.0,"ss":35.0,"used":true,"health":1},{"PRN":3,"gnssid":0,"svid":3,"az":241.0,"el":42.0,"ss":46.0,"used":true,"health":1},{"PRN":32,"gnssid":0,"svid":32,"az":58.0,"el":36.0,"ss":48.0,"used":true,"health":1},{"PRN":10,"gnssid":0,"svid":10,"az":62.0,"el":10.0,"ss":40.0,"used":true,"health":1},{"PRN":21,"gnssid":0,"svid":21,"az":121.0,"el":75.0,"ss":47.0,"used":true,"health":1},{"PRN":22,"gnssid":0,"svid":22,"az":300.0,"el":19.0,"ss":39.0,"used":true,"health":1},{"PRN":19,"gnssid":0,"svid":19,"az":324.0,"el":3.0,"ss":31.0,"used":false,"health":1}]}
{"class":"TPV","device":"/dev/ttyACM0","mode":3,"time":"2024-07-09T11:41:54.748Z","leapseconds":18,"ept":0.005,"lat":52.315721181,"lon":10.564574690,"altHAE":134.8498,"altMSL":90.9535,"alt":90.9535,"epx":14.966,"epy":38.170,"epv":29.210,"track":283.9471,"magtrack":287.1674,"magvar":3.2,"speed":2.145,"climb":0.018,"eps":0.36,"epc":235.56,"ecefx":3841067.26,"ecefy":716378.42,"ecefz":5024462.12,"ecefvx":-0.01,"ecefvy":-2.12,"ecefvz":0.33,"ecefpAcc":2.94,"ecefvAcc":0.36,"velN":0.517,"velE":-2.082,"velD":-0.018,"geoidSep":43.896,"eph":17.480,"sep":37.050}
{"class":"SKY","device":"/dev/ttyACM0","time":"2024-07-09T11:41:54.500Z","gdop":1.76,"hdop":0.92,"pdop":1.95,"tdop":0.79,"xdop":1.00,"ydop":2.54,"vdop":1.27,"uSat":6}
{"class":"SKY","device":"/dev/ttyACM0","time":"2024-07-09T11:41:54.500Z","gdop":2.25,"hdop":1.09,"pdop":1.95,"tdop":1.13,"xdop":1.00,"ydop":2.54,"vdop":1.62,"uSat":6}
{"class":"TPV","device":"/dev/ttyACM0","mode":3,"time":"2024-07-09T11:41:54.748Z","leapseconds":18,"ept":0.005,"lat":52.315721181,"lon":10.564574690,"altHAE":134.8498,"altMSL":90.9535,"alt":90.9535,"epx":14.966,"epy":38.170,"epv":29.210,"track":283.9471,"magtrack":287.1674,"magvar":3.2,"speed":2.145,"climb":0.018,"eps":307.82,"epc":235.56,"ecefx":3841067.26,"ecefy":716378.42,"ecefz":5024462.12,"ecefvx":-0.01,"ecefvy":-2.12,"ecefvz":0.33,"ecefpAcc":2.94,"ecefvAcc":0.36,"velN":0.517,"velE":-2.082,"velD":-0.018,"geoidSep":43.896,"eph":17.480,"sep":37.050}
{"class":"SKY","device":"/dev/ttyACM0","time":"2024-07-09T11:41:54.748Z","gdop":2.25,"hdop":1.09,"pdop":1.95,"tdop":1.13,"xdop":1.00,"ydop":2.54,"vdop":1.62,"nSat":13,"uSat":8,"satellites":[{"PRN":2,"gnssid":0,"svid":2,"az":279.0,"el":86.0,"ss":48.0,"used":true,"health":1},{"PRN":15,"gnssid":0,"svid":15,"az":0.0,"el":-9.0,"ss":0.0,"used":false,"health":1},{"PRN":28,"gnssid":0,"svid":28,"az":99.0,"el":7.0,"ss":0.0,"used":false,"health":1},{"PRN":33,"gnssid":1,"svid":120,"az":0.0,"el":-9.0,"ss":0.0,"used":false,"health":1},{"PRN":8,"gnssid":0,"svid":8,"az":176.0,"el":24.0,"ss":43.0,"used":true,"health":1},{"PRN":17,"gnssid":0,"svid":17,"az":313.0,"el":26.0,"ss":43.0,"used":true,"health":1},{"PRN":14,"gnssid":0,"svid":14,"az":277.0,"el":16.0,"ss":35.0,"used":true,"health":1},{"PRN":3,"gnssid":0,"svid":3,"az":241.0,"el":42.0,"ss":46.0,"used":true,"health":1},{"PRN":32,"gnssid":0,"svid":32,"az":58.0,"el":36.0,"ss":48.0,"used":true,"health":1},{"PRN":10,"gnssid":0,"svid":10,"az":62.0,"el":10.0,"ss":39.0,"used":false,"health":1},{"PRN":21,"gnssid":0,"svid":21,"az":121.0,"el":75.0,"ss":47.0,"used":true,"health":1},{"PRN":22,"gnssid":0,"svid":22,"az":300.0,"el":19.0,"ss":40.0,"used":true,"health":1},{"PRN":19,"gnssid":0,"svid":19,"az":324.0,"el":3.0,"ss":31.0,"used":false,"health":1}]}
{"class":"TPV","device":"/dev/ttyACM0","mode":3,"time":"2024-07-09T11:41:55.000Z","leapseconds":18,"ept":0.005,"lat":52.315722394,"lon":10.564566933,"altHAE":134.8465,"altMSL":90.9503,"alt":90.9503,"epx":14.966,"epy":38.170,"epv":37.260,"track":283.5680,"magtrack":286.7883,"magvar":3.2,"speed":2.126,"climb":0.032,"eps":0.36,"epc":263.77,"ecefx":3841067.25,"ecefy":716377.88,"ecefz":5024462.20,"ecefvx":0.01,"ecefvy":-2.10,"ecefvz":0.33,"ecefpAcc":2.94,"ecefvAcc":0.36,"velN":0.499,"velE":-2.066,"velD":-0.032,"geoidSep":43.896,"eph":20.710,"sep":29.830}
{"class":"SKY","device":"/dev/ttyACM0","time":"2024-07-09T11:41:54.748Z","gdop":2.25,"hdop":1.09,"pdop":1.57,"tdop":1.13,"xdop":1.00,"ydop":2.54,"vdop":1.62,"uSat":6}
{"class":"SKY","device":"/dev/ttyACM0","time":"2024-07-09T11:41:54.748Z","gdop":1.76,"hdop":0.92,"pdop":1.57,"tdop":0.79,"xdop":1.00,"ydop":2.54,"vdop":1.27,"uSat":6}
{"class":"TPV","device":"/dev/ttyACM0","mode":3,"time":"2024-07-09T11:41:55.000Z","leapseconds":18,"ept":0.005,"lat":52.315722394,"lon":10.564566933,"altHAE":134.8465,"altMSL":90.9503,"alt":90.9503,"epx":14.966,"epy":38.170,"epv":37.260,"track":283.5680,"magtrack":286.7883,"magvar":3.2,"speed":2.126,"climb":0.032,"eps":302.93,"epc":263.77,"ecefx":3841067.25,"ecefy":716377.88,"ecefz":5024462.20,"ecefvx":0.01,"ecefvy":-2.10,"ecefvz":0.33,"ecefpAcc":2.94,"ecefvAcc":0.36,"velN":0.499,"velE":-2.066,"velD":-0.032,"geoidSep":43.896,"eph":20.710,"sep":29.830}
{"class":"SKY","device":"/dev/ttyACM0","time":"2024-07-09T11:41:55.000Z","gdop":1.76,"hdop":0.92,"pdop":1.57,"tdop":0.79,"xdop":1.00,"ydop":2.54,"vdop":1.27,"nSat":13,"uSat":9,"satellites":[{"PRN":2,"gnssid":0,"svid":2,"az":279.0,"el":86.0,"ss":48.0,"used":true,"health":1},{"PRN":15,"gnssid":0,"svid":15,"az":0.0,"el":-9.0,"ss":0.0,"used":false,"health":1},{"PRN":28,"gnssid":0,"svid":28,"az":99.0,"el":7.0,"ss":0.0,"used":false,"health":1},{"PRN":33,"gnssid":1,"svid":120,"az":0.0,"el":-9.0,"ss":0.0,"used":false,"health":1},{"PRN":8,"gnssid":0,"svid":8,"az":176.0,"el":24.0,"ss":44.0,"used":true,"health":1},{"PRN":17,"gnssid":0,"svid":17,"az":313.0,"el":26.0,"ss":43.0,"used":true,"health":1},{"PRN":14,"gnssid":0,"svid":14,"az":277.0,"el":16.0,"ss":36.0,"used":true,"health":1},{"PRN":3,"gnssid":0,"svid":3,"az":241.0,"el":42.0,"ss":46.0,"used":true,"health":1},{"PRN":32,"gnssid":0,"svid":32,"az":58.0,"el":36.0,"ss":48.0,"used":true,"health":1},{"PRN":10,"gnssid":0,"svid":10,"az":62.0,"el":10.0,"ss":39.0,"used":true,"health":1},{"PRN":21,"gnssid":0,"svid":21,"az":121.0,"el":75.0,"ss":47.0,"used":true,"health":1},{"PRN":22,"gnssid":0,"svid":22,"az":300.0,"el":19.0,"ss":40.0,"used":true,"health":1},{"PRN":19,"gnssid":0,"svid":19,"az":324.0,"el":3.0,"ss":29.0,"used":false,"health":1}]}
{"class":"TPV","device":"/dev/ttyACM0","mode":3,"time":"2024-07-09T11:41:55.248Z","leapseconds":18,"ept":0.005,"lat":52.315723432,"lon":10.564559491,"altHAE":134.8079,"altMSL":90.9116,"alt":90.9116,"epx":14.966,"epy":38.170,"epv":29.210,"track":281.5666,"magtrack":284.7869,"magvar":3.2,"speed":2.088,"climb":0.018,"eps":0.36,"epc":268.02,"ecefx":3841067.23,"ecefy":716377.36,"ecefz":5024462.24,"ecefvx":0.06,"ecefvy":-2.07,"ecefvz":0.27,"ecefpAcc":2.93,"ecefvAcc":0.36,"velN":0.419,"velE":-2.046,"velD":-0.018,"geoidSep":43.896,"eph":17.480,"sep":29.830}
{"class":"SKY","device":"/dev/ttyACM0","time":"2024-07-09T11:41:55.000Z","gdop":1.76,"hdop":0.92,"pdop":1.57,"tdop":0.79,"xdop":1.00,"ydop":2.54,"vdop":1.27,"uSat":6}
{"class":"SKY","device":"/dev/ttyACM0","time":"2024-07-09T11:41:55.000Z","gdop":1.76,"hdop":0.92,"pdop":1.57,"tdop":0.79,"xdop":1.00,"ydop":2.54,"vdop":1.27,"uSat":6}
{"class":"TPV","device":"/dev/ttyACM0","mode":3,"time":"2024-07-09T11:41:55.248Z","leapseconds":18,"ept":0.005,"lat":52.315723432,"lon":10.564559491,"altHAE":134.8079,"altMSL":90.9116,"alt":90.9116,"epx":14.966,"epy":38.170,"epv":29.210,"track":281.5666,"magtrack":284.7869,"magvar":3.2,"speed":2.088,"climb":0.018,"eps":307.82,"epc":268.02,"ecefx":3841067.23,"ecefy":716377.36,"ecefz":5024462.24,"ecefvx":0.06,"ecefvy":-2.07,"ecefvz":0.27,"ecefpAcc":2.93,"ecefvAcc":0.36,"velN":0.419,"velE":-2.046,"velD":-0.018,"geoidSep":43.896,"eph":17.480,"sep":29.830}
{"class":"SKY","device":"/dev/ttyACM0","time":"2024-07-09T11:41:55.248Z","gdop":1.76,"hdop":0.92,"pdop":1.57,"tdop":0.79,"xdop":1.00,"ydop":2.54,"vdop":1.27,"nSat":13,"uSat":9,"satellites":[{"PRN":2,"gnssid":0,"svid":2,"az":279.0,"el":86.0,"ss":48.0,"used":true,"health":1},{"PRN":15,"gnssid":0,"svid":15,"az":0.0,"el":-9.0,"ss":0.0,"used":false,"health":1},{"PRN":28,"gnssid":0,"svid":28,"az":99.0,"el":7.0,"ss":0.0,"used":false,"health":1},{"PRN":33,"gnssid":1,"svid":120,"az":0.0,"el":-9.0,"ss":0.0,"used":false,"health":1},{"PRN":8,"gnssid":0,"svid":8,"az":176.0,"el":24.0,"ss":46.0,"used":true,"health":1},{"PRN":17,"gnssid":0,"svid":17,"az":313.0,"el":26.0,"ss":42.0,"used":true,"health":1},{"PRN":14,"gnssid":0,"svid":14,"az":277.0,"el":16.0,"ss":36.0,"used":true,"health":1},{"PRN":3,"gnssid":0,"svid":3,"az":241.0,"el":42.0,"ss":46.0,"used":true,"health":1},{"PRN":32,"gnssid":0,"svid":32,"az":58.0,"el":36.0,"ss":48.0,"used":true,"health":1},{"PRN":10,"gnssid":0,"svid":10,"az":62.0,"el":10.0,"ss":38.0,"used":true,"health":1},{"PRN":21,"gnssid":0,"svid":21,"az":121.0,"el":75.0,"ss":47.0,"used":true,"health":1},{"PRN":22,"gnssid":0,"svid":22,"az":300.0,"el":19.0,"ss":39.0,"used":true,"health":1},{"PRN":19,"gnssid":0,"svid":19,"az":324.0,"el":3.0,"ss":32.0,"used":false,"health":1}]}
{"class":"TPV","device":"/dev/ttyACM0","mode":3,"time":"2024-07-09T11:41:55.500Z","leapseconds":18,"ept":0.005,"lat":52.315724302,"lon":10.564552112,"altHAE":134.7963,"altMSL":90.9001,"alt":90.9001,"epx":14.966,"epy":38.170,"epv":29.210,"track":282.4091,"magtrack":285.6294,"magvar":3.2,"speed":2.051,"climb":0.026,"eps":0.35,"epc":231.83,"ecefx":3841067.24,"ecefy":716376.85,"ecefz":5024462.29,"ecefvx":0.04,"ecefvy":-2.03,"ecefvz":0.29,"ecefpAcc":2.93,"ecefvAcc":0.35,"velN":0.441,"velE":-2.003,"velD":-0.026,"geoidSep":43.896,"eph":17.480,"sep":29.830}
{"class":"SKY","device":"/dev/ttyACM0","time":"2024-07-09T11:41:55.248Z","gdop":1.76,"hdop":0.92,"pdop":1.57,"tdop":0.79,"xdop":1.00,"ydop":2.54,"vdop":1.27,"uSat":6}
{"class":"SKY","device":"/dev/ttyACM0","time":"2024-07-09T11:41:55.248Z","gdop":1.76,"hdop":0.92,"pdop":1.57,"tdop":0.79,"xdop":1.00,"ydop":2.54,"vdop":1.27,"uSat":6}
{"class":"TPV","device":"/dev/ttyACM0","mode":3,"time":"2024-07-09T11:41:55.500Z","leapseconds":18,"ept":0.005,"lat":52.315724302,"lon":10.564552112,"altHAE":134.7963,"altMSL":90.9001,"alt":90.9001,"epx":14.966,"epy":38.170,"epv":29.210,"track":282.4091,"magtrack":285.6294,"magvar":3.2,"speed":2.051,"climb":0.026,"eps":302.93,"epc":231.83,"ecefx":3841067.24,"ecefy":716376.85,"ecefz":5024462.29,"ecefvx":0.04,"ecefvy":-2.03,"ecefvz":0.29,"ecefpAcc":2.93,"ecefvAcc":0.35,"velN":0.441,"velE":-2.003,"velD":-0.026,"geoidSep":43.896,"eph":17.480,"sep":29.830}
{"class":"SKY","device":"/dev/ttyACM0","time":"2024-07-09T11:41:55.500Z","gdop":1.76,"hdop":0.92,"pdop":1.57,"tdop":0.79,"xdop":1.00,"ydop":2.54,"vdop":1.27,"nSat":13,"uSat":9,"satellites":[{"PRN":2,"gnssid":0,"svid":2,"az":279.0,"el":86.0,"ss":48.0,"used":true,"health":1},{"PRN":15,"gnssid":0,"svid":15,"az":0.0,"el":-9.0,"ss":0.0,"used":false,"health":1},{"PRN":28,"gnssid":0,"svid":28,"az":99.0,"el":7.0,"ss":0.0,"used":false,"health":1},{"PRN":33,"gnssid":1,"svid":120,"az":0.0,"el":-9.0,"ss":0.0,"used":false,"health":1},{"PRN":8,"gnssid":0,"svid":8,"az":176.0,"el":24.0,"ss":45.0,"used":true,"health":1},{"PRN":17,"gnssid":0,"svid":17,"az":313.0,"el":26.0,"ss":44.0,"used":true,"health":1},{"PRN":14,"gnssid":0,"svid":14,"az":277.0,"el":16.0,"ss":37.0,"used":true,"health":1},{"PRN":3,"gnssid":0,"svid":3,"az":241.0,"el":42.0,"ss":46.0,"used":true,"health":1},{"PRN":32,"gnssid":0,"svid":32,"az":58.0,"el":36.0,"ss":48.0,"used":true,"health":1},{"PRN":10,"gnssid":0,"svid":10,"az":62.0,"el":10.0,"ss":40.0,"used":true,"health":1},{"PRN":21,"gnssid":0,"svid":21,"az":121.0,"el":75.0,"ss":47.0,"used":true,"health":1},{"PRN":22,"gnssid":0,"svid":22,"az":300.0,"el":19.0,"ss":39.0,"used":true,"health":1},{"PRN":19,"gnssid":0,"svid":19,"az":324.0,"el":3.0,"ss":33.0,"used":false,"health":1}]}
{"class":"TPV","device":"/dev/ttyACM0","mode":3,"time":"2024-07-09T11:41:55.748Z","leapseconds":18,"ept":0.005,"lat":52.315725296,"lon":10.564544760,"altHAE":134.7866,"altMSL":90.8904,"alt":90.8904,"epx":14.966,"epy":38.170,"epv":29.210,"track":281.6439,"magtrack":284.8641,"magvar":3.2,"speed":2.039,"climb":0.023,"eps":0.35,"epc":235.56,"ecefx":3841067.24,"ecefy":716376.34,"ecefz":5024462.35,"ecefvx":0.06,"ecefvy":-2.02,"ecefvz":0.27,"ecefpAcc":2.93,"ecefvAcc":0.35,"velN":0.411,"velE":-1.997,"velD":-0.023,"geoidSep":43.896,"eph":17.480,"sep":29.830}
{"class":"SKY","device":"/dev/ttyACM0","time":"2024-07-09T11:41:55.500Z","gdop":1.76,"hdop":0.92,"pdop":1.57,"tdop":0.79,"xdop":1.00,"ydop":2.54,"vdop":1.27,"uSat":6}
{"class":"SKY","device":"/dev/ttyACM0","time":"2024-07-09T11:41:55.500Z","gdop":1.76,"hdop":0.92,"pdop":1.57,"tdop":0.79,"xdop":1.00,"ydop":2.54,"vdop":1.27,"uSat":6}
{"class":"TPV","device":"/dev/ttyACM0","mode":3,"time":"2024-07-09T11:41:55.748Z","leapseconds":18,"ept":0.005,"lat":52.315725296,"lon":10.564544760,"altHAE":134.7866,"altMSL":90.8904,"alt":90.8904,"epx":14.966,"epy":38.170,"epv":29.210,"track":281.6439,"magtrack":284.8641,"magvar":3.2,"speed":2.039,"climb":0.023,"eps":307.82,"epc":235.56,"ecefx":3841067.24,"ecefy":716376.34,"ecefz":5024462.35,"ecefvx":0.06,"ecefvy":-2.02,"ecefvz":0.27,"ecefpAcc":2.93,"ecefvAcc":0.35,"velN":0.411,"velE":-1.997,"velD":-0.023,"geoidSep":43.896,"eph":17.480,"sep":29.830}
{"class":"SKY","device":"/dev/ttyACM0","time":"2024-07-09T11:41:55.748Z","gdop":1.76,"hdop":0.92,"pdop":1.57,"tdop":0.79,"xdop":1.00,"ydop":2.54,"vdop":1.27,"nSat":13,"uSat":9,"satellites":[{"PRN":2,"gnssid":0,"svid":2,"az":279.0,"el":86.0,"ss":47.0,"used":true,"health":1},{"PRN":15,"gnssid":0,"svid":15,"az":0.0,"el":-9.0,"ss":0.0,"used":false,"health":1},{"PRN":28,"gnssid":0,"svid":28,"az":99.0,"el":7.0,"ss":0.0,"used":false,"health":1},{"PRN":33,"gnssid":1,"svid":120,"az":0.0,"el":-9.0,"ss":0.0,"used":false,"health":1},{"PRN":8,"gnssid":0,"svid":8,"az":176.0,"el":24.0,"ss":45.0,"used":true,"health":1},{"PRN":17,"gnssid":0,"svid":17,"az":313.0,"el":26.0,"ss":44.0,"used":true,"health":1},{"PRN":14,"gnssid":0,"svid":14,"az":277.0,"el":16.0,"ss":37.0,"used":true,"health":1},{"PRN":3,"gnssid":0,"svid":3,"az":241.0,"el":42.0,"ss":47.0,"used":true,"health":1},{"PRN":32,"gnssid":0,"svid":32,"az":58.0,"el":36.0,"ss":48.0,"used":true,"health":1},{"PRN":10,"gnssid":0,"svid":10,"az":62.0,"el":10.0,"ss":40.0,"used":true,"health":1},{"PRN":21,"gnssid":0,"svid":21,"az":121.0,"el":75.0,"ss":47.0,"used":true,"health":1},{"PRN":22,"gnssid":0,"svid":22,"az":300.0,"el":19.0,"ss":40.0,"used":true,"health":1},{"PRN":19,"gnssid":0,"svid":19,"az":324.0,"el":3.0,"ss":34.0,"used":false,"health":1}]}
{"class":"TPV","device":"/dev/ttyACM0","mode":3,"time":"2024-07-09T11:41:56.000Z","leapseconds":18,"ept":0.005,"lat":52.315726332,"lon":10.564537147,"altHAE":134.7608,"altMSL":90.8645,"alt":90.8645,"epx":14.966,"epy":38.170,"epv":29.210,"track":282.0645,"magtrack":285.2848,"magvar":3.2,"speed":2.149,"climb":0.007,"eps":0.34,"epc":231.83,"ecefx":3841067.23,"ecefy":716375.81,"ecefz":5024462.40,"ecefvx":0.04,"ecefvy":-2.13,"ecefvz":0.28,"ecefpAcc":2.92,"ecefvAcc":0.34,"velN":0.449,"velE":-2.101,"velD":-0.007,"geoidSep":43.896,"eph":17.480,"sep":29.830}
{"class":"SKY","device":"/dev/ttyACM0","time":"2024-07-09T11:41:55.748Z","gdop":1.76,"hdop":0.92,"pdop":1.57,"tdop":0.79,"xdop":1.00,"ydop":2.54,"vdop":1.27,"uSat":6}
{"class":"SKY","device":"/dev/ttyACM0","time":"2024-07-09T11:41:55.748Z","gdop":1.76,"hdop":0.92,"pdop":1.57,"tdop":0.79,"xdop":1.00,"ydop":2.54,"vdop":1.27,"uSat":6}
{"class":"TPV","device":"/dev/ttyACM0","mode":3,"time":"2024-07-09T11:41:56.000Z","leapseconds":18,"ept":0.005,"lat":52.315726332,"lon":10.564537147,"altHAE":134.7608,"altMSL":90.8645,"alt":90.8645,"epx":14.966,"epy":38.170,"epv":29.210,"track":282.0645,"magtrack":285.2848,"magvar":3.2,"speed":2.149,"climb":0.007,"eps":302.93,"epc":231.83,"ecefx":3841067.23,"ecefy":716375.81,"ecefz":5024462.40,"ecefvx":0.04,"ecefvy":-2.13,"ecefvz":0.28,"ecefpAcc":2.92,"ecefvAcc":0.34,"velN":0.449,"velE":-2.101,"velD":-0.007,"geoidSep":43.896,"eph":17.480,"sep":29.830}
{"class":"SKY","device":"/dev/ttyACM0","time":"2024-07-09T11:41:56.000Z","gdop":1.76,"hdop":0.92,"pdop":1.57,"tdop":0.79,"xdop":1.00,"ydop":2.54,"vdop":1.27,"nSat":13,"uSat":9,"satellites":[{"PRN":2,"gnssid":0,"svid":2,"az":279.0,"el":86.0,"ss":48.0,"used":true,"health":1},{"PRN":15,"gnssid":0,"svid":15,"az":0.0,"el":-9.0,"ss":0.0,"used":false,"health":1},{"PRN":28,"gnssid":0,"svid":28,"az":99.0,"el":7.0,"ss":0.0,"used":false,"health":1},{"PRN":33,"gnssid":1,"svid":120,"az":0.0,"el":-9.0,"ss":0.0,"used":false,"health":1},{"PRN":8,"gnssid":0,"svid":8,"az":176.0,"el":24.0,"ss":44.0,"used":true,"health":1},{"PRN":17,"gnssid":0,"svid":17,"az":313.0,"el":26.0,"ss":43.0,"used":true,"health":1},{"PRN":14,"gnssid":0,"svid":14,"az":277.0,"el":16.0,"ss":38.0,"used":true,"health":1},{"PRN":3,"gnssid":0,"svid":3,"az":241.0,"el":42.0,"ss":46.0,"used":true,"health":1},{"PRN":32,"gnssid":0,"svid":32,"az":58.0,"el":36.0,"ss":47.0,"used":true,"health":1},{"PRN":10,"gnssid":0,"svid":10,"az":62.0,"el":10.0,"ss":40.0,"used":true,"health":1},{"PRN":21,"gnssid":0,"svid":21,"az":121.0,"el":75.0,"ss":47.0,"used":true,"health":1},{"PRN":22,"gnssid":0,"svid":22,"az":300.0,"el":19.0,"ss":41.0,"used":true,"health":1},{"PRN":19,"gnssid":0,"svid":19,"az":324.0,"el":3.0,"ss":33.0,"used":false,"health":1}]}
{"class":"TPV","device":"/dev/ttyACM0","mode":3,"time":"2024-07-09T11:41:56.248Z","leapseconds":18,"ept":0.005,"lat":52.315727296,"lon":10.564529336,"altHAE":134.7538,"altMSL":90.8575,"alt":90.8575,"epx":14.966,"epy":38.170,"epv":29.210,"track":281.6767,"magtrack":284.8970,"magvar":3.2,"speed":2.230,"climb":0.018,"eps":0.34,"epc":235.56,"ecefx":3841067.24,"ecefy":716375.27,"ecefz":5024462.46,"ecefvx":0.06,"ecefvy":-2.21,"ecefvz":0.29,"ecefpAcc":2.92,"ecefvAcc":0.34,"velN":0.451,"velE":-2.184,"velD":-0.018,"geoidSep":43.896,"eph":17.480,"sep":29.830}
{"class":"SKY","device":"/dev/ttyACM0","time":"2024-07-09T11:41:56.000Z","gdop":1.76,"hdop":0.92,"pdop":1.57,"tdop":0.79,"xdop":1.00,"ydop":2.54,"vdop":1.27,"uSat":6}
{"class":"SKY","device":"/dev/ttyACM0","time":"2024-07-09T11:41:56.000Z","gdop":1.76,"hdop":0.92,"pdop":1.57,"tdop":0.79,"xdop":1.00,"ydop":2.54,"vdop":1.27,"uSat":6}
{"class":"TPV","device":"/dev/ttyACM0","mode":3,"time":"2024-07-09T11:41:56.248Z","leapseconds":18,"ept":0.005,"lat":52.315727296,"lon":10.564529336,"altHAE":134.7538,"altMSL":90.8575,"alt":90.8575,"epx":14.966,"epy":38.170,"epv":29.210,"track":281.6767,"magtrack":284.8970,"magvar":3.2,"speed":2.230,"climb":0.018,"eps":307.82,"epc":235.56,"ecefx":3841067.24,"ecefy":716375.27,"ecefz":5024462.46,"ecefvx":0.06,"ecefvy":-2.21,"ecefvz":0.29,"ecefpAcc":2.92,"ecefvAcc":0.34,"velN":0.451,"velE":-2.184,"velD":-0.018,"geoidSep":43.896,"eph":17.480,"sep":29.830}
{"class":"SKY","device":"/dev/ttyACM0","time":"2024-07-09T11:41:56.248Z","gdop":1.76,"hdop":0.92,"pdop":1.57,"tdop":0.79,"xdop":1.00,"ydop":2.54,"vdop":1.27,"nSat":13,"uSat":9,"satellites":[{"PRN":2,"gnssid":0,"svid":2,"az":279.0,"el":86.0,"ss":48.0,"used":true,"health":1},{"PRN":15,"gnssid":0,"svid":15,"az":0.0,"el":-9.0,"ss":0.0,"used":false,"health":1},{"PRN":28,"gnssid":0,"svid":28,"az":99.0,"el":7.0,"ss":0.0,"used":false,"health":1},{"PRN":33,"gnssid":1,"svid":120,"az":0.0,"el":-9.0,"ss":0.0,"used":false,"health":1},{"PRN":8,"gnssid":0,"svid":8,"az":176.0,"el":24.0,"ss":42.0,"used":true,"health":1},{"PRN":17,"gnssid":0,"svid":17,"az":313.0,"el":26.0,"ss":43.0,"used":true,"health":1},{"PRN":14,"gnssid":0,"svid":14,"az":277.0,"el":16.0,"ss":37.0,"used":true,"health":1},{"PRN":3,"gnssid":0,"svid":3,"az":241.0,"el":42.0,"ss":47.0,"used":true,"health":1},{"PRN":32,"gnssid":0,"svid":32,"az":58.0,"el":36.0,"ss":48.0,"used":true,"health":1},{"PRN":10,"gnssid":0,"svid":10,"az":62.0,"el":10.0,"ss":39.0,"used":true,"health":1},{"PRN":21,"gnssid":0,"svid":21,"az":121.0,"el":75.0,"ss":47.0,"used":true,"health":1},{"PRN":22,"gnssid":0,"svid":22,"az":300.0,"el":19.0,"ss":40.0,"used":true,"health":1},{"PRN":19,"gnssid":0,"svid":19,"az":324.0,"el":3.0,"ss":33.0,"used":false,"health":1}]}
{"class":"TPV","device":"/dev/ttyACM0","mode":3,"time":"2024-07-09T11:41:56.500Z","leapseconds":18,"ept":0.005,"lat":52.315728435,"lon":10.564520804,"altHAE":134.7570,"altMSL":90.8607,"alt":90.8607,"epx":14.966,"epy":38.170,"epv":29.210,"track":282.1112,"magtrack":285.3314,"magvar":3.2,"speed":2.372,"climb":0.020,"eps":0.34,"epc":231.83,"ecefx":3841067.25,"ecefy":716374.68,"ecefz":5024462.54,"ecefvx":0.05,"ecefvy":-2.35,"ecefvz":0.32,"ecefpAcc":2.92,"ecefvAcc":0.34,"velN":0.498,"velE":-2.319,"velD":-0.020,"geoidSep":43.896,"eph":17.480,"sep":29.830}
{"class":"SKY","device":"/dev/ttyACM0","time":"2024-07-09T11:41:56.248Z","gdop":1.76,"hdop":0.92,"pdop":1.57,"tdop":0.79,"xdop":1.00,"ydop":2.54,"vdop":1.27,"uSat":6}
{"class":"SKY","device":"/dev/ttyACM0","time":"2024-07-09T11:41:56.248Z","gdop":1.76,"hdop":0.92,"pdop":1.57,"tdop":0.79,"xdop":1.00,"ydop":2.54,"vdop":1.27,"uSat":6}
{"class":"TPV","device":"/dev/ttyACM0","mode":3,"time":"2024-07-09T11:41:56.500Z","leapseconds":18,"ept":0.005,"lat":52.315728435,"lon":10.564520804,"altHAE":134.7570,"altMSL":90.8607,"alt":90.8607,"epx":14.966,"epy":38.170,"epv":29.210,"track":282.1112,"magtrack":285.3314,"magvar":3.2,"speed":2.372,"climb":0.020,"eps":302.93,"epc":231.83,"ecefx":3841067.25,"ecefy":716374.68,"ecefz":5024462.54,"ecefvx":0.05,"ecefvy":-2.35,"ecefvz":0.32,"ecefpAcc":2.92,"ecefvAcc":0.34,"velN":0.498,"velE":-2.319,"velD":-0.020,"geoidSep":43.896,"eph":17.480,"sep":29.830}
{"class":"SKY","device":"/dev/ttyACM0","time":"2024-07-09T11:41:56.500Z","gdop":1.76,"hdop":0.92,"pdop":1.57,"tdop":0.79,"xdop":1.00,"ydop":2.54,"vdop":1.27,"nSat":13,"uSat":9,"satellites":[{"PRN":2,"gnssid":0,"svid":2,"az":279.0,"el":86.0,"ss":48.0,"used":true,"health":1},{"PRN":15,"gnssid":0,"svid":15,"az":0.0,"el":-9.0,"ss":0.0,"used":false,"health":1},{"PRN":28,"gnssid":0,"svid":28,"az":99.0,"el":7.0,"ss":0.0,"used":false,"health":1},{"PRN":33,"gnssid":1,"svid":120,"az":0.0,"el":-9.0,"ss":0.0,"used":false,"health":1},{"PRN":8,"gnssid":0,"svid":8,"az":176.0,"el":24.0,"ss":37.0,"used":true,"health":1},{"PRN":17,"gnssid":0,"svid":17,"az":313.0,"el":26.0,"ss":43.0,"used":true,"health":1},{"PRN":14,"gnssid":0,"svid":14,"az":277.0,"el":16.0,"ss":38.0,"used":true,"health":1},{"PRN":3,"gnssid":0,"svid":3,"az":241.0,"el":42.0,"ss":47.0,"used":true,"health":1},{"PRN":32,"gnssid":0,"svid":32,"az":58.0,"el":36.0,"ss":47.0,"used":true,"health":1},{"PRN":10,"gnssid":0,"svid":10,"az":62.0,"el":10.0,"ss":40.0,"used":true,"health":1},{"PRN":21,"gnssid":0,"svid":21,"az":121.0,"el":75.0,"ss":47.0,"used":true,"health":1},{"PRN":22,"gnssid":0,"svid":22,"az":300.0,"el":19.0,"ss":39.0,"used":true,"health":1},{"PRN":19,"gnssid":0,"svid":19,"az":324.0,"el":3.0,"ss":31.0,"used":false,"health":1}]}
{"class":"TPV","device":"/dev/ttyACM0","mode":3,"time":"2024-07-09T11:41:56.748Z","leapseconds":18,"ept":0.005,"lat":52.315729464,"lon":10.564512272,"altHAE":134.7443,"altMSL":90.8480,"alt":90.8480,"epx":14.966,"epy":38.170,"epv":29.210,"track":280.0819,"magtrack":283.3022,"magvar":3.2,"speed":2.367,"climb":0.008,"eps":0.43,"epc":235.56,"ecefx":3841067.26,"ecefy":716374.09,"ecefz":5024462.60,"ecefvx":0.11,"ecefvy":-2.35,"ecefvz":0.26,"ecefpAcc":2.92,"ecefvAcc":0.43,"velN":0.414,"velE":-2.330,"velD":-0.008,"geoidSep":43.896,"eph":17.480,"sep":42.940}
{"class":"SKY","device":"/dev/ttyACM0","time":"2024-07-09T11:41:56.500Z","gdop":1.76,"hdop":0.92,"pdop":2.26,"tdop":0.79,"xdop":1.00,"ydop":2.54,"vdop":1.27,"uSat":6}
{"class":"SKY","device":"/dev/ttyACM0","time":"2024-07-09T11:41:56.500Z","gdop":2.57,"hdop":1.56,"pdop":2.26,"tdop":1.21,"xdop":1.00,"ydop":2.54,"vdop":1.64,"uSat":6}
{"class":"TPV","device":"/dev/ttyACM0","mode":3,"time":"2024-07-09T11:41:56.748Z","leapseconds":18,"ept":0.005,"lat":52.315729464,"lon":10.564512272,"altHAE":134.7443,"altMSL":90.8480,"alt":90.8480,"epx":14.966,"epy":38.170,"epv":29.210,"track":280.0819,"magtrack":283.3022,"magvar":3.2,"speed":2.367,"climb":0.008,"eps":307.82,"epc":235.56,"ecefx":3841067.26,"ecefy":716374.09,"ecefz":5024462.60,"ecefvx":0.11,"ecefvy":-2.35,"ecefvz":0.26,"ecefpAcc":2.92,"ecefvAcc":0.43,"velN":0.414,"velE":-2.330,"velD":-0.008,"geoidSep":43.896,"eph":17.480,"sep":42.940}
{"class":"SKY","device":"/dev/ttyACM0","time":"2024-07-09T11:41:56.748Z","gdop":2.57,"hdop":1.56,"pdop":2.26,"tdop":1.21,"xdop":1.00,"ydop":2.54,"vdop":1.64,"nSat":13,"uSat":8,"satellites":[{"PRN":2,"gnssid":0,"svid":2,"az":279.0,"el":86.0,"ss":48.0,"used":true,"health":1},{"PRN":15,"gnssid":0,"svid":15,"az":0.0,"el":-9.0,"ss":0.0,"used":false,"health":1},{"PRN":28,"gnssid":0,"svid":28,"az":99.0,"el":7.0,"ss":0.0,"used":false,"health":1},{"PRN":33,"gnssid":1,"svid":120,"az":0.0,"el":-9.0,"ss":0.0,"used":false,"health":1},{"PRN":8,"gnssid":0,"svid":8,"az":176.0,"el":24.0,"ss":29.0,"used":false,"health":1},{"PRN":17,"gnssid":0,"svid":17,"az":313.0,"el":26.0,"ss":44.0,"used":true,"health":1},{"PRN":14,"gnssid":0,"svid":14,"az":277.0,"el":16.0,"ss":38.0,"used":true,"health":1},{"PRN":3,"gnssid":0,"svid":3,"az":241.0,"el":42.0,"ss":47.0,"used":true,"health":1},{"PRN":32,"gnssid":0,"svid":32,"az":58.0,"el":36.0,"ss":47.0,"used":true,"health":1},{"PRN":10,"gnssid":0,"svid":10,"az":62.0,"el":10.0,"ss":40.0,"used":true,"health":1},{"PRN":21,"gnssid":0,"svid":21,"az":121.0,"el":75.0,"ss":46.0,"used":true,"health":1},{"PRN":22,"gnssid":0,"svid":22,"az":300.0,"el":19.0,"ss":39.0,"used":true,"health":1},{"PRN":19,"gnssid":0,"svid":19,"az":324.0,"el":3.0,"ss":30.0,"used":false,"health":1}]}
{"class":"TPV","device":"/dev/ttyACM0","mode":3,"time":"2024-07-09T11:41:57.000Z","leapseconds":18,"ept":0.005,"lat":52.315730504,"lon":10.564503425,"altHAE":134.7434,"altMSL":90.8471,"alt":90.8471,"epx":14.966,"epy":38.170,"epv":37.720,"track":279.8235,"magtrack":283.0438,"magvar":3.2,"speed":2.399,"climb":0.025,"eps":0.43,"epc":265.59,"ecefx":3841067.28,"ecefy":716373.48,"ecefz":5024462.67,"ecefvx":0.13,"ecefvy":-2.38,"ecefvz":0.27,"ecefpAcc":2.92,"ecefvAcc":0.43,"velN":0.409,"velE":-2.363,"velD":-0.025,"geoidSep":43.896,"eph":29.640,"sep":42.940}
{"class":"SKY","device":"/dev/ttyACM0","time":"2024-07-09T11:41:56.748Z","gdop":2.57,"hdop":1.56,"pdop":2.26,"tdop":1.21,"xdop":1.00,"ydop":2.54,"vdop":1.64,"uSat":6}
{"class":"SKY","device":"/dev/ttyACM0","time":"2024-07-09T11:41:56.748Z","gdop":2.57,"hdop":1.56,"pdop":2.26,"tdop":1.21,"xdop":1.00,"ydop":2.54,"vdop":1.64,"uSat":6}
{"class":"TPV","device":"/dev/ttyACM0","mode":3,"time":"2024-07-09T11:41:57.000Z","leapseconds":18,"ept":0.005,"lat":52.315730504,"lon":10.564503425,"altHAE":134.7434,"altMSL":90.8471,"alt":90.8471,"epx":14.966,"epy":38.170,"epv":37.720,"track":279.8235,"magtrack":283.0438,"magvar":3.2,"speed":2.399,"climb":0.025,"eps":302.93,"epc":265.59,"ecefx":3841067.28,"ecefy":716373.48,"ecefz":5024462.67,"ecefvx":0.13,"ecefvy":-2.38,"ecefvz":0.27,"ecefpAcc":2.92,"ecefvAcc":0.43,"velN":0.409,"velE":-2.363,"velD":-0.025,"geoidSep":43.896,"eph":29.640,"sep":42.940}
{"class":"SKY","device":"/dev/ttyACM0","time":"2024-07-09T11:41:57.000Z","gdop":2.57,"hdop":1.56,"pdop":2.26,"tdop":1.21,"xdop":1.00,"ydop":2.54,"vdop":1.64,"nSat":13,"uSat":8,"satellites":[{"PRN":2,"gnssid":0,"svid":2,"az":279.0,"el":86.0,"ss":48.0,"used":true,"health":1},{"PRN":15,"gnssid":0,"svid":15,"az":0.0,"el":-9.0,"ss":0.0,"used":false,"health":1},{"PRN":28,"gnssid":0,"svid":28,"az":99.0,"el":7.0,"ss":0.0,"used":false,"health":1},{"PRN":33,"gnssid":1,"svid":120,"az":0.0,"el":-9.0,"ss":0.0,"used":false,"health":1},{"PRN":8,"gnssid":0,"svid":8,"az":176.0,"el":24.0,"ss":30.0,"used":false,"health":1},{"PRN":17,"gnssid":0,"svid":17,"az":313.0,"el":26.0,"ss":44.0,"used":true,"health":1},{"PRN":14,"gnssid":0,"svid":14,"az":277.0,"el":16.0,"ss":39.0,"used":true,"health":1},{"PRN":3,"gnssid":0,"svid":3,"az":241.0,"el":42.0,"ss":47.0,"used":true,"health":1},{"PRN":32,"gnssid":0,"svid":32,"az":58.0,"el":36.0,"ss":47.0,"used":true,"health":1},{"PRN":10,"gnssid":0,"svid":10,"az":62.0,"el":10.0,"ss":39.0,"used":true,"health":1},{"PRN":21,"gnssid":0,"svid":21,"az":121.0,"el":75.0,"ss":46.0,"used":true,"health":1},{"PRN":22,"gnssid":0,"svid":22,"az":300.0,"el":19.0,"ss":40.0,"used":true,"health":1},{"PRN":19,"gnssid":0,"svid":19,"az":324.0,"el":3.0,"ss":34.0,"used":false,"health":1}]}
{"class":"TPV","device":"/dev/ttyACM0","mode":3,"time":"2024-07-09T11:41:57.248Z","leapseconds":18,"ept":0.005,"lat":52.315731601,"lon":10.564494749,"altHAE":134.7375,"altMSL":90.8412,"alt":90.8412,"epx":14.966,"epy":38.170,"epv":37.720,"track":280.0074,"magtrack":283.2277,"magvar":3.2,"speed":2.408,"climb":0.018,"eps":0.43,"epc":304.19,"ecefx":3841067.29,"ecefy":716372.88,"ecefz":5024462.74,"ecefvx":0.12,"ecefvy":-2.39,"ecefvz":0.27,"ecefpAcc":2.92,"ecefvAcc":0.43,"velN":0.418,"velE":-2.371,"velD":-0.018,"geoidSep":43.896,"eph":29.640,"sep":42.940}
{"class":"SKY","device":"/dev/ttyACM0","time":"2024-07-09T11:41:57.000Z","gdop":2.57,"hdop":1.56,"pdop":2.26,"tdop":1.21,"xdop":1.00,"ydop":2.54,"vdop":1.64,"uSat":6}
{"class":"SKY","device":"/dev/ttyACM0","time":"2024-07-09T11:41:57.000Z","gdop":2.57,"hdop":1.56,"pdop":2.26,"tdop":1.21,"xdop":1.00,"ydop":2.54,"vdop":1.64,"uSat":6}
{"class":"TPV","device":"/dev/ttyACM0","mode":3,"time":"2024-07-09T11:41:57.248Z","leapseconds":18,"ept":0.005,"lat":52.315731601,"lon":10.564494749,"altHAE":134.7375,"altMSL":90.8412,"alt":90.8412,"epx":14.966,"epy":38.170,"epv":37.720,"track":280.0074,"magtrack":283.2277,"magvar":3.2,"speed":2.408,"climb":0.018,"eps":307.82,"epc":304.19,"ecefx":3841067.29,"ecefy":716372.88,"ecefz":5024462.74,"ecefvx":0.12,"ecefvy":-2.39,"ecefvz":0.27,"ecefpAcc":2.92,"ecefvAcc":0.43,"velN":0.418,"velE":-2.371,"velD":-0.018,"geoidSep":43.896,"eph":29.640,"sep":42.940}
{"class":"SKY","device":"/dev/ttyACM0","time":"2024-07-09T11:41:57.248Z","gdop":2.57,"hdop":1.56,"pdop":2.26,"tdop":1.21,"xdop":1.00,"ydop":2.54,"vdop":1.64,"nSat":13,"uSat":8,"satellites":[{"PRN":2,"gnssid":0,"svid":2,"az":279.0,"el":86.0,"ss":47.0,"used":true,"health":1},{"PRN":15,"gnssid":0,"svid":15,"az":0.0,"el":-9.0,"ss":0.0,"used":false,"health":1},{"PRN":28,"gnssid":0,"svid":28,"az":99.0,"el":7.0,"ss":0.0,"used":false,"health":1},{"PRN":33,"gnssid":1,"svid":120,"az":0.0,"el":-9.0,"ss":0.0,"used":false,"health":1},{"PRN":8,"gnssid":0,"svid":8,"az":176.0,"el":24.0,"ss":30.0,"used":false,"health":1},{"PRN":17,"gnssid":0,"svid":17,"az":313.0,"el":26.0,"ss":44.0,"used":true,"health":1},{"PRN":14,"gnssid":0,"svid":14,"az":277.0,"el":16.0,"ss":39.0,"used":true,"health":1},{"PRN":3,"gnssid":0,"svid":3,"az":241.0,"el":42.0,"ss":47.0,"used":true,"health":1},{"PRN":32,"gnssid":0,"svid":32,"az":58.0,"el":36.0,"ss":47.0,"used":true,"health":1},{"PRN":10,"gnssid":0,"svid":10,"az":62.0,"el":10.0,"ss":40.0,"used":true,"health":1},{"PRN":21,"gnssid":0,"svid":21,"az":121.0,"el":75.0,"ss":47.0,"used":true,"health":1},{"PRN":22,"gnssid":0,"svid":22,"az":300.0,"el":19.0,"ss":40.0,"used":true,"health":1},{"PRN":19,"gnssid":0,"svid":19,"az":324.0,"el":3.0,"ss":35.0,"used":false,"health":1}]}
{"class":"TPV","device":"/dev/ttyACM0","mode":3,"time":"2024-07-09T11:41:57.500Z","leapseconds":18,"ept":0.005,"lat":52.315732571,"lon":10.564485875,"altHAE":134.7426,"altMSL":90.8463,"alt":90.8463,"epx":14.966,"epy":38.170,"epv":37.720,"track":279.9230,"magtrack":283.1433,"magvar":3.2,"speed":2.469,"climb":0.025,"eps":0.43,"epc":299.36,"ecefx":3841067.32,"ecefy":716372.27,"ecefz":5024462.81,"ecefvx":0.13,"ecefvy":-2.45,"ecefvz":0.28,"ecefpAcc":2.92,"ecefvAcc":0.43,"velN":0.426,"velE":-2.432,"velD":-0.025,"geoidSep":43.896,"eph":29.640,"sep":42.940}
{"class":"SKY","device":"/dev/ttyACM0","time":"2024-07-09T11:41:57.248Z","gdop":2.57,"hdop":1.56,"pdop":2.26,"tdop":1.21,"xdop":1.00,"ydop":2.54,"vdop":1.64,"uSat":6}
{"class":"SKY","device":"/dev/ttyACM0","time":"2024-07-09T11:41:57.248Z","gdop":2.57,"hdop":1.56,"pdop":2.26,"tdop":1.21,"xdop":1.00,"ydop":2.54,"vdop":1.64,"uSat":6}
{"class":"TPV","device":"/dev/ttyACM0","mode":3,"time":"2024-07-09T11:41:57.500Z","leapseconds":18,"ept":0.005,"lat":52.315732571,"lon":10.564485875,"altHAE":134.7426,"altMSL":90.8463,"alt":90.8463,"epx":14.966,"epy":38.170,"epv":37.720,"track":279.9230,"magtrack":283.1433,"magvar":3.2,"speed":2.469,"climb":0.025,"eps":302.93,"epc":299.36,"ecefx":3841067.32,"ecefy":716372.27,"ecefz":5024462.81,"ecefvx":0.13,"ecefvy":-2.45,"ecefvz":0.28,"ecefpAcc":2.92,"ecefvAcc":0.43,"velN":0.426,"velE":-2.432,"velD":-0.025,"geoidSep":43.896,"eph":29.640,"sep":42.940}
{"class":"SKY","device":"/dev/ttyACM0","time":"2024-07-09T11:41:57.500Z","gdop":2.57,"hdop":1.56,"pdop":2.26,"tdop":1.21,"xdop":1.00,"ydop":2.54,"vdop":1.64,"nSat":13,"uSat":8,"satellites":[{"PRN":2,"gnssid":0,"svid":2,"az":279.0,"el":86.0,"ss":48.0,"used":true,"health":1},{"PRN":15,"gnssid":0,"svid":15,"az":0.0,"el":-9.0,"ss":0.0,"used":false,"health":1},{"PRN":28,"gnssid":0,"svid":28,"az":99.0,"el":7.0,"ss":0.0,"used":false,"health":1},{"PRN":33,"gnssid":1,"svid":120,"az":0.0,"el":-9.0,"ss":0.0,"used":false,"health":1},{"PRN":8,"gnssid":0,"svid":8,"az":176.0,"el":24.0,"ss":30.0,"used":false,"health":1},{"PRN":17,"gnssid":0,"svid":17,"az":313.0,"el":26.0,"ss":44.0,"used":true,"health":1},{"PRN":14,"gnssid":0,"svid":14,"az":277.0,"el":16.0,"ss":38.0,"used":true,"health":1},{"PRN":3,"gnssid":0,"svid":3,"az":241.0,"el":42.0,"ss":47.0,"used":true,"health":1},{"PRN":32,"gnssid":0,"svid":32,"az":58.0,"el":36.0,"ss":47.0,"used":true,"health":1},{"PRN":10,"gnssid":0,"svid":10,"az":62.0,"el":10.0,"ss":40.0,"used":true,"health":1},{"PRN":21,"gnssid":0,"svid":21,"az":121.0,"el":75.0,"ss":47.0,"used":true,"health":1},{"PRN":22,"gnssid":0,"svid":22,"az":300.0,"el":19.0,"ss":41.0,"used":true,"health":1},{"PRN":19,"gnssid":0,"svid":19,"az":324.0,"el":3.0,"ss":35.0,"used":false,"health":1}]}
{"class":"TPV","device":"/dev/ttyACM0","mode":3,"time":"2024-07-09T11:41:57.748Z","leapseconds":18,"ept":0.005,"lat":52.315733567,"lon":10.564476713,"altHAE":134.7454,"altMSL":90.8491,"alt":90.8491,"epx":14.966,"epy":38.170,"epv":37.720,"track":278.7081,"magtrack":281.9283,"magvar":3.2,"speed":2.550,"climb":0.030,"eps":0.43,"epc":304.19,"ecefx":3841067.35,"ecefy":716371.64,"ecefz":5024462.88,"ecefvx":0.18,"ecefvy":-2.53,"ecefvz":0.26,"ecefpAcc":2.92,"ecefvAcc":0.43,"velN":0.386,"velE":-2.520,"velD":-0.030,"geoidSep":43.896,"eph":29.640,"sep":42.940}
{"class":"SKY","device":"/dev/ttyACM0","time":"2024-07-09T11:41:57.500Z","gdop":2.57,"hdop":1.56,"pdop":2.26,"tdop":1.21,"xdop":1.00,"ydop":2.54,"vdop":1.64,"uSat":6}
{"class":"SKY","device":"/dev/ttyACM0","time":"2024-07-09T11:41:57.500Z","gdop":2.57,"hdop":1.56,"pdop":2.26,"tdop":1.21,"xdop":1.00,"ydop":2.54,"vdop":1.64,"uSat":6}
{"class":"TPV","device":"/dev/ttyACM0","mode":3,"time":"2024-07-09T11:41:57.748Z","leapseconds":18,"ept":0.005,"lat":52.315733567,"lon":10.564476713,"altHAE":134.7454,"altMSL":90.8491,"alt":90.8491,"epx":14.966,"epy":38.170,"epv":37.720,"track":278.7081,"magtrack":281.9283,"magvar":3.2,"speed":2.550,"climb":0.030,"eps":307.82,"epc":304.19,"ecefx":3841067.35,"ecefy":716371.64,"ecefz":5024462.88,"ecefvx":0.18,"ecefvy":-2.53,"ecefvz":0.26,"ecefpAcc":2.92,"ecefvAcc":0.43,"velN":0.386,"velE":-2.520,"velD":-0.030,"geoidSep":43.896,"eph":29.640,"sep":42.940}
{"class":"SKY","device":"/dev/ttyACM0","time":"2024-07-09T11:41:57.748Z","gdop":2.57,"hdop":1.56,"pdop":2.26,"tdop":1.21,"xdop":1.00,"ydop":2.54,"vdop":1.64,"nSat":13,"uSat":8,"satellites":[{"PRN":2,"gnssid":0,"svid":2,"az":279.0,"el":86.0,"ss":48.0,"used":true,"health":1},{"PRN":15,"gnssid":0,"svid":15,"az":0.0,"el":-9.0,"ss":0.0,"used":false,"health":1},{"PRN":28,"gnssid":0,"svid":28,"az":99.0,"el":7.0,"ss":0.0,"used":false,"health":1},{"PRN":33,"gnssid":1,"svid":120,"az":0.0,"el":-9.0,"ss":0.0,"used":false,"health":1},{"PRN":8,"gnssid":0,"svid":8,"az":176.0,"el":24.0,"ss":30.0,"used":false,"health":1},{"PRN":17,"gnssid":0,"svid":17,"az":313.0,"el":26.0,"ss":45.0,"used":true,"health":1},{"PRN":14,"gnssid":0,"svid":14,"az":277.0,"el":16.0,"ss":38.0,"used":true,"health":1},{"PRN":3,"gnssid":0,"svid":3,"az":241.0,"el":42.0,"ss":47.0,"used":true,"health":1},{"PRN":32,"gnssid":0,"svid":32,"az":58.0,"el":36.0,"ss":47.0,"used":true,"health":1},{"PRN":10,"gnssid":0,"svid":10,"az":62.0,"el":10.0,"ss":41.0,"used":true,"health":1},{"PRN":21,"gnssid":0,"svid":21,"az":121.0,"el":75.0,"ss":47.0,"used":true,"health":1},{"PRN":22,"gnssid":0,"svid":22,"az":300.0,"el":19.0,"ss":41.0,"used":true,"health":1},{"PRN":19,"gnssid":0,"svid":19,"az":324.0,"el":3.0,"ss":38.0,"used":false,"health":1}]}
{"class":"TPV","device":"/dev/ttyACM0","mode":3,"time":"2024-07-09T11:41:58.000Z","leapseconds":18,"ept":0.005,"lat":52.315734588,"lon":10.564467092,"altHAE":134.7588,"altMSL":90.8625,"alt":90.8625,"epx":14.966,"epy":38.170,"epv":37.720,"track":279.2669,"magtrack":282.4871,"magvar":3.2,"speed":2.631,"climb":0.039,"eps":0.43,"epc":299.36,"ecefx":3841067.39,"ecefy":716370.98,"ecefz":5024462.96,"ecefvx":0.17,"ecefvy":-2.61,"ecefvz":0.29,"ecefpAcc":2.92,"ecefvAcc":0.43,"velN":0.424,"velE":-2.597,"velD":-0.039,"geoidSep":43.896,"eph":29.640,"sep":42.940}
{"class":"SKY","device":"/dev/ttyACM0","time":"2024-07-09T11:41:57.748Z","gdop":2.57,"hdop":1.56,"pdop":2.26,"tdop":1.21,"xdop":1.00,"ydop":2.54,"vdop":1.64,"uSat":6}
{"class":"SKY","device":"/dev/ttyACM0","time":"2024-07-09T11:41:57.748Z","gdop":2.57,"hdop":1.56,"pdop":2.26,"tdop":1.21,"xdop":1.00,"ydop":2.54,"vdop":1.64,"uSat":6}
{"class":"TPV","device":"/dev/ttyACM0","mode":3,"time":"2024-07-09T11:41:58.000Z","leapseconds":18,"ept":0.005,"lat":52.315734588,"lon":10.564467092,"altHAE":134.7588,"altMSL":90.8625,"alt":90.8625,"epx":14.966,"epy":38.170,"epv":37.720,"track":279.2669,"magtrack":282.4871,"magvar":3.2,"speed":2.631,"climb":0.039,"eps":302.93,"epc":299.36,"ecefx":3841067.39,"ecefy":716370.98,"ecefz":5024462.96,"ecefvx":0.17,"ecefvy":-2.61,"ecefvz":0.29,"ecefpAcc":2.92,"ecefvAcc":0.43,"velN":0.424,"velE":-2.597,"velD":-0.039,"geoidSep":43.896,"eph":29.640,"sep":42.940}
{"class":"SKY","device":"/dev/ttyACM0","time":"2024-07-09T11:41:58.000Z","gdop":2.57,"hdop":1.56,"pdop":2.26,"tdop":1.21,"xdop":1.00,"ydop":2.54,"vdop":1.64,"nSat":13,"uSat":8,"satellites":[{"PRN":2,"gnssid":0,"svid":2,"az":279.0,"el":86.0,"ss":48.0,"used":true,"health":1},{"PRN":15,"gnssid":0,"svid":15,"az":0.0,"el":-9.0,"ss":0.0,"used":false,"health":1},{"PRN":28,"gnssid":0,"svid":28,"az":99.0,"el":7.0,"ss":0.0,"used":false,"health":1},{"PRN":33,"gnssid":1,"svid":120,"az":0.0,"el":-9.0,"ss":0.0,"used":false,"health":1},{"PRN":8,"gnssid":0,"svid":8,"az":176.0,"el":24.0,"ss":29.0,"used":false,"health":1},{"PRN":17,"gnssid":0,"svid":17,"az":313.0,"el":26.0,"ss":44.0,"used":true,"health":1},{"PRN":14,"gnssid":0,"svid":14,"az":277.0,"el":16.0,"ss":38.0,"used":true,"health":1},{"PRN":3,"gnssid":0,"svid":3,"az":241.0,"el":42.0,"ss":47.0,"used":true,"health":1},{"PRN":32,"gnssid":0,"svid":32,"az":58.0,"el":36.0,"ss":48.0,"used":true,"health":1},{"PRN":10,"gnssid":0,"svid":10,"az":62.0,"el":10.0,"ss":40.0,"used":true,"health":1},{"PRN":21,"gnssid":0,"svid":21,"az":121.0,"el":75.0,"ss":47.0,"used":true,"health":1},{"PRN":22,"gnssid":0,"svid":22,"az":300.0,"el":19.0,"ss":41.0,"used":true,"health":1},{"PRN":19,"gnssid":0,"svid":19,"az":324.0,"el":3.0,"ss":39.0,"used":false,"health":1}]}
{"class":"TPV","device":"/dev/ttyACM0","mode":3,"time":"2024-07-09T11:41:58.248Z","leapseconds":18,"ept":0.005,"lat":52.315735483,"lon":10.564457443,"altHAE":134.7703,"altMSL":90.8739,"alt":90.8739,"epx":14.966,"epy":38.170,"epv":37.720,"track":277.7176,"magtrack":280.9379,"magvar":3.2,"speed":2.701,"climb":0.036,"eps":0.43,"epc":304.19,"ecefx":3841067.44,"ecefy":716370.32,"ecefz":5024463.03,"ecefvx":0.23,"ecefvy":-2.68,"ecefvz":0.25,"ecefpAcc":2.93,"ecefvAcc":0.43,"velN":0.363,"velE":-2.677,"velD":-0.036,"geoidSep":43.896,"eph":29.640,"sep":42.940}
{"class":"SKY","device":"/dev/ttyACM0","time":"2024-07-09T11:41:58.000Z","gdop":2.57,"hdop":1.56,"pdop":2.26,"tdop":1.21,"xdop":1.00,"ydop":2.54,"vdop":1.64,"uSat":6}
{"class":"SKY","device":"/dev/ttyACM0","time":"2024-07-09T11:41:58.000Z","gdop":2.57,"hdop":1.56,"pdop":2.26,"tdop":1.21,"xdop":1.00,"ydop":2.54,"vdop":1.64,"uSat":6}
{"class":"TPV","device":"/dev/ttyACM0","mode":3,"time":"2024-07-09T11:41:58.248Z","leapseconds":18,"ept":0.005,"lat":52.315735483,"lon":10.564457443,"altHAE":134.7703,"altMSL":90.8739,"alt":90.8739,"epx":14.966,"epy":38.170,"epv":37.720,"track":277.7176,"magtrack":280.9379,"magvar":3.2,"speed":2.701,"climb":0.036,"eps":307.82,"epc":304.19,"ecefx":3841067.44,"ecefy":716370.32,"ecefz":5024463.03,"ecefvx":0.23,"ecefvy":-2.68,"ecefvz":0.25,"ecefpAcc":2.93,"ecefvAcc":0.43,"velN":0.363,"velE":-2.677,"velD":-0.036,"geoidSep":43.896,"eph":29.640,"sep":42.940}
{"class":"SKY","device":"/dev/ttyACM0","time":"2024-07-09T11:41:58.248Z","gdop":2.57,"hdop":1.56,"pdop":2.26,"tdop":1.21,"xdop":1.00,"ydop":2.54,"vdop":1.64,"nSat":13,"uSat":8,"satellites":[{"PRN":2,"gnssid":0,"svid":2,"az":279.0,"el":86.0,"ss":48.0,"used":true,"health":1},{"PRN":15,"gnssid":0,"svid":15,"az":0.0,"el":-9.0,"ss":0.0,"used":false,"health":1},{"PRN":28,"gnssid":0,"svid":28,"az":99.0,"el":7.0,"ss":0.0,"used":false,"health":1},{"PRN":33,"gnssid":1,"svid":120,"az":0.0,"el":-9.0,"ss":0.0,"used":false,"health":1},{"PRN":8,"gnssid":0,"svid":8,"az":176.0,"el":24.0,"ss":29.0,"used":false,"health":1},{"PRN":17,"gnssid":0,"svid":17,"az":313.0,"el":26.0,"ss":45.0,"used":true,"health":1},{"PRN":14,"gnssid":0,"svid":14,"az":277.0,"el":16.0,"ss":39.0,"used":true,"health":1},{"PRN":3,"gnssid":0,"svid":3,"az":241.0,"el":42.0,"ss":47.0,"used":true,"health":1},{"PRN":32,"gnssid":0,"svid":32,"az":58.0,"el":36.0,"ss":47.0,"used":true,"health":1},{"PRN":10,"gnssid":0,"svid":10,"az":62.0,"el":10.0,"ss":40.0,"used":true,"health":1},{"PRN":21,"gnssid":0,"svid":21,"az":121.0,"el":75.0,"ss":47.0,"used":true,"health":1},{"PRN":22,"gnssid":0,"svid":22,"az":300.0,"el":19.0,"ss":41.0,"used":true,"health":1},{"PRN":19,"gnssid":0,"svid":19,"az":324.0,"el":3.0,"ss":40.0,"used":false,"health":1}]}
{"class":"TPV","device":"/dev/ttyACM0","mode":3,"time":"2024-07-09T11:41:58.500Z","leapseconds":18,"ept":0.005,"lat":52.315736501,"lon":10.564447245,"altHAE":134.7712,"altMSL":90.8749,"alt":90.8749,"epx":14.966,"epy":38.170,"epv":37.720,"track":278.1564,"magtrack":281.3766,"magvar":3.2,"speed":2.851,"climb":0.029,"eps":0.43,"epc":299.36,"ecefx":3841067.48,"ecefy":716369.62,"ecefz":5024463.10,"ecefvx":0.22,"ecefvy":-2.83,"ecefvz":0.27,"ecefpAcc":2.93,"ecefvAcc":0.43,"velN":0.405,"velE":-2.822,"velD":-0.029,"geoidSep":43.896,"eph":29.640,"sep":42.940}
{"class":"SKY","device":"/dev/ttyACM0","time":"2024-07-09T11:41:58.248Z","gdop":2.57,"hdop":1.56,"pdop":2.26,"tdop":1.21,"xdop":1.00,"ydop":2.54,"vdop":1.64,"uSat":6}
{"class":"SKY","device":"/dev/ttyACM0","time":"2024-07-09T11:41:58.248Z","gdop":2.57,"hdop":1.56,"pdop":2.26,"tdop":1.21,"xdop":1.00,"ydop":2.54,"vdop":1.64,"uSat":6}
{"class":"TPV","device":"/dev/ttyACM0","mode":3,"time":"2024-07-09T11:41:58.500Z","leapseconds":18,"ept":0.005,"lat":52.315736501,"lon":10.564447245,"altHAE":134.7712,"altMSL":90.8749,"alt":90.8749,"epx":14.966,"epy":38.170,"epv":37.720,"track":278.1564,"magtrack":281.3766,"magvar":3.2,"speed":2.851,"climb":0.029,"eps":302.93,"epc":299.36,"ecefx":3841067.48,"ecefy":716369.62,"ecefz":5024463.10,"ecefvx":0.22,"ecefvy":-2.83,"ecefvz":0.27,"ecefpAcc":2.93,"ecefvAcc":0.43,"velN":0.405,"velE":-2.822,"velD":-0.029,"geoidSep":43.896,"eph":29.640,"sep":42.940}
{"class":"SKY","device":"/dev/ttyACM0","time":"2024-07-09T11:41:58.500Z","gdop":2.57,"hdop":1.56,"pdop":2.26,"tdop":1.21,"xdop":1.00,"ydop":2.54,"vdop":1.64,"nSat":13,"uSat":8,"satellites":[{"PRN":2,"gnssid":0,"svid":2,"az":279.0,"el":86.0,"ss":48.0,"used":true,"health":1},{"PRN":15,"gnssid":0,"svid":15,"az":0.0,"el":-9.0,"ss":0.0,"used":false,"health":1},{"PRN":28,"gnssid":0,"svid":28,"az":99.0,"el":7.0,"ss":0.0,"used":false,"health":1},{"PRN":33,"gnssid":1,"svid":120,"az":0.0,"el":-9.0,"ss":0.0,"used":false,"health":1},{"PRN":8,"gnssid":0,"svid":8,"az":176.0,"el":24.0,"ss":29.0,"used":false,"health":1},{"PRN":17,"gnssid":0,"svid":17,"az":313.0,"el":26.0,"ss":45.0,"used":true,"health":1},{"PRN":14,"gnssid":0,"svid":14,"az":277.0,"el":16.0,"ss":39.0,"used":true,"health":1},{"PRN":3,"gnssid":0,"svid":3,"az":241.0,"el":42.0,"ss":47.0,"used":true,"health":1},{"PRN":32,"gnssid":0,"svid":32,"az":58.0,"el":36.0,"ss":48.0,"used":true,"health":1},{"PRN":10,"gnssid":0,"svid":10,"az":62.0,"el":10.0,"ss":40.0,"used":true,"health":1},{"PRN":21,"gnssid":0,"svid":21,"az":121.0,"el":75.0,"ss":47.0,"used":true,"health":1},{"PRN":22,"gnssid":0,"svid":22,"az":300.0,"el":19.0,"ss":41.0,"used":true,"health":1},{"PRN":19,"gnssid":0,"svid":19,"az":324.0,"el":3.0,"ss":40.0,"used":false,"health":1}]}
{"class":"TPV","device":"/dev/ttyACM0","mode":3,"time":"2024-07-09T11:41:58.748Z","leapseconds":18,"ept":0.005,"lat":52.315737528,"lon":10.564436561,"altHAE":134.7967,"altMSL":90.9004,"alt":90.9004,"epx":14.966,"epy":38.170,"epv":37.720,"track":278.2453,"magtrack":281.4656,"magvar":3.2,"speed":2.963,"climb":0.038,"eps":0.43,"epc":304.19,"ecefx":3841067.54,"ecefy":716368.89,"ecefz":5024463.19,"ecefvx":0.23,"ecefvy":-2.94,"ecefvz":0.29,"ecefpAcc":2.93,"ecefvAcc":0.43,"velN":0.425,"velE":-2.932,"velD":-0.038,"geoidSep":43.896,"eph":29.640,"sep":43.130}
{"class":"SKY","device":"/dev/ttyACM0","time":"2024-07-09T11:41:58.500Z","gdop":2.57,"hdop":1.56,"pdop":2.27,"tdop":1.21,"xdop":1.00,"ydop":2.54,"vdop":1.64,"uSat":6}
{"class":"SKY","device":"/dev/ttyACM0","time":"2024-07-09T11:41:58.500Z","gdop":2.57,"hdop":1.56,"pdop":2.27,"tdop":1.21,"xdop":1.00,"ydop":2.54,"vdop":1.64,"uSat":6}
{"class":"TPV","device":"/dev/ttyACM0","mode":3,"time":"2024-07-09T11:41:58.748Z","leapseconds":18,"ept":0.005,"lat":52.315737528,"lon":10.564436561,"altHAE":134.7967,"altMSL":90.9004,"alt":90.9004,"epx":14.966,"epy":38.170,"epv":37.720,"track":278.2453,"magtrack":281.4656,"magvar":3.2,"speed":2.963,"climb":0.038,"eps":307.82,"epc":304.19,"ecefx":3841067.54,"ecefy":716368.89,"ecefz":5024463.19,"ecefvx":0.23,"ecefvy":-2.94,"ecefvz":0.29,"ecefpAcc":2.93,"ecefvAcc":0.43,"velN":0.425,"velE":-2.932,"velD":-0.038,"geoidSep":43.896,"eph":29.640,"sep":43.130}
{"class":"SKY","device":"/dev/ttyACM0","time":"2024-07-09T11:41:58.748Z","gdop":2.57,"hdop":1.56,"pdop":2.27,"tdop":1.21,"xdop":1.00,"ydop":2.54,"vdop":1.64,"nSat":13,"uSat":8,"satellites":[{"PRN":2,"gnssid":0,"svid":2,"az":279.0,"el":86.0,"ss":48.0,"used":true,"health":1},{"PRN":15,"gnssid":0,"svid":15,"az":0.0,"el":-9.0,"ss":0.0,"used":false,"health":1},{"PRN":28,"gnssid":0,"svid":28,"az":99.0,"el":7.0,"ss":0.0,"used":false,"health":1},{"PRN":33,"gnssid":1,"svid":120,"az":0.0,"el":-9.0,"ss":0.0,"used":false,"health":1},{"PRN":8,"gnssid":0,"svid":8,"az":176.0,"el":24.0,"ss":29.0,"used":false,"health":1},{"PRN":17,"gnssid":0,"svid":17,"az":313.0,"el":26.0,"ss":45.0,"used":true,"health":1},{"PRN":14,"gnssid":0,"svid":14,"az":277.0,"el":16.0,"ss":40.0,"used":true,"health":1},{"PRN":3,"gnssid":0,"svid":3,"az":241.0,"el":42.0,"ss":47.0,"used":true,"health":1},{"PRN":32,"gnssid":0,"svid":32,"az":58.0,"el":36.0,"ss":48.0,"used":true,"health":1},{"PRN":10,"gnssid":0,"svid":10,"az":62.0,"el":10.0,"ss":41.0,"used":true,"health":1},{"PRN":21,"gnssid":0,"svid":21,"az":121.0,"el":75.0,"ss":47.0,"used":true,"health":1},{"PRN":22,"gnssid":0,"svid":22,"az":300.0,"el":19.0,"ss":41.0,"used":true,"health":1},{"PRN":19,"gnssid":0,"svid":19,"az":324.0,"el":3.0,"ss":39.0,"used":false,"health":1}]}
{"class":"TPV","device":"/dev/ttyACM0","mode":3,"time":"2024-07-09T11:41:59.000Z","leapseconds":18,"ept":0.005,"lat":52.315738567,"lon":10.564425326,"altHAE":134.7958,"altMSL":90.8995,"alt":90.8995,"epx":14.966,"epy":38.170,"epv":37.720,"track":277.8409,"magtrack":281.0612,"magvar":3.2,"speed":3.073,"climb":0.030,"eps":0.42,"epc":299.36,"ecefx":3841067.59,"ecefy":716368.12,"ecefz":5024463.26,"ecefvx":0.25,"ecefvy":-3.05,"ecefvz":0.28,"ecefpAcc":2.94,"ecefvAcc":0.42,"velN":0.419,"velE":-3.044,"velD":-0.030,"geoidSep":43.896,"eph":29.640,"sep":42.940}
{"class":"SKY","device":"/dev/ttyACM0","time":"2024-07-09T11:41:58.748Z","gdop":2.57,"hdop":1.56,"pdop":2.26,"tdop":1.21,"xdop":1.00,"ydop":2.54,"vdop":1.64,"uSat":6}
{"class":"SKY","device":"/dev/ttyACM0","time":"2024-07-09T11:41:58.748Z","gdop":2.57,"hdop":1.56,"pdop":2.26,"tdop":1.21,"xdop":1.00,"ydop":2.54,"vdop":1.64,"uSat":6}
{"class":"TPV","device":"/dev/ttyACM0","mode":3,"time":"2024-07-09T11:41:59.000Z","leapseconds":18,"ept":0.005,"lat":52.315738567,"lon":10.564425326,"altHAE":134.7958,"altMSL":90.8995,"alt":90.8995,"epx":14.966,"epy":38.170,"epv":37.720,"track":277.8409,"magtrack":281.0612,"magvar":3.2,"speed":3.073,"climb":0.030,"eps":302.93,"epc":299.36,"ecefx":3841067.59,"ecefy":716368.12,"ecefz":5024463.26,"ecefvx":0.25,"ecefvy":-3.05,"ecefvz":0.28,"ecefpAcc":2.94,"ecefvAcc":0.42,"velN":0.419,"velE":-3.044,"velD":-0.030,"geoidSep":43.896,"eph":29.640,"sep":42.940}
{"class":"SKY","device":"/dev/ttyACM0","time":"2024-07-09T11:41:59.000Z","gdop":2.57,"hdop":1.56,"pdop":2.26,"tdop":1.21,"xdop":1.00,"ydop":2.54,"vdop":1.64,"nSat":13,"uSat":8,"satellites":[{"PRN":2,"gnssid":0,"svid":2,"az":279.0,"el":86.0,"ss":48.0,"used":true,"health":1},{"PRN":15,"gnssid":0,"svid":15,"az":0.0,"el":-9.0,"ss":0.0,"used":false,"health":1},{"PRN":28,"gnssid":0,"svid":28,"az":99.0,"el":7.0,"ss":0.0,"used":false,"health":1},{"PRN":33,"gnssid":1,"svid":120,"az":0.0,"el":-9.0,"ss":0.0,"used":false,"health":1},{"PRN":8,"gnssid":0,"svid":8,"az":176.0,"el":24.0,"ss":29.0,"used":false,"health":1},{"PRN":17,"gnssid":0,"svid":17,"az":313.0,"el":26.0,"ss":45.0,"used":true,"health":1},{"PRN":14,"gnssid":0,"svid":14,"az":277.0,"el":16.0,"ss":40.0,"used":true,"health":1},{"PRN":3,"gnssid":0,"svid":3,"az":241.0,"el":42.0,"ss":47.0,"used":true,"health":1},{"PRN":32,"gnssid":0,"svid":32,"az":58.0,"el":36.0,"ss":48.0,"used":true,"health":1},{"PRN":10,"gnssid":0,"svid":10,"az":62.0,"el":10.0,"ss":41.0,"used":true,"health":1},{"PRN":21,"gnssid":0,"svid":21,"az":121.0,"el":75.0,"ss":47.0,"used":true,"health":1},{"PRN":22,"gnssid":0,"svid":22,"az":300.0,"el":19.0,"ss":41.0,"used":true,"health":1},{"PRN":19,"gnssid":0,"svid":19,"az":324.0,"el":3.0,"ss":38.0,"used":false,"health":1}]}
{"class":"TPV","device":"/dev/ttyACM0","mode":3,"time":"2024-07-09T11:41:59.248Z","leapseconds":18,"ept":0.005,"lat":52.315739479,"lon":10.564413894,"altHAE":134.8059,"altMSL":90.9095,"alt":90.9095,"epx":14.966,"epy":38.170,"epv":37.720,"track":276.8361,"magtrack":280.0564,"magvar":3.2,"speed":3.153,"climb":0.013,"eps":0.42,"epc":304.19,"ecefx":3841067.66,"ecefy":716367.34,"ecefz":5024463.33,"ecefvx":0.29,"ecefvy":-3.13,"ecefvz":0.24,"ecefpAcc":2.94,"ecefvAcc":0.42,"velN":0.375,"velE":-3.130,"velD":-0.013,"geoidSep":43.896,"eph":29.640,"sep":42.940}
{"class":"SKY","device":"/dev/ttyACM0","time":"2024-07-09T11:41:59.000Z","gdop":2.57,"hdop":1.56,"pdop":2.26,"tdop":1.21,"xdop":1.00,"ydop":2.54,"vdop":1.64,"uSat":6}
{"class":"SKY","device":"/dev/ttyACM0","time":"2024-07-09T11:41:59.000Z","gdop":2.57,"hdop":1.56,"pdop":2.26,"tdop":1.21,"xdop":1.00,"ydop":2.54,"vdop":1.64,"uSat":6}
{"class":"TPV","device":"/dev/ttyACM0","mode":3,"time":"2024-07-09T11:41:59.248Z","leapseconds":18,"ept":0.005,"lat":52.315739479,"lon":10.564413894,"altHAE":134.8059,"altMSL":90.9095,"alt":90.9095,"epx":14.966,"epy":38.170,"epv":37.720,"track":276.8361,"magtrack":280.0564,"magvar":3.2,"speed":3.153,"climb":0.013,"eps":307.82,"epc":304.19,"ecefx":3841067.66,"ecefy":716367.34,"ecefz":5024463.33,"ecefvx":0.29,"ecefvy":-3.13,"ecefvz":0.24,"ecefpAcc":2.94,"ecefvAcc":0.42,"velN":0.375,"velE":-3.130,"velD":-0.013,"geoidSep":43.896,"eph":29.640,"sep":42.940}
{"class":"SKY","device":"/dev/ttyACM0","time":"2024-07-09T11:41:59.248Z","gdop":2.57,"hdop":1.56,"pdop":2.26,"tdop":1.21,"xdop":1.00,"ydop":2.54,"vdop":1.64,"nSat":13,"uSat":8,"satellites":[{"PRN":2,"gnssid":0,"svid":2,"az":279.0,"el":86.0,"ss":48.0,"used":true,"health":1},{"PRN":15,"gnssid":0,"svid":15,"az":0.0,"el":-9.0,"ss":0.0,"used":false,"health":1},{"PRN":28,"gnssid":0,"svid":28,"az":99.0,"el":7.0,"ss":0.0,"used":false,"health":1},{"PRN":33,"gnssid":1,"svid":120,"az":0.0,"el":-9.0,"ss":0.0,"used":false,"health":1},{"PRN":8,"gnssid":0,"svid":8,"az":176.0,"el":24.0,"ss":29.0,"used":false,"health":1},{"PRN":17,"gnssid":0,"svid":17,"az":313.0,"el":26.0,"ss":46.0,"used":true,"health":1},{"PRN":14,"gnssid":0,"svid":14,"az":277.0,"el":16.0,"ss":40.0,"used":true,"health":1},{"PRN":3,"gnssid":0,"svid":3,"az":241.0,"el":42.0,"ss":47.0,"used":true,"health":1},{"PRN":32,"gnssid":0,"svid":32,"az":58.0,"el":36.0,"ss":48.0,"used":true,"health":1},{"PRN":10,"gnssid":0,"svid":10,"az":62.0,"el":10.0,"ss":42.0,"used":true,"health":1},{"PRN":21,"gnssid":0,"svid":21,"az":121.0,"el":75.0,"ss":47.0,"used":true,"health":1},{"PRN":22,"gnssid":0,"svid":22,"az":300.0,"el":19.0,"ss":40.0,"used":true,"health":1},{"PRN":19,"gnssid":0,"svid":19,"az":324.0,"el":3.0,"ss":37.0,"used":false,"health":1}]}
{"class":"TPV","device":"/dev/ttyACM0","mode":3,"time":"2024-07-09T11:41:59.500Z","leapseconds":18,"ept":0.005,"lat":52.315740485,"lon":10.564402030,"altHAE":134.8205,"altMSL":90.9241,"alt":90.9241,"epx":14.966,"epy":38.170,"epv":37.720,"track":276.9183,"magtrack":280.1385,"magvar":3.2,"speed":3.179,"climb":-0.018,"eps":0.42,"epc":299.36,"ecefx":3841067.73,"ecefy":716366.53,"ecefz":5024463.41,"ecefvx":0.27,"ecefvy":-3.16,"ecefvz":0.22,"ecefpAcc":2.94,"ecefvAcc":0.42,"velN":0.383,"velE":-3.156,"velD":0.018,"geoidSep":43.896,"eph":29.640,"sep":42.940}
{"class":"SKY","device":"/dev/ttyACM0","time":"2024-07-09T11:41:59.248Z","gdop":2.57,"hdop":1.56,"pdop":2.26,"tdop":1.21,"xdop":1.00,"ydop":2.54,"vdop":1.64,"uSat":6}
{"class":"SKY","device":"/dev/ttyACM0","time":"2024-07-09T11:41:59.248Z","gdop":2.57,"hdop":1.56,"pdop":2.26,"tdop":1.21,"xdop":1.00,"ydop":2.54,"vdop":1.64,"uSat":6}
{"class":"TPV","device":"/dev/ttyACM0","mode":3,"time":"2024-07-09T11:41:59.500Z","leapseconds":18,"ept":0.005,"lat":52.315740485,"lon":10.564402030,"altHAE":134.8205,"altMSL":90.9241,"alt":90.9241,"epx":14.966,"epy":38.170,"epv":37.720,"track":276.9183,"magtrack":280.1385,"magvar":3.2,"speed":3.179,"climb":-0.018,"eps":302.93,"epc":299.36,"ecefx":3841067.73,"ecefy":716366.53,"ecefz":5024463.41,"ecefvx":0.27,"ecefvy":-3.16,"ecefvz":0.22,"ecefpAcc":2.94,"ecefvAcc":0.42,"velN":0.383,"velE":-3.156,"velD":0.018,"geoidSep":43.896,"eph":29.640,"sep":42.940}
