{"class":"VERSION","release":"3.25","rev":"3.25","proto_major":3,"proto_minor":15}
{"class":"DEVICES","devices":[{"class":"DEVICE","path":"/dev/ttyACM0","driver":"u-blox","subtype":"SW 5.00    May 11 2006 14:40:17,HW 00040001","subtype1":"M4T1.2  May 11 2006 14:40:17","activated":"2024-07-09T11:34:50.146Z","flags":1,"native":1,"bps":57600,"parity":"N","stopbits":1,"cycle":1.00,"mincycle":0.02}]}
{"class":"WATCH","enable":true,"json":true,"nmea":false,"raw":0,"scaled":false,"timing":false,"split24":false,"pps":false}
{"class":"TPV","device":"/dev/ttyACM0","mode":3,"time":"2024-07-09T11:33:03.251Z","leapseconds":18,"ept":0.005,"lat":52.315946312,"lon":10.561328557,"altHAE":135.1477,"altMSL":91.2488,"alt":91.2488,"epx":14.966,"epy":38.170,"epv":39.330,"track":241.5129,"magtrack":244.7323,"magvar":3.2,"speed":0.013,"climb":0.005,"eps":0.31,"epc":312.14,"ecefx":3841088.53,"ecefy":716157.20,"ecefz":5024477.67,"ecefvx":0.01,"ecefvy":-0.01,"ecefvz":0.00,"ecefpAcc":4.62,"ecefvAcc":0.31,"velN":-0.006,"velE":-0.012,"velD":-0.005,"geoidSep":43.899,"eph":21.280,"sep":38.760}
{"class":"SKY","device":"/dev/ttyACM0","time":"2024-07-09T11:33:02.999Z","gdop":2.37,"hdop":1.12,"pdop":2.04,"tdop":1.20,"xdop":1.00,"ydop":2.54,"vdop":1.71,"uSat":6}
{"class":"SKY","device":"/dev/ttyACM0","time":"2024-07-09T11:33:02.999Z","gdop":2.37,"hdop":1.12,"pdop":2.04,"tdop":1.20,"xdop":1.00,"ydop":2.54,"vdop":1.71,"uSat":6}
{"class":"TPV","device":"/dev/ttyACM0","mode":3,"time":"2024-07-09T11:33:03.251Z","leapseconds":18,"ept":0.005,"lat":52.315946312,"lon":10.561328557,"altHAE":135.1477,"altMSL":91.2488,"alt":91.2488,"epx":14.966,"epy":38.170,"epv":39.330,"track":241.5129,"magtrack":244.7323,"magvar":3.2,"speed":0.013,"climb":0.005,"eps":302.93,"epc":312.14,"ecefx":3841088.53,"ecefy":716157.20,"ecefz":5024477.67,"ecefvx":0.01,"ecefvy":-0.01,"ecefvz":0.00,"ecefpAcc":4.62,"ecefvAcc":0.31,"velN":-0.006,"velE":-0.012,"velD":-0.005,"geoidSep":43.899,"eph":21.280,"sep":38.760}
{"class":"SKY","device":"/dev/ttyACM0","time":"2024-07-09T11:33:03.251Z","gdop":2.37,"hdop":1.12,"pdop":2.04,"tdop":1.20,"xdop":1.00,"ydop":2.54,"vdop":1.71,"nSat":14,"uSat":8,"satellites":[{"PRN":2,"gnssid":0,"svid":2,"az":290.0,"el":82.0,"ss":49.0,"used":true,"health":1},{"PRN":7,"gnssid":0,"svid":7,"az":0.0,"el":-9.0,"ss":0.0,"used":false,"health":1},{"PRN":25,"gnssid":0,"svid":25,"az":0.0,"el":-9.0,"ss":0.0,"used":false,"health":1},{"PRN":4,"gnssid":0,"svid":4,"az":0.0,"el":-9.0,"ss":0.0,"used":false,"health":1},{"PRN":27,"gnssid":0,"svid":27,"az":0.0,"el":-9.0,"ss":0.0,"used":false,"health":1},{"PRN":17,"gnssid":0,"svid":17,"az":314.0,"el":23.0,"ss":44.0,"used":true,"health":1},{"PRN":14,"gnssid":0,"svid":14,"az":281.0,"el":18.0,"ss":36.0,"used":true,"health":1},{"PRN":8,"gnssid":0,"svid":8,"az":177.0,"el":28.0,"ss":43.0,"used":true,"health":1},{"PRN":3,"gnssid":0,"svid":3,"az":238.0,"el":38.0,"ss":45.0,"used":true,"health":1},{"PRN":32,"gnssid":0,"svid":32,"az":61.0,"el":38.0,"ss":49.0,"used":true,"health":1},{"PRN":23,"gnssid":0,"svid":23,"az":0.0,"el":-9.0,"ss":0.0,"used":false,"health":1},{"PRN":21,"gnssid":0,"svid":21,"az":118.0,"el":78.0,"ss":44.0,"used":true,"health":1},{"PRN":22,"gnssid":0,"svid":22,"az":304.0,"el":20.0,"ss":45.0,"used":true,"health":1},{"PRN":10,"gnssid":0,"svid":10,"az":0.0,"el":-9.0,"ss":0.0,"used":false,"health":1}]}
{"class":"TPV","device":"/dev/ttyACM0","mode":3,"time":"2024-07-09T11:33:03.499Z","leapseconds":18,"ept":0.005,"lat":52.315946503,"lon":10.561328674,"altHAE":135.1944,"altMSL":91.2955,"alt":91.2955,"epx":14.966,"epy":38.170,"epv":39.330,"track":7.5156,"magtrack":10.7349,"magvar":3.2,"speed":0.014,"climb":0.002,"eps":0.31,"epc":317.18,"ecefx":3841088.54,"ecefy":716157.21,"ecefz":5024477.72,"ecefvx":-0.01,"ecefvy":0.00,"ecefvz":0.01,"ecefpAcc":4.62,"ecefvAcc":0.31,"velN":0.014,"velE":0.002,"velD":-0.002,"geoidSep":43.899,"eph":21.280,"sep":38.760}
{"class":"SKY","device":"/dev/ttyACM0","time":"2024-07-09T11:33:03.251Z","gdop":2.37,"hdop":1.12,"pdop":2.04,"tdop":1.20,"xdop":1.00,"ydop":2.54,"vdop":1.71,"uSat":6}
{"class":"SKY","device":"/dev/ttyACM0","time":"2024-07-09T11:33:03.251Z","gdop":2.37,"hdop":1.12,"pdop":2.04,"tdop":1.20,"xdop":1.00,"ydop":2.54,"vdop":1.71,"uSat":6}
{"class":"TPV","device":"/dev/ttyACM0","mode":3,"time":"2024-07-09T11:33:03.499Z","leapseconds":18,"ept":0.005,"lat":52.315946503,"lon":10.561328674,"altHAE":135.1944,"altMSL":91.2955,"alt":91.2955,"epx":14.966,"epy":38.170,"epv":39.330,"track":7.5156,"magtrack":10.7349,"magvar":3.2,"speed":0.014,"climb":0.002,"eps":307.82,"epc":317.18,"ecefx":3841088.54,"ecefy":716157.21,"ecefz":5024477.72,"ecefvx":-0.01,"ecefvy":0.00,"ecefvz":0.01,"ecefpAcc":4.62,"ecefvAcc":0.31,"velN":0.014,"velE":0.002,"velD":-0.002,"geoidSep":43.899,"eph":21.280,"sep":38.760}
{"class":"SKY","device":"/dev/ttyACM0","time":"2024-07-09T11:33:03.499Z","gdop":2.37,"hdop":1.12,"pdop":2.04,"tdop":1.20,"xdop":1.00,"ydop":2.54,"vdop":1.71,"nSat":14,"uSat":8,"satellites":[{"PRN":2,"gnssid":0,"svid":2,"az":290.0,"el":82.0,"ss":48.0,"used":true,"health":1},{"PRN":7,"gnssid":0,"svid":7,"az":0.0,"el":-9.0,"ss":0.0,"used":false,"health":1},{"PRN":25,"gnssid":0,"svid":25,"az":0.0,"el":-9.0,"ss":0.0,"used":false,"health":1},{"PRN":4,"gnssid":0,"svid":4,"az":0.0,"el":-9.0,"ss":0.0,"used":false,"health":1},{"PRN":27,"gnssid":0,"svid":27,"az":0.0,"el":-9.0,"ss":0.0,"used":false,"health":1},{"PRN":17,"gnssid":0,"svid":17,"az":314.0,"el":23.0,"ss":44.0,"used":true,"health":1},{"PRN":14,"gnssid":0,"svid":14,"az":281.0,"el":18.0,"ss":36.0,"used":true,"health":1},{"PRN":8,"gnssid":0,"svid":8,"az":177.0,"el":28.0,"ss":43.0,"used":true,"health":1},{"PRN":3,"gnssid":0,"svid":3,"az":238.0,"el":38.0,"ss":45.0,"used":true,"health":1},{"PRN":32,"gnssid":0,"svid":32,"az":61.0,"el":38.0,"ss":49.0,"used":true,"health":1},{"PRN":23,"gnssid":0,"svid":23,"az":0.0,"el":-9.0,"ss":0.0,"used":false,"health":1},{"PRN":21,"gnssid":0,"svid":21,"az":118.0,"el":78.0,"ss":44.0,"used":true,"health":1},{"PRN":22,"gnssid":0,"svid":22,"az":304.0,"el":20.0,"ss":45.0,"used":true,"health":1},{"PRN":10,"gnssid":0,"svid":10,"az":0.0,"el":-9.0,"ss":0.0,"used":false,"health":1}]}
{"class":"TPV","device":"/dev/ttyACM0","mode":3,"time":"2024-07-09T11:33:03.751Z","leapseconds":18,"ept":0.005,"lat":52.315946695,"lon":10.561328791,"altHAE":135.2411,"altMSL":91.3422,"alt":91.3422,"epx":14.966,"epy":38.170,"epv":39.330,"track":127.5745,"magtrack":130.7938,"magvar":3.2,"speed":0.012,"climb":-0.007,"eps":0.31,"epc":312.14,"ecefx":3841088.55,"ecefy":716157.22,"ecefz":5024477.77,"ecefvx":0.00,"ecefvy":0.01,"ecefvz":-0.01,"ecefpAcc":4.61,"ecefvAcc":0.31,"velN":-0.008,"velE":0.010,"velD":0.007,"geoidSep":43.899,"eph":21.280,"sep":38.760}
{"class":"SKY","device":"/dev/ttyACM0","time":"2024-07-09T11:33:03.499Z","gdop":2.37,"hdop":1.12,"pdop":2.04,"tdop":1.20,"xdop":1.00,"ydop":2.54,"vdop":1.71,"uSat":6}
{"class":"SKY","device":"/dev/ttyACM0","time":"2024-07-09T11:33:03.499Z","gdop":2.37,"hdop":1.12,"pdop":2.04,"tdop":1.20,"xdop":1.00,"ydop":2.54,"vdop":1.71,"uSat":6}
{"class":"TPV","device":"/dev/ttyACM0","mode":3,"time":"2024-07-09T11:33:03.751Z","leapseconds":18,"ept":0.005,"lat":52.315946695,"lon":10.561328791,"altHAE":135.2411,"altMSL":91.3422,"alt":91.3422,"epx":14.966,"epy":38.170,"epv":39.330,"track":127.5745,"magtrack":130.7938,"magvar":3.2,"speed":0.012,"climb":-0.007,"eps":302.93,"epc":312.14,"ecefx":3841088.55,"ecefy":716157.22,"ecefz":5024477.77,"ecefvx":0.00,"ecefvy":0.01,"ecefvz":-0.01,"ecefpAcc":4.61,"ecefvAcc":0.31,"velN":-0.008,"velE":0.010,"velD":0.007,"geoidSep":43.899,"eph":21.280,"sep":38.760}
{"class":"SKY","device":"/dev/ttyACM0","time":"2024-07-09T11:33:03.751Z","gdop":2.37,"hdop":1.12,"pdop":2.04,"tdop":1.20,"xdop":1.00,"ydop":2.54,"vdop":1.71,"nSat":14,"uSat":8,"satellites":[{"PRN":2,"gnssid":0,"svid":2,"az":290.0,"el":82.0,"ss":48.0,"used":true,"health":1},{"PRN":7,"gnssid":0,"svid":7,"az":0.0,"el":-9.0,"ss":0.0,"used":false,"health":1},{"PRN":25,"gnssid":0,"svid":25,"az":0.0,"el":-9.0,"ss":0.0,"used":false,"health":1},{"PRN":4,"gnssid":0,"svid":4,"az":0.0,"el":-9.0,"ss":0.0,"used":false,"health":1},{"PRN":27,"gnssid":0,"svid":27,"az":0.0,"el":-9.0,"ss":0.0,"used":false,"health":1},{"PRN":17,"gnssid":0,"svid":17,"az":314.0,"el":23.0,"ss":44.0,"used":true,"health":1},{"PRN":14,"gnssid":0,"svid":14,"az":281.0,"el":18.0,"ss":36.0,"used":true,"health":1},{"PRN":8,"gnssid":0,"svid":8,"az":177.0,"el":28.0,"ss":43.0,"used":true,"health":1},{"PRN":3,"gnssid":0,"svid":3,"az":238.0,"el":38.0,"ss":45.0,"used":true,"health":1},{"PRN":32,"gnssid":0,"svid":32,"az":61.0,"el":38.0,"ss":49.0,"used":true,"health":1},{"PRN":23,"gnssid":0,"svid":23,"az":0.0,"el":-9.0,"ss":0.0,"used":false,"health":1},{"PRN":21,"gnssid":0,"svid":21,"az":118.0,"el":78.0,"ss":44.0,"used":true,"health":1},{"PRN":22,"gnssid":0,"svid":22,"az":304.0,"el":20.0,"ss":45.0,"used":true,"health":1},{"PRN":10,"gnssid":0,"svid":10,"az":0.0,"el":-9.0,"ss":0.0,"used":false,"health":1}]}
{"class":"TPV","device":"/dev/ttyACM0","mode":3,"time":"2024-07-09T11:33:03.999Z","leapseconds":18,"ept":0.005,"lat":52.315946887,"lon":10.561328909,"altHAE":135.2878,"altMSL":91.3889,"alt":91.3889,"epx":14.966,"epy":38.170,"epv":39.330,"track":88.9377,"magtrack":92.1570,"magvar":3.2,"speed":0.012,"climb":-0.013,"eps":0.31,"epc":317.18,"ecefx":3841088.56,"ecefy":716157.23,"ecefz":5024477.82,"ecefvx":-0.01,"ecefvy":0.01,"ecefvz":-0.01,"ecefpAcc":4.61,"ecefvAcc":0.31,"velN":0.000,"velE":0.012,"velD":0.013,"geoidSep":43.899,"eph":21.280,"sep":38.760}
{"class":"SKY","device":"/dev/ttyACM0","time":"2024-07-09T11:33:03.751Z","gdop":2.37,"hdop":1.12,"pdop":2.04,"tdop":1.20,"xdop":1.00,"ydop":2.54,"vdop":1.71,"uSat":6}
{"class":"SKY","device":"/dev/ttyACM0","time":"2024-07-09T11:33:03.751Z","gdop":2.37,"hdop":1.12,"pdop":2.04,"tdop":1.20,"xdop":1.00,"ydop":2.54,"vdop":1.71,"uSat":6}
{"class":"TPV","device":"/dev/ttyACM0","mode":3,"time":"2024-07-09T11:33:03.999Z","leapseconds":18,"ept":0.005,"lat":52.315946887,"lon":10.561328909,"altHAE":135.2878,"altMSL":91.3889,"alt":91.3889,"epx":14.966,"epy":38.170,"epv":39.330,"track":88.9377,"magtrack":92.1570,"magvar":3.2,"speed":0.012,"climb":-0.013,"eps":307.82,"epc":317.18,"ecefx":3841088.56,"ecefy":716157.23,"ecefz":5024477.82,"ecefvx":-0.01,"ecefvy":0.01,"ecefvz":-0.01,"ecefpAcc":4.61,"ecefvAcc":0.31,"velN":0.000,"velE":0.012,"velD":0.013,"geoidSep":43.899,"eph":21.280,"sep":38.760}
{"class":"SKY","device":"/dev/ttyACM0","time":"2024-07-09T11:33:03.999Z","gdop":2.37,"hdop":1.12,"pdop":2.04,"tdop":1.20,"xdop":1.00,"ydop":2.54,"vdop":1.71,"nSat":14,"uSat":8,"satellites":[{"PRN":2,"gnssid":0,"svid":2,"az":290.0,"el":82.0,"ss":48.0,"used":true,"health":1},{"PRN":7,"gnssid":0,"svid":7,"az":0.0,"el":-9.0,"ss":0.0,"used":false,"health":1},{"PRN":25,"gnssid":0,"svid":25,"az":0.0,"el":-9.0,"ss":0.0,"used":false,"health":1},{"PRN":4,"gnssid":0,"svid":4,"az":0.0,"el":-9.0,"ss":0.0,"used":false,"health":1},{"PRN":27,"gnssid":0,"svid":27,"az":0.0,"el":-9.0,"ss":0.0,"used":false,"health":1},{"PRN":17,"gnssid":0,"svid":17,"az":314.0,"el":23.0,"ss":44.0,"used":true,"health":1},{"PRN":14,"gnssid":0,"svid":14,"az":281.0,"el":18.0,"ss":36.0,"used":true,"health":1},{"PRN":8,"gnssid":0,"svid":8,"az":177.0,"el":28.0,"ss":43.0,"used":true,"health":1},{"PRN":3,"gnssid":0,"svid":3,"az":238.0,"el":38.0,"ss":45.0,"used":true,"health":1},{"PRN":32,"gnssid":0,"svid":32,"az":61.0,"el":38.0,"ss":49.0,"used":true,"health":1},{"PRN":23,"gnssid":0,"svid":23,"az":0.0,"el":-9.0,"ss":0.0,"used":false,"health":1},{"PRN":21,"gnssid":0,"svid":21,"az":118.0,"el":78.0,"ss":44.0,"used":true,"health":1},{"PRN":22,"gnssid":0,"svid":22,"az":304.0,"el":20.0,"ss":45.0,"used":true,"health":1},{"PRN":10,"gnssid":0,"svid":10,"az":0.0,"el":-9.0,"ss":0.0,"used":false,"health":1}]}
{"class":"TPV","device":"/dev/ttyACM0","mode":3,"time":"2024-07-09T11:33:04.251Z","leapseconds":18,"ept":0.005,"lat":52.315947079,"lon":10.561329026,"altHAE":135.3345,"altMSL":91.4356,"alt":91.4356,"epx":14.966,"epy":38.170,"epv":39.330,"track":0.0000,"magtrack":3.2193,"magvar":3.2,"speed":0.000,"climb":0.000,"eps":0.30,"epc":312.14,"ecefx":3841088.57,"ecefy":716157.24,"ecefz":5024477.87,"ecefvx":0.00,"ecefvy":0.00,"ecefvz":0.00,"ecefpAcc":4.61,"ecefvAcc":0.30,"velN":0.000,"velE":0.000,"velD":0.000,"geoidSep":43.899,"eph":21.280,"sep":38.760}
{"class":"SKY","device":"/dev/ttyACM0","time":"2024-07-09T11:33:03.999Z","gdop":2.37,"hdop":1.12,"pdop":2.04,"tdop":1.20,"xdop":1.00,"ydop":2.54,"vdop":1.71,"uSat":6}
{"class":"SKY","device":"/dev/ttyACM0","time":"2024-07-09T11:33:03.999Z","gdop":2.37,"hdop":1.12,"pdop":2.04,"tdop":1.20,"xdop":1.00,"ydop":2.54,"vdop":1.71,"uSat":6}
{"class":"TPV","device":"/dev/ttyACM0","mode":3,"time":"2024-07-09T11:33:04.251Z","leapseconds":18,"ept":0.005,"lat":52.315947079,"lon":10.561329026,"altHAE":135.3345,"altMSL":91.4356,"alt":91.4356,"epx":14.966,"epy":38.170,"epv":39.330,"track":0.0000,"magtrack":3.2193,"magvar":3.2,"speed":0.000,"climb":0.000,"eps":302.93,"epc":312.14,"ecefx":3841088.57,"ecefy":716157.24,"ecefz":5024477.87,"ecefvx":0.00,"ecefvy":0.00,"ecefvz":0.00,"ecefpAcc":4.61,"ecefvAcc":0.30,"velN":0.000,"velE":0.000,"velD":0.000,"geoidSep":43.899,"eph":21.280,"sep":38.760}
{"class":"SKY","device":"/dev/ttyACM0","time":"2024-07-09T11:33:04.251Z","gdop":2.37,"hdop":1.12,"pdop":2.04,"tdop":1.20,"xdop":1.00,"ydop":2.54,"vdop":1.71,"nSat":14,"uSat":8,"satellites":[{"PRN":2,"gnssid":0,"svid":2,"az":290.0,"el":82.0,"ss":49.0,"used":true,"health":1},{"PRN":7,"gnssid":0,"svid":7,"az":0.0,"el":-9.0,"ss":0.0,"used":false,"health":1},{"PRN":25,"gnssid":0,"svid":25,"az":0.0,"el":-9.0,"ss":0.0,"used":false,"health":1},{"PRN":4,"gnssid":0,"svid":4,"az":0.0,"el":-9.0,"ss":0.0,"used":false,"health":1},{"PRN":27,"gnssid":0,"svid":27,"az":0.0,"el":-9.0,"ss":0.0,"used":false,"health":1},{"PRN":17,"gnssid":0,"svid":17,"az":314.0,"el":23.0,"ss":44.0,"used":true,"health":1},{"PRN":14,"gnssid":0,"svid":14,"az":281.0,"el":18.0,"ss":37.0,"used":true,"health":1},{"PRN":8,"gnssid":0,"svid":8,"az":177.0,"el":28.0,"ss":43.0,"used":true,"health":1},{"PRN":3,"gnssid":0,"svid":3,"az":238.0,"el":38.0,"ss":45.0,"used":true,"health":1},{"PRN":32,"gnssid":0,"svid":32,"az":61.0,"el":38.0,"ss":49.0,"used":true,"health":1},{"PRN":23,"gnssid":0,"svid":23,"az":0.0,"el":-9.0,"ss":0.0,"used":false,"health":1},{"PRN":21,"gnssid":0,"svid":21,"az":118.0,"el":78.0,"ss":44.0,"used":true,"health":1},{"PRN":22,"gnssid":0,"svid":22,"az":304.0,"el":20.0,"ss":45.0,"used":true,"health":1},{"PRN":10,"gnssid":0,"svid":10,"az":0.0,"el":-9.0,"ss":0.0,"used":false,"health":1}]}
{"class":"TPV","device":"/dev/ttyACM0","mode":3,"time":"2024-07-09T11:33:04.499Z","leapseconds":18,"ept":0.005,"lat":52.315947298,"lon":10.561329026,"altHAE":135.3661,"altMSL":91.4673,"alt":91.4673,"epx":14.966,"epy":38.170,"epv":39.330,"track":324.2920,"magtrack":327.5113,"magvar":3.2,"speed":0.017,"climb":0.015,"eps":0.31,"epc":317.18,"ecefx":3841088.57,"ecefy":716157.24,"ecefz":5024477.91,"ecefvx":0.00,"ecefvy":-0.01,"ecefvz":0.02,"ecefpAcc":4.61,"ecefvAcc":0.31,"velN":0.014,"velE":-0.010,"velD":-0.015,"geoidSep":43.899,"eph":21.280,"sep":38.760}
{"class":"SKY","device":"/dev/ttyACM0","time":"2024-07-09T11:33:04.251Z","gdop":2.37,"hdop":1.12,"pdop":2.04,"tdop":1.20,"xdop":1.00,"ydop":2.54,"vdop":1.71,"uSat":6}
{"class":"SKY","device":"/dev/ttyACM0","time":"2024-07-09T11:33:04.251Z","gdop":2.37,"hdop":1.12,"pdop":2.04,"tdop":1.20,"xdop":1.00,"ydop":2.54,"vdop":1.71,"uSat":6}
{"class":"TPV","device":"/dev/ttyACM0","mode":3,"time":"2024-07-09T11:33:04.499Z","leapseconds":18,"ept":0.005,"lat":52.315947298,"lon":10.561329026,"altHAE":135.3661,"altMSL":91.4673,"alt":91.4673,"epx":14.966,"epy":38.170,"epv":39.330,"track":324.2920,"magtrack":327.5113,"magvar":3.2,"speed":0.017,"climb":0.015,"eps":307.82,"epc":317.18,"ecefx":3841088.57,"ecefy":716157.24,"ecefz":5024477.91,"ecefvx":0.00,"ecefvy":-0.01,"ecefvz":0.02,"ecefpAcc":4.61,"ecefvAcc":0.31,"velN":0.014,"velE":-0.010,"velD":-0.015,"geoidSep":43.899,"eph":21.280,"sep":38.760}
{"class":"SKY","device":"/dev/ttyACM0","time":"2024-07-09T11:33:04.499Z","gdop":2.37,"hdop":1.12,"pdop":2.04,"tdop":1.20,"xdop":1.00,"ydop":2.54,"vdop":1.71,"nSat":14,"uSat":8,"satellites":[{"PRN":2,"gnssid":0,"svid":2,"az":290.0,"el":82.0,"ss":48.0,"used":true,"health":1},{"PRN":7,"gnssid":0,"svid":7,"az":0.0,"el":-9.0,"ss":0.0,"used":false,"health":1},{"PRN":25,"gnssid":0,"svid":25,"az":0.0,"el":-9.0,"ss":0.0,"used":false,"health":1},{"PRN":4,"gnssid":0,"svid":4,"az":0.0,"el":-9.0,"ss":0.0,"used":false,"health":1},{"PRN":27,"gnssid":0,"svid":27,"az":0.0,"el":-9.0,"ss":0.0,"used":false,"health":1},{"PRN":17,"gnssid":0,"svid":17,"az":314.0,"el":23.0,"ss":43.0,"used":true,"health":1},{"PRN":14,"gnssid":0,"svid":14,"az":281.0,"el":18.0,"ss":36.0,"used":true,"health":1},{"PRN":8,"gnssid":0,"svid":8,"az":177.0,"el":28.0,"ss":43.0,"used":true,"health":1},{"PRN":3,"gnssid":0,"svid":3,"az":238.0,"el":38.0,"ss":45.0,"used":true,"health":1},{"PRN":32,"gnssid":0,"svid":32,"az":61.0,"el":38.0,"ss":49.0,"used":true,"health":1},{"PRN":23,"gnssid":0,"svid":23,"az":0.0,"el":-9.0,"ss":0.0,"used":false,"health":1},{"PRN":21,"gnssid":0,"svid":21,"az":118.0,"el":78.0,"ss":44.0,"used":true,"health":1},{"PRN":22,"gnssid":0,"svid":22,"az":304.0,"el":20.0,"ss":45.0,"used":true,"health":1},{"PRN":10,"gnssid":0,"svid":10,"az":0.0,"el":-9.0,"ss":0.0,"used":false,"health":1}]}
{"class":"TPV","device":"/dev/ttyACM0","mode":3,"time":"2024-07-09T11:33:04.751Z","leapseconds":18,"ept":0.005,"lat":52.315947490,"lon":10.561329143,"altHAE":135.4128,"altMSL":91.5140,"alt":91.5140,"epx":14.966,"epy":38.170,"epv":39.330,"track":239.3547,"magtrack":242.5740,"magvar":3.2,"speed":0.016,"climb":0.019,"eps":0.30,"epc":312.14,"ecefx":3841088.58,"ecefy":716157.25,"ecefz":5024477.96,"ecefvx":0.02,"ecefvy":-0.01,"ecefvz":0.01,"ecefpAcc":4.61,"ecefvAcc":0.30,"velN":-0.008,"velE":-0.013,"velD":-0.019,"geoidSep":43.899,"eph":21.280,"sep":38.760}
{"class":"SKY","device":"/dev/ttyACM0","time":"2024-07-09T11:33:04.499Z","gdop":2.37,"hdop":1.12,"pdop":2.04,"tdop":1.20,"xdop":1.00,"ydop":2.54,"vdop":1.71,"uSat":6}
{"class":"SKY","device":"/dev/ttyACM0","time":"2024-07-09T11:33:04.499Z","gdop":2.37,"hdop":1.12,"pdop":2.04,"tdop":1.20,"xdop":1.00,"ydop":2.54,"vdop":1.71,"uSat":6}
{"class":"TPV","device":"/dev/ttyACM0","mode":3,"time":"2024-07-09T11:33:04.751Z","leapseconds":18,"ept":0.005,"lat":52.315947490,"lon":10.561329143,"altHAE":135.4128,"altMSL":91.5140,"alt":91.5140,"epx":14.966,"epy":38.170,"epv":39.330,"track":239.3547,"magtrack":242.5740,"magvar":3.2,"speed":0.016,"climb":0.019,"eps":302.93,"epc":312.14,"ecefx":3841088.58,"ecefy":716157.25,"ecefz":5024477.96,"ecefvx":0.02,"ecefvy":-0.01,"ecefvz":0.01,"ecefpAcc":4.61,"ecefvAcc":0.30,"velN":-0.008,"velE":-0.013,"velD":-0.019,"geoidSep":43.899,"eph":21.280,"sep":38.760}
{"class":"SKY","device":"/dev/ttyACM0","time":"2024-07-09T11:33:04.751Z","gdop":2.37,"hdop":1.12,"pdop":2.04,"tdop":1.20,"xdop":1.00,"ydop":2.54,"vdop":1.71,"nSat":14,"uSat":8,"satellites":[{"PRN":2,"gnssid":0,"svid":2,"az":290.0,"el":82.0,"ss":48.0,"used":true,"health":1},{"PRN":7,"gnssid":0,"svid":7,"az":0.0,"el":-9.0,"ss":0.0,"used":false,"health":1},{"PRN":25,"gnssid":0,"svid":25,"az":0.0,"el":-9.0,"ss":0.0,"used":false,"health":1},{"PRN":4,"gnssid":0,"svid":4,"az":0.0,"el":-9.0,"ss":0.0,"used":false,"health":1},{"PRN":27,"gnssid":0,"svid":27,"az":0.0,"el":-9.0,"ss":0.0,"used":false,"health":1},{"PRN":17,"gnssid":0,"svid":17,"az":314.0,"el":23.0,"ss":43.0,"used":true,"health":1},{"PRN":14,"gnssid":0,"svid":14,"az":281.0,"el":18.0,"ss":35.0,"used":true,"health":1},{"PRN":8,"gnssid":0,"svid":8,"az":177.0,"el":28.0,"ss":43.0,"used":true,"health":1},{"PRN":3,"gnssid":0,"svid":3,"az":238.0,"el":38.0,"ss":44.0,"used":true,"health":1},{"PRN":32,"gnssid":0,"svid":32,"az":61.0,"el":38.0,"ss":49.0,"used":true,"health":1},{"PRN":23,"gnssid":0,"svid":23,"az":0.0,"el":-9.0,"ss":0.0,"used":false,"health":1},{"PRN":21,"gnssid":0,"svid":21,"az":118.0,"el":78.0,"ss":44.0,"used":true,"health":1},{"PRN":22,"gnssid":0,"svid":22,"az":304.0,"el":20.0,"ss":45.0,"used":true,"health":1},{"PRN":10,"gnssid":0,"svid":10,"az":0.0,"el":-9.0,"ss":0.0,"used":false,"health":1}]}
{"class":"TPV","device":"/dev/ttyACM0","mode":3,"time":"2024-07-09T11:33:04.999Z","leapseconds":18,"ept":0.005,"lat":52.315947627,"lon":10.561329260,"altHAE":135.4516,"altMSL":91.5528,"alt":91.5528,"epx":14.966,"epy":38.170,"epv":39.330,"track":227.7169,"magtrack":230.9363,"magvar":3.2,"speed":0.002,"climb":0.014,"eps":0.31,"epc":317.18,"ecefx":3841088.59,"ecefy":716157.26,"ecefz":5024478.00,"ecefvx":0.01,"ecefvy":0.00,"ecefvz":0.01,"ecefpAcc":4.61,"ecefvAcc":0.31,"velN":-0.002,"velE":-0.002,"velD":-0.014,"geoidSep":43.899,"eph":21.280,"sep":38.760}
{"class":"SKY","device":"/dev/ttyACM0","time":"2024-07-09T11:33:04.751Z","gdop":2.37,"hdop":1.12,"pdop":2.04,"tdop":1.20,"xdop":1.00,"ydop":2.54,"vdop":1.71,"uSat":6}
{"class":"SKY","device":"/dev/ttyACM0","time":"2024-07-09T11:33:04.751Z","gdop":2.37,"hdop":1.12,"pdop":2.04,"tdop":1.20,"xdop":1.00,"ydop":2.54,"vdop":1.71,"uSat":6}
{"class":"TPV","device":"/dev/ttyACM0","mode":3,"time":"2024-07-09T11:33:04.999Z","leapseconds":18,"ept":0.005,"lat":52.315947627,"lon":10.561329260,"altHAE":135.4516,"altMSL":91.5528,"alt":91.5528,"epx":14.966,"epy":38.170,"epv":39.330,"track":227.7169,"magtrack":230.9363,"magvar":3.2,"speed":0.002,"climb":0.014,"eps":307.82,"epc":317.18,"ecefx":3841088.59,"ecefy":716157.26,"ecefz":5024478.00,"ecefvx":0.01,"ecefvy":0.00,"ecefvz":0.01,"ecefpAcc":4.61,"ecefvAcc":0.31,"velN":-0.002,"velE":-0.002,"velD":-0.014,"geoidSep":43.899,"eph":21.280,"sep":38.760}
{"class":"SKY","device":"/dev/ttyACM0","time":"2024-07-09T11:33:04.999Z","gdop":2.37,"hdop":1.12,"pdop":2.04,"tdop":1.20,"xdop":1.00,"ydop":2.54,"vdop":1.71,"nSat":14,"uSat":8,"satellites":[{"PRN":2,"gnssid":0,"svid":2,"az":290.0,"el":82.0,"ss":49.0,"used":true,"health":1},{"PRN":7,"gnssid":0,"svid":7,"az":0.0,"el":-9.0,"ss":0.0,"used":false,"health":1},{"PRN":25,"gnssid":0,"svid":25,"az":0.0,"el":-9.0,"ss":0.0,"used":false,"health":1},{"PRN":4,"gnssid":0,"svid":4,"az":0.0,"el":-9.0,"ss":0.0,"used":false,"health":1},{"PRN":27,"gnssid":0,"svid":27,"az":0.0,"el":-9.0,"ss":0.0,"used":false,"health":1},{"PRN":17,"gnssid":0,"svid":17,"az":314.0,"el":23.0,"ss":43.0,"used":true,"health":1},{"PRN":14,"gnssid":0,"svid":14,"az":281.0,"el":18.0,"ss":36.0,"used":true,"health":1},{"PRN":8,"gnssid":0,"svid":8,"az":177.0,"el":28.0,"ss":43.0,"used":true,"health":1},{"PRN":3,"gnssid":0,"svid":3,"az":238.0,"el":38.0,"ss":45.0,"used":true,"health":1},{"PRN":32,"gnssid":0,"svid":32,"az":61.0,"el":38.0,"ss":49.0,"used":true,"health":1},{"PRN":23,"gnssid":0,"svid":23,"az":0.0,"el":-9.0,"ss":0.0,"used":false,"health":1},{"PRN":21,"gnssid":0,"svid":21,"az":118.0,"el":78.0,"ss":44.0,"used":true,"health":1},{"PRN":22,"gnssid":0,"svid":22,"az":304.0,"el":20.0,"ss":45.0,"used":true,"health":1},{"PRN":10,"gnssid":0,"svid":10,"az":0.0,"el":-9.0,"ss":0.0,"used":false,"health":1}]}
{"class":"TPV","device":"/dev/ttyACM0","mode":3,"time":"2024-07-09T11:33:05.251Z","leapseconds":18,"ept":0.005,"lat":52.315947762,"lon":10.561329207,"altHAE":135.5032,"altMSL":91.6044,"alt":91.6044,"epx":14.966,"epy":38.170,"epv":39.330,"track":111.2947,"magtrack":114.5141,"magvar":3.2,"speed":0.009,"climb":0.015,"eps":0.30,"epc":312.14,"ecefx":3841088.61,"ecefy":716157.26,"ecefz":5024478.05,"ecefvx":0.01,"ecefvy":0.01,"ecefvz":0.01,"ecefpAcc":4.61,"ecefvAcc":0.30,"velN":-0.003,"velE":0.008,"velD":-0.015,"geoidSep":43.899,"eph":21.280,"sep":38.760}
{"class":"SKY","device":"/dev/ttyACM0","time":"2024-07-09T11:33:04.999Z","gdop":2.37,"hdop":1.12,"pdop":2.04,"tdop":1.20,"xdop":1.00,"ydop":2.54,"vdop":1.71,"uSat":6}
{"class":"SKY","device":"/dev/ttyACM0","time":"2024-07-09T11:33:04.999Z","gdop":2.37,"hdop":1.12,"pdop":2.04,"tdop":1.20,"xdop":1.00,"ydop":2.54,"vdop":1.71,"uSat":6}
{"class":"TPV","device":"/dev/ttyACM0","mode":3,"time":"2024-07-09T11:33:05.251Z","leapseconds":18,"ept":0.005,"lat":52.315947762,"lon":10.561329207,"altHAE":135.5032,"altMSL":91.6044,"alt":91.6044,"epx":14.966,"epy":38.170,"epv":39.330,"track":111.2947,"magtrack":114.5141,"magvar":3.2,"speed":0.009,"climb":0.015,"eps":302.93,"epc":312.14,"ecefx":3841088.61,"ecefy":716157.26,"ecefz":5024478.05,"ecefvx":0.01,"ecefvy":0.01,"ecefvz":0.01,"ecefpAcc":4.61,"ecefvAcc":0.30,"velN":-0.003,"velE":0.008,"velD":-0.015,"geoidSep":43.899,"eph":21.280,"sep":38.760}
{"class":"SKY","device":"/dev/ttyACM0","time":"2024-07-09T11:33:05.251Z","gdop":2.37,"hdop":1.12,"pdop":2.04,"tdop":1.20,"xdop":1.00,"ydop":2.54,"vdop":1.71,"nSat":14,"uSat":8,"satellites":[{"PRN":2,"gnssid":0,"svid":2,"az":290.0,"el":82.0,"ss":49.0,"used":true,"health":1},{"PRN":7,"gnssid":0,"svid":7,"az":0.0,"el":-9.0,"ss":0.0,"used":false,"health":1},{"PRN":25,"gnssid":0,"svid":25,"az":0.0,"el":-9.0,"ss":0.0,"used":false,"health":1},{"PRN":4,"gnssid":0,"svid":4,"az":0.0,"el":-9.0,"ss":0.0,"used":false,"health":1},{"PRN":27,"gnssid":0,"svid":27,"az":0.0,"el":-9.0,"ss":0.0,"used":false,"health":1},{"PRN":17,"gnssid":0,"svid":17,"az":314.0,"el":23.0,"ss":43.0,"used":true,"health":1},{"PRN":14,"gnssid":0,"svid":14,"az":281.0,"el":18.0,"ss":36.0,"used":true,"health":1},{"PRN":8,"gnssid":0,"svid":8,"az":177.0,"el":28.0,"ss":43.0,"used":true,"health":1},{"PRN":3,"gnssid":0,"svid":3,"az":238.0,"el":38.0,"ss":45.0,"used":true,"health":1},{"PRN":32,"gnssid":0,"svid":32,"az":61.0,"el":38.0,"ss":49.0,"used":true,"health":1},{"PRN":23,"gnssid":0,"svid":23,"az":0.0,"el":-9.0,"ss":0.0,"used":false,"health":1},{"PRN":21,"gnssid":0,"svid":21,"az":118.0,"el":78.0,"ss":44.0,"used":true,"health":1},{"PRN":22,"gnssid":0,"svid":22,"az":304.0,"el":20.0,"ss":45.0,"used":true,"health":1},{"PRN":10,"gnssid":0,"svid":10,"az":0.0,"el":-9.0,"ss":0.0,"used":false,"health":1}]}
{"class":"TPV","device":"/dev/ttyACM0","mode":3,"time":"2024-07-09T11:33:05.499Z","leapseconds":18,"ept":0.005,"lat":52.315947968,"lon":10.561329351,"altHAE":135.5360,"altMSL":91.6371,"alt":91.6371,"epx":14.966,"epy":38.170,"epv":39.330,"track":0.0000,"magtrack":3.2193,"magvar":3.2,"speed":0.000,"climb":0.000,"eps":0.31,"epc":317.18,"ecefx":3841088.61,"ecefy":716157.27,"ecefz":5024478.09,"ecefvx":0.00,"ecefvy":0.00,"ecefvz":0.00,"ecefpAcc":4.61,"ecefvAcc":0.31,"velN":0.000,"velE":0.000,"velD":0.000,"geoidSep":43.899,"eph":21.280,"sep":38.760}
{"class":"SKY","device":"/dev/ttyACM0","time":"2024-07-09T11:33:05.251Z","gdop":2.37,"hdop":1.12,"pdop":2.04,"tdop":1.20,"xdop":1.00,"ydop":2.54,"vdop":1.71,"uSat":6}
{"class":"SKY","device":"/dev/ttyACM0","time":"2024-07-09T11:33:05.251Z","gdop":2.37,"hdop":1.12,"pdop":2.04,"tdop":1.20,"xdop":1.00,"ydop":2.54,"vdop":1.71,"uSat":6}
{"class":"TPV","device":"/dev/ttyACM0","mode":3,"time":"2024-07-09T11:33:05.499Z","leapseconds":18,"ept":0.005,"lat":52.315947968,"lon":10.561329351,"altHAE":135.5360,"altMSL":91.6371,"alt":91.6371,"epx":14.966,"epy":38.170,"epv":39.330,"track":0.0000,"magtrack":3.2193,"magvar":3.2,"speed":0.000,"climb":0.000,"eps":307.82,"epc":317.18,"ecefx":3841088.61,"ecefy":716157.27,"ecefz":5024478.09,"ecefvx":0.00,"ecefvy":0.00,"ecefvz":0.00,"ecefpAcc":4.61,"ecefvAcc":0.31,"velN":0.000,"velE":0.000,"velD":0.000,"geoidSep":43.899,"eph":21.280,"sep":38.760}
{"class":"SKY","device":"/dev/ttyACM0","time":"2024-07-09T11:33:05.499Z","gdop":2.37,"hdop":1.12,"pdop":2.04,"tdop":1.20,"xdop":1.00,"ydop":2.54,"vdop":1.71,"nSat":14,"uSat":8,"satellites":[{"PRN":2,"gnssid":0,"svid":2,"az":290.0,"el":82.0,"ss":48.0,"used":true,"health":1},{"PRN":7,"gnssid":0,"svid":7,"az":0.0,"el":-9.0,"ss":0.0,"used":false,"health":1},{"PRN":25,"gnssid":0,"svid":25,"az":0.0,"el":-9.0,"ss":0.0,"used":false,"health":1},{"PRN":4,"gnssid":0,"svid":4,"az":0.0,"el":-9.0,"ss":0.0,"used":false,"health":1},{"PRN":27,"gnssid":0,"svid":27,"az":0.0,"el":-9.0,"ss":0.0,"used":false,"health":1},{"PRN":17,"gnssid":0,"svid":17,"az":314.0,"el":23.0,"ss":43.0,"used":true,"health":1},{"PRN":14,"gnssid":0,"svid":14,"az":281.0,"el":18.0,"ss":36.0,"used":true,"health":1},{"PRN":8,"gnssid":0,"svid":8,"az":177.0,"el":28.0,"ss":44.0,"used":true,"health":1},{"PRN":3,"gnssid":0,"svid":3,"az":238.0,"el":38.0,"ss":45.0,"used":true,"health":1},{"PRN":32,"gnssid":0,"svid":32,"az":61.0,"el":38.0,"ss":49.0,"used":true,"health":1},{"PRN":23,"gnssid":0,"svid":23,"az":0.0,"el":-9.0,"ss":0.0,"used":false,"health":1},{"PRN":21,"gnssid":0,"svid":21,"az":118.0,"el":78.0,"ss":44.0,"used":true,"health":1},{"PRN":22,"gnssid":0,"svid":22,"az":304.0,"el":20.0,"ss":45.0,"used":true,"health":1},{"PRN":10,"gnssid":0,"svid":10,"az":0.0,"el":-9.0,"ss":0.0,"used":false,"health":1}]}
{"class":"TPV","device":"/dev/ttyACM0","mode":3,"time":"2024-07-09T11:33:05.751Z","leapseconds":18,"ept":0.005,"lat":52.315948173,"lon":10.561329324,"altHAE":135.5815,"altMSL":91.6827,"alt":91.6827,"epx":14.966,"epy":38.170,"epv":39.330,"track":0.0000,"magtrack":3.2193,"magvar":3.2,"speed":0.006,"climb":0.008,"eps":0.30,"epc":312.14,"ecefx":3841088.62,"ecefy":716157.27,"ecefz":5024478.14,"ecefvx":0.00,"ecefvy":0.00,"ecefvz":0.01,"ecefpAcc":4.61,"ecefvAcc":0.30,"velN":0.006,"velE":0.000,"velD":-0.008,"geoidSep":43.899,"eph":21.280,"sep":38.760}
{"class":"SKY","device":"/dev/ttyACM0","time":"2024-07-09T11:33:05.499Z","gdop":2.37,"hdop":1.12,"pdop":2.04,"tdop":1.20,"xdop":1.00,"ydop":2.54,"vdop":1.71,"uSat":6}
{"class":"SKY","device":"/dev/ttyACM0","time":"2024-07-09T11:33:05.499Z","gdop":2.37,"hdop":1.12,"pdop":2.04,"tdop":1.20,"xdop":1.00,"ydop":2.54,"vdop":1.71,"uSat":6}
{"class":"TPV","device":"/dev/ttyACM0","mode":3,"time":"2024-07-09T11:33:05.751Z","leapseconds":18,"ept":0.005,"lat":52.315948173,"lon":10.561329324,"altHAE":135.5815,"altMSL":91.6827,"alt":91.6827,"epx":14.966,"epy":38.170,"epv":39.330,"track":0.0000,"magtrack":3.2193,"magvar":3.2,"speed":0.006,"climb":0.008,"eps":302.93,"epc":312.14,"ecefx":3841088.62,"ecefy":716157.27,"ecefz":5024478.14,"ecefvx":0.00,"ecefvy":0.00,"ecefvz":0.01,"ecefpAcc":4.61,"ecefvAcc":0.30,"velN":0.006,"velE":0.000,"velD":-0.008,"geoidSep":43.899,"eph":21.280,"sep":38.760}
{"class":"SKY","device":"/dev/ttyACM0","time":"2024-07-09T11:33:05.751Z","gdop":2.37,"hdop":1.12,"pdop":2.04,"tdop":1.20,"xdop":1.00,"ydop":2.54,"vdop":1.71,"nSat":14,"uSat":8,"satellites":[{"PRN":2,"gnssid":0,"svid":2,"az":290.0,"el":82.0,"ss":48.0,"used":true,"health":1},{"PRN":7,"gnssid":0,"svid":7,"az":0.0,"el":-9.0,"ss":0.0,"used":false,"health":1},{"PRN":25,"gnssid":0,"svid":25,"az":0.0,"el":-9.0,"ss":0.0,"used":false,"health":1},{"PRN":4,"gnssid":0,"svid":4,"az":0.0,"el":-9.0,"ss":0.0,"used":false,"health":1},{"PRN":27,"gnssid":0,"svid":27,"az":0.0,"el":-9.0,"ss":0.0,"used":false,"health":1},{"PRN":17,"gnssid":0,"svid":17,"az":314.0,"el":23.0,"ss":44.0,"used":true,"health":1},{"PRN":14,"gnssid":0,"svid":14,"az":281.0,"el":18.0,"ss":36.0,"used":true,"health":1},{"PRN":8,"gnssid":0,"svid":8,"az":177.0,"el":28.0,"ss":43.0,"used":true,"health":1},{"PRN":3,"gnssid":0,"svid":3,"az":238.0,"el":38.0,"ss":45.0,"used":true,"health":1},{"PRN":32,"gnssid":0,"svid":32,"az":61.0,"el":38.0,"ss":49.0,"used":true,"health":1},{"PRN":23,"gnssid":0,"svid":23,"az":0.0,"el":-9.0,"ss":0.0,"used":false,"health":1},{"PRN":21,"gnssid":0,"svid":21,"az":118.0,"el":78.0,"ss":44.0,"used":true,"health":1},{"PRN":22,"gnssid":0,"svid":22,"az":304.0,"el":20.0,"ss":45.0,"used":true,"health":1},{"PRN":10,"gnssid":0,"svid":10,"az":0.0,"el":-9.0,"ss":0.0,"used":false,"health":1}]}
{"class":"TPV","device":"/dev/ttyACM0","mode":3,"time":"2024-07-09T11:33:05.999Z","leapseconds":18,"ept":0.005,"lat":52.315948310,"lon":10.561329441,"altHAE":135.6203,"altMSL":91.7215,"alt":91.7215,"epx":14.966,"epy":38.170,"epv":39.330,"track":239.3547,"magtrack":242.5740,"magvar":3.2,"speed":0.016,"climb":0.019,"eps":0.31,"epc":317.18,"ecefx":3841088.63,"ecefy":716157.28,"ecefz":5024478.18,"ecefvx":0.02,"ecefvy":-0.01,"ecefvz":0.01,"ecefpAcc":4.60,"ecefvAcc":0.31,"velN":-0.008,"velE":-0.013,"velD":-0.019,"geoidSep":43.899,"eph":21.280,"sep":38.760}
{"class":"SKY","device":"/dev/ttyACM0","time":"2024-07-09T11:33:05.751Z","gdop":2.37,"hdop":1.12,"pdop":2.04,"tdop":1.20,"xdop":1.00,"ydop":2.54,"vdop":1.71,"uSat":6}
{"class":"SKY","device":"/dev/ttyACM0","time":"2024-07-09T11:33:05.751Z","gdop":2.37,"hdop":1.12,"pdop":2.04,"tdop":1.20,"xdop":1.00,"ydop":2.54,"vdop":1.71,"uSat":6}
{"class":"TPV","device":"/dev/ttyACM0","mode":3,"time":"2024-07-09T11:33:05.999Z","leapseconds":18,"ept":0.005,"lat":52.315948310,"lon":10.561329441,"altHAE":135.6203,"altMSL":91.7215,"alt":91.7215,"epx":14.966,"epy":38.170,"epv":39.330,"track":239.3547,"magtrack":242.5740,"magvar":3.2,"speed":0.016,"climb":0.019,"eps":307.82,"epc":317.18,"ecefx":3841088.63,"ecefy":716157.28,"ecefz":5024478.18,"ecefvx":0.02,"ecefvy":-0.01,"ecefvz":0.01,"ecefpAcc":4.60,"ecefvAcc":0.31,"velN":-0.008,"velE":-0.013,"velD":-0.019,"geoidSep":43.899,"eph":21.280,"sep":38.760}
{"class":"SKY","device":"/dev/ttyACM0","time":"2024-07-09T11:33:05.999Z","gdop":2.37,"hdop":1.12,"pdop":2.04,"tdop":1.20,"xdop":1.00,"ydop":2.54,"vdop":1.71,"nSat":14,"uSat":8,"satellites":[{"PRN":2,"gnssid":0,"svid":2,"az":290.0,"el":82.0,"ss":48.0,"used":true,"health":1},{"PRN":7,"gnssid":0,"svid":7,"az":0.0,"el":-9.0,"ss":0.0,"used":false,"health":1},{"PRN":25,"gnssid":0,"svid":25,"az":0.0,"el":-9.0,"ss":0.0,"used":false,"health":1},{"PRN":4,"gnssid":0,"svid":4,"az":0.0,"el":-9.0,"ss":0.0,"used":false,"health":1},{"PRN":27,"gnssid":0,"svid":27,"az":0.0,"el":-9.0,"ss":0.0,"used":false,"health":1},{"PRN":17,"gnssid":0,"svid":17,"az":314.0,"el":23.0,"ss":44.0,"used":true,"health":1},{"PRN":14,"gnssid":0,"svid":14,"az":281.0,"el":18.0,"ss":36.0,"used":true,"health":1},{"PRN":8,"gnssid":0,"svid":8,"az":177.0,"el":28.0,"ss":43.0,"used":true,"health":1},{"PRN":3,"gnssid":0,"svid":3,"az":238.0,"el":38.0,"ss":45.0,"used":true,"health":1},{"PRN":32,"gnssid":0,"svid":32,"az":61.0,"el":38.0,"ss":49.0,"used":true,"health":1},{"PRN":23,"gnssid":0,"svid":23,"az":0.0,"el":-9.0,"ss":0.0,"used":false,"health":1},{"PRN":21,"gnssid":0,"svid":21,"az":118.0,"el":78.0,"ss":44.0,"used":true,"health":1},{"PRN":22,"gnssid":0,"svid":22,"az":304.0,"el":20.0,"ss":45.0,"used":true,"health":1},{"PRN":10,"gnssid":0,"svid":10,"az":0.0,"el":-9.0,"ss":0.0,"used":false,"health":1}]}
{"class":"TPV","device":"/dev/ttyACM0","mode":3,"time":"2024-07-09T11:33:06.251Z","leapseconds":18,"ept":0.005,"lat":52.315948502,"lon":10.561329558,"altHAE":135.6670,"altMSL":91.7682,"alt":91.7682,"epx":14.966,"epy":38.170,"epv":39.330,"track":0.0000,"magtrack":3.2193,"magvar":3.2,"speed":0.006,"climb":0.008,"eps":0.30,"epc":312.14,"ecefx":3841088.64,"ecefy":716157.29,"ecefz":5024478.23,"ecefvx":0.00,"ecefvy":0.00,"ecefvz":0.01,"ecefpAcc":4.60,"ecefvAcc":0.30,"velN":0.006,"velE":0.000,"velD":-0.008,"geoidSep":43.899,"eph":21.280,"sep":38.760}
{"class":"SKY","device":"/dev/ttyACM0","time":"2024-07-09T11:33:05.999Z","gdop":2.37,"hdop":1.12,"pdop":2.04,"tdop":1.20,"xdop":1.00,"ydop":2.54,"vdop":1.71,"uSat":6}
{"class":"SKY","device":"/dev/ttyACM0","time":"2024-07-09T11:33:05.999Z","gdop":2.37,"hdop":1.12,"pdop":2.04,"tdop":1.20,"xdop":1.00,"ydop":2.54,"vdop":1.71,"uSat":6}
{"class":"TPV","device":"/dev/ttyACM0","mode":3,"time":"2024-07-09T11:33:06.251Z","leapseconds":18,"ept":0.005,"lat":52.315948502,"lon":10.561329558,"altHAE":135.6670,"altMSL":91.7682,"alt":91.7682,"epx":14.966,"epy":38.170,"epv":39.330,"track":0.0000,"magtrack":3.2193,"magvar":3.2,"speed":0.006,"climb":0.008,"eps":302.93,"epc":312.14,"ecefx":3841088.64,"ecefy":716157.29,"ecefz":5024478.23,"ecefvx":0.00,"ecefvy":0.00,"ecefvz":0.01,"ecefpAcc":4.60,"ecefvAcc":0.30,"velN":0.006,"velE":0.000,"velD":-0.008,"geoidSep":43.899,"eph":21.280,"sep":38.760}
{"class":"SKY","device":"/dev/ttyACM0","time":"2024-07-09T11:33:06.251Z","gdop":2.37,"hdop":1.12,"pdop":2.04,"tdop":1.20,"xdop":1.00,"ydop":2.54,"vdop":1.71,"nSat":14,"uSat":8,"satellites":[{"PRN":2,"gnssid":0,"svid":2,"az":290.0,"el":82.0,"ss":48.0,"used":true,"health":1},{"PRN":7,"gnssid":0,"svid":7,"az":0.0,"el":-9.0,"ss":0.0,"used":false,"health":1},{"PRN":25,"gnssid":0,"svid":25,"az":0.0,"el":-9.0,"ss":0.0,"used":false,"health":1},{"PRN":4,"gnssid":0,"svid":4,"az":0.0,"el":-9.0,"ss":0.0,"used":false,"health":1},{"PRN":27,"gnssid":0,"svid":27,"az":0.0,"el":-9.0,"ss":0.0,"used":false,"health":1},{"PRN":17,"gnssid":0,"svid":17,"az":314.0,"el":23.0,"ss":44.0,"used":true,"health":1},{"PRN":14,"gnssid":0,"svid":14,"az":281.0,"el":18.0,"ss":36.0,"used":true,"health":1},{"PRN":8,"gnssid":0,"svid":8,"az":177.0,"el":28.0,"ss":43.0,"used":true,"health":1},{"PRN":3,"gnssid":0,"svid":3,"az":238.0,"el":38.0,"ss":45.0,"used":true,"health":1},{"PRN":32,"gnssid":0,"svid":32,"az":61.0,"el":38.0,"ss":49.0,"used":true,"health":1},{"PRN":23,"gnssid":0,"svid":23,"az":0.0,"el":-9.0,"ss":0.0,"used":false,"health":1},{"PRN":21,"gnssid":0,"svid":21,"az":118.0,"el":78.0,"ss":44.0,"used":true,"health":1},{"PRN":22,"gnssid":0,"svid":22,"az":304.0,"el":20.0,"ss":45.0,"used":true,"health":1},{"PRN":10,"gnssid":0,"svid":10,"az":0.0,"el":-9.0,"ss":0.0,"used":false,"health":1}]}
{"class":"TPV","device":"/dev/ttyACM0","mode":3,"time":"2024-07-09T11:33:06.499Z","leapseconds":18,"ept":0.005,"lat":52.315948652,"lon":10.561329532,"altHAE":135.7047,"altMSL":91.8059,"alt":91.8059,"epx":14.966,"epy":38.170,"epv":39.330,"track":193.2567,"magtrack":196.4761,"magvar":3.2,"speed":0.008,"climb":0.006,"eps":0.31,"epc":317.18,"ecefx":3841088.65,"ecefy":716157.29,"ecefz":5024478.27,"ecefvx":0.01,"ecefvy":0.00,"ecefvz":0.00,"ecefpAcc":4.60,"ecefvAcc":0.31,"velN":-0.008,"velE":-0.002,"velD":-0.006,"geoidSep":43.899,"eph":21.280,"sep":38.760}
{"class":"SKY","device":"/dev/ttyACM0","time":"2024-07-09T11:33:06.251Z","gdop":2.37,"hdop":1.12,"pdop":2.04,"tdop":1.20,"xdop":1.00,"ydop":2.54,"vdop":1.71,"uSat":6}
{"class":"SKY","device":"/dev/ttyACM0","time":"2024-07-09T11:33:06.251Z","gdop":2.37,"hdop":1.12,"pdop":2.04,"tdop":1.20,"xdop":1.00,"ydop":2.54,"vdop":1.71,"uSat":6}
{"class":"TPV","device":"/dev/ttyACM0","mode":3,"time":"2024-07-09T11:33:06.499Z","leapseconds":18,"ept":0.005,"lat":52.315948652,"lon":10.561329532,"altHAE":135.7047,"altMSL":91.8059,"alt":91.8059,"epx":14.966,"epy":38.170,"epv":39.330,"track":193.2567,"magtrack":196.4761,"magvar":3.2,"speed":0.008,"climb":0.006,"eps":307.82,"epc":317.18,"ecefx":3841088.65,"ecefy":716157.29,"ecefz":5024478.27,"ecefvx":0.01,"ecefvy":0.00,"ecefvz":0.00,"ecefpAcc":4.60,"ecefvAcc":0.31,"velN":-0.008,"velE":-0.002,"velD":-0.006,"geoidSep":43.899,"eph":21.280,"sep":38.760}
{"class":"SKY","device":"/dev/ttyACM0","time":"2024-07-09T11:33:06.499Z","gdop":2.37,"hdop":1.12,"pdop":2.04,"tdop":1.20,"xdop":1.00,"ydop":2.54,"vdop":1.71,"nSat":14,"uSat":8,"satellites":[{"PRN":2,"gnssid":0,"svid":2,"az":290.0,"el":82.0,"ss":49.0,"used":true,"health":1},{"PRN":7,"gnssid":0,"svid":7,"az":0.0,"el":-9.0,"ss":0.0,"used":false,"health":1},{"PRN":25,"gnssid":0,"svid":25,"az":0.0,"el":-9.0,"ss":0.0,"used":false,"health":1},{"PRN":4,"gnssid":0,"svid":4,"az":0.0,"el":-9.0,"ss":0.0,"used":false,"health":1},{"PRN":27,"gnssid":0,"svid":27,"az":0.0,"el":-9.0,"ss":0.0,"used":false,"health":1},{"PRN":17,"gnssid":0,"svid":17,"az":314.0,"el":23.0,"ss":44.0,"used":true,"health":1},{"PRN":14,"gnssid":0,"svid":14,"az":281.0,"el":18.0,"ss":36.0,"used":true,"health":1},{"PRN":8,"gnssid":0,"svid":8,"az":177.0,"el":28.0,"ss":44.0,"used":true,"health":1},{"PRN":3,"gnssid":0,"svid":3,"az":238.0,"el":38.0,"ss":45.0,"used":true,"health":1},{"PRN":32,"gnssid":0,"svid":32,"az":61.0,"el":38.0,"ss":49.0,"used":true,"health":1},{"PRN":23,"gnssid":0,"svid":23,"az":0.0,"el":-9.0,"ss":0.0,"used":false,"health":1},{"PRN":21,"gnssid":0,"svid":21,"az":118.0,"el":78.0,"ss":44.0,"used":true,"health":1},{"PRN":22,"gnssid":0,"svid":22,"az":304.0,"el":20.0,"ss":45.0,"used":true,"health":1},{"PRN":10,"gnssid":0,"svid":10,"az":0.0,"el":-9.0,"ss":0.0,"used":false,"health":1}]}
{"class":"TPV","device":"/dev/ttyACM0","mode":3,"time":"2024-07-09T11:33:06.751Z","leapseconds":18,"ept":0.005,"lat":52.315948801,"lon":10.561329505,"altHAE":135.7424,"altMSL":91.8435,"alt":91.8435,"epx":14.966,"epy":38.170,"epv":39.330,"track":98.3936,"magtrack":101.6129,"magvar":3.2,"speed":0.010,"climb":0.001,"eps":0.30,"epc":312.14,"ecefx":3841088.66,"ecefy":716157.29,"ecefz":5024478.31,"ecefvx":0.00,"ecefvy":0.01,"ecefvz":0.00,"ecefpAcc":4.60,"ecefvAcc":0.30,"velN":-0.001,"velE":0.010,"velD":-0.001,"geoidSep":43.899,"eph":21.280,"sep":38.760}
{"class":"SKY","device":"/dev/ttyACM0","time":"2024-07-09T11:33:06.499Z","gdop":2.37,"hdop":1.12,"pdop":2.04,"tdop":1.20,"xdop":1.00,"ydop":2.54,"vdop":1.71,"uSat":6}
{"class":"SKY","device":"/dev/ttyACM0","time":"2024-07-09T11:33:06.499Z","gdop":2.37,"hdop":1.12,"pdop":2.04,"tdop":1.20,"xdop":1.00,"ydop":2.54,"vdop":1.71,"uSat":6}
{"class":"TPV","device":"/dev/ttyACM0","mode":3,"time":"2024-07-09T11:33:06.751Z","leapseconds":18,"ept":0.005,"lat":52.315948801,"lon":10.561329505,"altHAE":135.7424,"altMSL":91.8435,"alt":91.8435,"epx":14.966,"epy":38.170,"epv":39.330,"track":98.3936,"magtrack":101.6129,"magvar":3.2,"speed":0.010,"climb":0.001,"eps":302.93,"epc":312.14,"ecefx":3841088.66,"ecefy":716157.29,"ecefz":5024478.31,"ecefvx":0.00,"ecefvy":0.01,"ecefvz":0.00,"ecefpAcc":4.60,"ecefvAcc":0.30,"velN":-0.001,"velE":0.010,"velD":-0.001,"geoidSep":43.899,"eph":21.280,"sep":38.760}
{"class":"SKY","device":"/dev/ttyACM0","time":"2024-07-09T11:33:06.751Z","gdop":2.37,"hdop":1.12,"pdop":2.04,"tdop":1.20,"xdop":1.00,"ydop":2.54,"vdop":1.71,"nSat":14,"uSat":8,"satellites":[{"PRN":2,"gnssid":0,"svid":2,"az":290.0,"el":82.0,"ss":48.0,"used":true,"health":1},{"PRN":7,"gnssid":0,"svid":7,"az":0.0,"el":-9.0,"ss":0.0,"used":false,"health":1},{"PRN":25,"gnssid":0,"svid":25,"az":0.0,"el":-9.0,"ss":0.0,"used":false,"health":1},{"PRN":4,"gnssid":0,"svid":4,"az":0.0,"el":-9.0,"ss":0.0,"used":false,"health":1},{"PRN":27,"gnssid":0,"svid":27,"az":0.0,"el":-9.0,"ss":0.0,"used":false,"health":1},{"PRN":17,"gnssid":0,"svid":17,"az":314.0,"el":23.0,"ss":44.0,"used":true,"health":1},{"PRN":14,"gnssid":0,"svid":14,"az":281.0,"el":18.0,"ss":35.0,"used":true,"health":1},{"PRN":8,"gnssid":0,"svid":8,"az":177.0,"el":28.0,"ss":44.0,"used":true,"health":1},{"PRN":3,"gnssid":0,"svid":3,"az":238.0,"el":38.0,"ss":45.0,"used":true,"health":1},{"PRN":32,"gnssid":0,"svid":32,"az":61.0,"el":38.0,"ss":49.0,"used":true,"health":1},{"PRN":23,"gnssid":0,"svid":23,"az":0.0,"el":-9.0,"ss":0.0,"used":false,"health":1},{"PRN":21,"gnssid":0,"svid":21,"az":118.0,"el":78.0,"ss":44.0,"used":true,"health":1},{"PRN":22,"gnssid":0,"svid":22,"az":304.0,"el":20.0,"ss":45.0,"used":true,"health":1},{"PRN":10,"gnssid":0,"svid":10,"az":0.0,"el":-9.0,"ss":0.0,"used":false,"health":1}]}
{"class":"TPV","device":"/dev/ttyACM0","mode":3,"time":"2024-07-09T11:33:06.999Z","leapseconds":18,"ept":0.005,"lat":52.315948993,"lon":10.561329622,"altHAE":135.7891,"altMSL":91.8902,"alt":91.8902,"epx":14.966,"epy":38.170,"epv":39.330,"track":307.5745,"magtrack":310.7938,"magvar":3.2,"speed":0.012,"climb":0.007,"eps":0.31,"epc":317.18,"ecefx":3841088.67,"ecefy":716157.30,"ecefz":5024478.36,"ecefvx":0.00,"ecefvy":-0.01,"ecefvz":0.01,"ecefpAcc":4.60,"ecefvAcc":0.31,"velN":0.008,"velE":-0.010,"velD":-0.007,"geoidSep":43.899,"eph":21.280,"sep":38.760}
{"class":"SKY","device":"/dev/ttyACM0","time":"2024-07-09T11:33:06.751Z","gdop":2.37,"hdop":1.12,"pdop":2.04,"tdop":1.20,"xdop":1.00,"ydop":2.54,"vdop":1.71,"uSat":6}
{"class":"SKY","device":"/dev/ttyACM0","time":"2024-07-09T11:33:06.751Z","gdop":2.37,"hdop":1.12,"pdop":2.04,"tdop":1.20,"xdop":1.00,"ydop":2.54,"vdop":1.71,"uSat":6}
{"class":"TPV","device":"/dev/ttyACM0","mode":3,"time":"2024-07-09T11:33:06.999Z","leapseconds":18,"ept":0.005,"lat":52.315948993,"lon":10.561329622,"altHAE":135.7891,"altMSL":91.8902,"alt":91.8902,"epx":14.966,"epy":38.170,"epv":39.330,"track":307.5745,"magtrack":310.7938,"magvar":3.2,"speed":0.012,"climb":0.007,"eps":307.82,"epc":317.18,"ecefx":3841088.67,"ecefy":716157.30,"ecefz":5024478.36,"ecefvx":0.00,"ecefvy":-0.01,"ecefvz":0.01,"ecefpAcc":4.60,"ecefvAcc":0.31,"velN":0.008,"velE":-0.010,"velD":-0.007,"geoidSep":43.899,"eph":21.280,"sep":38.760}
{"class":"SKY","device":"/dev/ttyACM0","time":"2024-07-09T11:33:06.999Z","gdop":2.37,"hdop":1.12,"pdop":2.04,"tdop":1.20,"xdop":1.00,"ydop":2.54,"vdop":1.71,"nSat":14,"uSat":8,"satellites":[{"PRN":2,"gnssid":0,"svid":2,"az":290.0,"el":82.0,"ss":48.0,"used":true,"health":1},{"PRN":7,"gnssid":0,"svid":7,"az":0.0,"el":-9.0,"ss":0.0,"used":false,"health":1},{"PRN":25,"gnssid":0,"svid":25,"az":0.0,"el":-9.0,"ss":0.0,"used":false,"health":1},{"PRN":4,"gnssid":0,"svid":4,"az":0.0,"el":-9.0,"ss":0.0,"used":false,"health":1},{"PRN":27,"gnssid":0,"svid":27,"az":0.0,"el":-9.0,"ss":0.0,"used":false,"health":1},{"PRN":17,"gnssid":0,"svid":17,"az":314.0,"el":23.0,"ss":44.0,"used":true,"health":1},{"PRN":14,"gnssid":0,"svid":14,"az":281.0,"el":18.0,"ss":36.0,"used":true,"health":1},{"PRN":8,"gnssid":0,"svid":8,"az":177.0,"el":28.0,"ss":44.0,"used":true,"health":1},{"PRN":3,"gnssid":0,"svid":3,"az":238.0,"el":38.0,"ss":45.0,"used":true,"health":1},{"PRN":32,"gnssid":0,"svid":32,"az":61.0,"el":38.0,"ss":49.0,"used":true,"health":1},{"PRN":23,"gnssid":0,"svid":23,"az":0.0,"el":-9.0,"ss":0.0,"used":false,"health":1},{"PRN":21,"gnssid":0,"svid":21,"az":118.0,"el":78.0,"ss":44.0,"used":true,"health":1},{"PRN":22,"gnssid":0,"svid":22,"az":304.0,"el":20.0,"ss":45.0,"used":true,"health":1},{"PRN":10,"gnssid":0,"svid":10,"az":0.0,"el":-9.0,"ss":0.0,"used":false,"health":1}]}
{"class":"TPV","device":"/dev/ttyACM0","mode":3,"time":"2024-07-09T11:33:07.251Z","leapseconds":18,"ept":0.005,"lat":52.315949158,"lon":10.561329622,"altHAE":135.8128,"altMSL":91.9140,"alt":91.9140,"epx":14.966,"epy":38.170,"epv":39.330,"track":127.5745,"magtrack":130.7938,"magvar":3.2,"speed":0.012,"climb":-0.007,"eps":0.30,"epc":312.14,"ecefx":3841088.67,"ecefy":716157.30,"ecefz":5024478.39,"ecefvx":0.00,"ecefvy":0.01,"ecefvz":-0.01,"ecefpAcc":4.60,"ecefvAcc":0.30,"velN":-0.008,"velE":0.010,"velD":0.007,"geoidSep":43.899,"eph":21.280,"sep":38.760}
{"class":"SKY","device":"/dev/ttyACM0","time":"2024-07-09T11:33:06.999Z","gdop":2.37,"hdop":1.12,"pdop":2.04,"tdop":1.20,"xdop":1.00,"ydop":2.54,"vdop":1.71,"uSat":6}
{"class":"SKY","device":"/dev/ttyACM0","time":"2024-07-09T11:33:06.999Z","gdop":2.37,"hdop":1.12,"pdop":2.04,"tdop":1.20,"xdop":1.00,"ydop":2.54,"vdop":1.71,"uSat":6}
{"class":"TPV","device":"/dev/ttyACM0","mode":3,"time":"2024-07-09T11:33:07.251Z","leapseconds":18,"ept":0.005,"lat":52.315949158,"lon":10.561329622,"altHAE":135.8128,"altMSL":91.9140,"alt":91.9140,"epx":14.966,"epy":38.170,"epv":39.330,"track":127.5745,"magtrack":130.7938,"magvar":3.2,"speed":0.012,"climb":-0.007,"eps":302.93,"epc":312.14,"ecefx":3841088.67,"ecefy":716157.30,"ecefz":5024478.39,"ecefvx":0.00,"ecefvy":0.01,"ecefvz":-0.01,"ecefpAcc":4.60,"ecefvAcc":0.30,"velN":-0.008,"velE":0.010,"velD":0.007,"geoidSep":43.899,"eph":21.280,"sep":38.760}
{"class":"SKY","device":"/dev/ttyACM0","time":"2024-07-09T11:33:07.251Z","gdop":2.37,"hdop":1.12,"pdop":2.04,"tdop":1.20,"xdop":1.00,"ydop":2.54,"vdop":1.71,"nSat":14,"uSat":8,"satellites":[{"PRN":2,"gnssid":0,"svid":2,"az":290.0,"el":82.0,"ss":48.0,"used":true,"health":1},{"PRN":7,"gnssid":0,"svid":7,"az":0.0,"el":-9.0,"ss":0.0,"used":false,"health":1},{"PRN":25,"gnssid":0,"svid":25,"az":0.0,"el":-9.0,"ss":0.0,"used":false,"health":1},{"PRN":4,"gnssid":0,"svid":4,"az":0.0,"el":-9.0,"ss":0.0,"used":false,"health":1},{"PRN":27,"gnssid":0,"svid":27,"az":0.0,"el":-9.0,"ss":0.0,"used":false,"health":1},{"PRN":17,"gnssid":0,"svid":17,"az":314.0,"el":23.0,"ss":44.0,"used":true,"health":1},{"PRN":14,"gnssid":0,"svid":14,"az":281.0,"el":18.0,"ss":36.0,"used":true,"health":1},{"PRN":8,"gnssid":0,"svid":8,"az":177.0,"el":28.0,"ss":44.0,"used":true,"health":1},{"PRN":3,"gnssid":0,"svid":3,"az":238.0,"el":38.0,"ss":45.0,"used":true,"health":1},{"PRN":32,"gnssid":0,"svid":32,"az":61.0,"el":38.0,"ss":49.0,"used":true,"health":1},{"PRN":23,"gnssid":0,"svid":23,"az":0.0,"el":-9.0,"ss":0.0,"used":false,"health":1},{"PRN":21,"gnssid":0,"svid":21,"az":118.0,"el":78.0,"ss":43.0,"used":true,"health":1},{"PRN":22,"gnssid":0,"svid":22,"az":304.0,"el":20.0,"ss":45.0,"used":true,"health":1},{"PRN":10,"gnssid":0,"svid":10,"az":0.0,"el":-9.0,"ss":0.0,"used":false,"health":1}]}
{"class":"TPV","device":"/dev/ttyACM0","mode":3,"time":"2024-07-09T11:33:07.499Z","leapseconds":18,"ept":0.005,"lat":52.315949363,"lon":10.561329595,"altHAE":135.8584,"altMSL":91.9596,"alt":91.9596,"epx":14.966,"epy":38.170,"epv":39.330,"track":127.5745,"magtrack":130.7938,"magvar":3.2,"speed":0.012,"climb":-0.007,"eps":0.31,"epc":317.18,"ecefx":3841088.68,"ecefy":716157.30,"ecefz":5024478.44,"ecefvx":0.00,"ecefvy":0.01,"ecefvz":-0.01,"ecefpAcc":4.60,"ecefvAcc":0.31,"velN":-0.008,"velE":0.010,"velD":0.007,"geoidSep":43.899,"eph":21.280,"sep":38.760}
{"class":"SKY","device":"/dev/ttyACM0","time":"2024-07-09T11:33:07.251Z","gdop":2.37,"hdop":1.12,"pdop":2.04,"tdop":1.20,"xdop":1.00,"ydop":2.54,"vdop":1.71,"uSat":6}
{"class":"SKY","device":"/dev/ttyACM0","time":"2024-07-09T11:33:07.251Z","gdop":2.37,"hdop":1.12,"pdop":2.04,"tdop":1.20,"xdop":1.00,"ydop":2.54,"vdop":1.71,"uSat":6}
{"class":"TPV","device":"/dev/ttyACM0","mode":3,"time":"2024-07-09T11:33:07.499Z","leapseconds":18,"ept":0.005,"lat":52.315949363,"lon":10.561329595,"altHAE":135.8584,"altMSL":91.9596,"alt":91.9596,"epx":14.966,"epy":38.170,"epv":39.330,"track":127.5745,"magtrack":130.7938,"magvar":3.2,"speed":0.012,"climb":-0.007,"eps":307.82,"epc":317.18,"ecefx":3841088.68,"ecefy":716157.30,"ecefz":5024478.44,"ecefvx":0.00,"ecefvy":0.01,"ecefvz":-0.01,"ecefpAcc":4.60,"ecefvAcc":0.31,"velN":-0.008,"velE":0.010,"velD":0.007,"geoidSep":43.899,"eph":21.280,"sep":38.760}
{"class":"SKY","device":"/dev/ttyACM0","time":"2024-07-09T11:33:07.499Z","gdop":2.37,"hdop":1.12,"pdop":2.04,"tdop":1.20,"xdop":1.00,"ydop":2.54,"vdop":1.71,"nSat":14,"uSat":8,"satellites":[{"PRN":2,"gnssid":0,"svid":2,"az":290.0,"el":82.0,"ss":48.0,"used":true,"health":1},{"PRN":7,"gnssid":0,"svid":7,"az":0.0,"el":-9.0,"ss":0.0,"used":false,"health":1},{"PRN":25,"gnssid":0,"svid":25,"az":0.0,"el":-9.0,"ss":0.0,"used":false,"health":1},{"PRN":4,"gnssid":0,"svid":4,"az":0.0,"el":-9.0,"ss":0.0,"used":false,"health":1},{"PRN":27,"gnssid":0,"svid":27,"az":0.0,"el":-9.0,"ss":0.0,"used":false,"health":1},{"PRN":17,"gnssid":0,"svid":17,"az":314.0,"el":23.0,"ss":44.0,"used":true,"health":1},{"PRN":14,"gnssid":0,"svid":14,"az":281.0,"el":18.0,"ss":36.0,"used":true,"health":1},{"PRN":8,"gnssid":0,"svid":8,"az":177.0,"el":28.0,"ss":43.0,"used":true,"health":1},{"PRN":3,"gnssid":0,"svid":3,"az":238.0,"el":38.0,"ss":45.0,"used":true,"health":1},{"PRN":32,"gnssid":0,"svid":32,"az":61.0,"el":38.0,"ss":49.0,"used":true,"health":1},{"PRN":23,"gnssid":0,"svid":23,"az":0.0,"el":-9.0,"ss":0.0,"used":false,"health":1},{"PRN":21,"gnssid":0,"svid":21,"az":118.0,"el":78.0,"ss":43.0,"used":true,"health":1},{"PRN":22,"gnssid":0,"svid":22,"az":304.0,"el":20.0,"ss":45.0,"used":true,"health":1},{"PRN":10,"gnssid":0,"svid":10,"az":0.0,"el":-9.0,"ss":0.0,"used":false,"health":1}]}
{"class":"TPV","device":"/dev/ttyACM0","mode":3,"time":"2024-07-09T11:33:07.751Z","leapseconds":18,"ept":0.005,"lat":52.315949430,"lon":10.561329686,"altHAE":135.9032,"altMSL":92.0044,"alt":92.0044,"epx":14.966,"epy":38.170,"epv":39.330,"track":257.2115,"magtrack":260.4308,"magvar":3.2,"speed":0.022,"climb":0.004,"eps":0.30,"epc":312.14,"ecefx":3841088.70,"ecefy":716157.31,"ecefz":5024478.48,"ecefvx":0.01,"ecefvy":-0.02,"ecefvz":0.00,"ecefpAcc":4.60,"ecefvAcc":0.30,"velN":-0.005,"velE":-0.021,"velD":-0.004,"geoidSep":43.899,"eph":21.280,"sep":38.760}
{"class":"SKY","device":"/dev/ttyACM0","time":"2024-07-09T11:33:07.499Z","gdop":2.37,"hdop":1.12,"pdop":2.04,"tdop":1.20,"xdop":1.00,"ydop":2.54,"vdop":1.71,"uSat":6}
{"class":"SKY","device":"/dev/ttyACM0","time":"2024-07-09T11:33:07.499Z","gdop":2.37,"hdop":1.12,"pdop":2.04,"tdop":1.20,"xdop":1.00,"ydop":2.54,"vdop":1.71,"uSat":6}
{"class":"TPV","device":"/dev/ttyACM0","mode":3,"time":"2024-07-09T11:33:07.751Z","leapseconds":18,"ept":0.005,"lat":52.315949430,"lon":10.561329686,"altHAE":135.9032,"altMSL":92.0044,"alt":92.0044,"epx":14.966,"epy":38.170,"epv":39.330,"track":257.2115,"magtrack":260.4308,"magvar":3.2,"speed":0.022,"climb":0.004,"eps":302.93,"epc":312.14,"ecefx":3841088.70,"ecefy":716157.31,"ecefz":5024478.48,"ecefvx":0.01,"ecefvy":-0.02,"ecefvz":0.00,"ecefpAcc":4.60,"ecefvAcc":0.30,"velN":-0.005,"velE":-0.021,"velD":-0.004,"geoidSep":43.899,"eph":21.280,"sep":38.760}
{"class":"SKY","device":"/dev/ttyACM0","time":"2024-07-09T11:33:07.751Z","gdop":2.37,"hdop":1.12,"pdop":2.04,"tdop":1.20,"xdop":1.00,"ydop":2.54,"vdop":1.71,"nSat":14,"uSat":8,"satellites":[{"PRN":2,"gnssid":0,"svid":2,"az":290.0,"el":82.0,"ss":48.0,"used":true,"health":1},{"PRN":7,"gnssid":0,"svid":7,"az":0.0,"el":-9.0,"ss":0.0,"used":false,"health":1},{"PRN":25,"gnssid":0,"svid":25,"az":0.0,"el":-9.0,"ss":0.0,"used":false,"health":1},{"PRN":4,"gnssid":0,"svid":4,"az":0.0,"el":-9.0,"ss":0.0,"used":false,"health":1},{"PRN":27,"gnssid":0,"svid":27,"az":0.0,"el":-9.0,"ss":0.0,"used":false,"health":1},{"PRN":17,"gnssid":0,"svid":17,"az":314.0,"el":23.0,"ss":44.0,"used":true,"health":1},{"PRN":14,"gnssid":0,"svid":14,"az":281.0,"el":18.0,"ss":36.0,"used":true,"health":1},{"PRN":8,"gnssid":0,"svid":8,"az":177.0,"el":28.0,"ss":43.0,"used":true,"health":1},{"PRN":3,"gnssid":0,"svid":3,"az":238.0,"el":38.0,"ss":45.0,"used":true,"health":1},{"PRN":32,"gnssid":0,"svid":32,"az":61.0,"el":38.0,"ss":49.0,"used":true,"health":1},{"PRN":23,"gnssid":0,"svid":23,"az":0.0,"el":-9.0,"ss":0.0,"used":false,"health":1},{"PRN":21,"gnssid":0,"svid":21,"az":118.0,"el":78.0,"ss":44.0,"used":true,"health":1},{"PRN":22,"gnssid":0,"svid":22,"az":304.0,"el":20.0,"ss":45.0,"used":true,"health":1},{"PRN":10,"gnssid":0,"svid":10,"az":0.0,"el":-9.0,"ss":0.0,"used":false,"health":1}]}
{"class":"TPV","device":"/dev/ttyACM0","mode":3,"time":"2024-07-09T11:33:07.999Z","leapseconds":18,"ept":0.005,"lat":52.315949634,"lon":10.561329659,"altHAE":135.9487,"altMSL":92.0499,"alt":92.0499,"epx":14.966,"epy":38.170,"epv":39.330,"track":64.6255,"magtrack":67.8449,"magvar":3.2,"speed":0.011,"climb":0.009,"eps":0.31,"epc":317.18,"ecefx":3841088.71,"ecefy":716157.31,"ecefz":5024478.53,"ecefvx":0.00,"ecefvy":0.01,"ecefvz":0.01,"ecefpAcc":4.59,"ecefvAcc":0.31,"velN":0.005,"velE":0.010,"velD":-0.009,"geoidSep":43.899,"eph":21.280,"sep":38.760}
{"class":"SKY","device":"/dev/ttyACM0","time":"2024-07-09T11:33:07.751Z","gdop":2.37,"hdop":1.12,"pdop":2.04,"tdop":1.20,"xdop":1.00,"ydop":2.54,"vdop":1.71,"uSat":6}
{"class":"SKY","device":"/dev/ttyACM0","time":"2024-07-09T11:33:07.751Z","gdop":2.37,"hdop":1.12,"pdop":2.04,"tdop":1.20,"xdop":1.00,"ydop":2.54,"vdop":1.71,"uSat":6}
{"class":"TPV","device":"/dev/ttyACM0","mode":3,"time":"2024-07-09T11:33:07.999Z","leapseconds":18,"ept":0.005,"lat":52.315949634,"lon":10.561329659,"altHAE":135.9487,"altMSL":92.0499,"alt":92.0499,"epx":14.966,"epy":38.170,"epv":39.330,"track":64.6255,"magtrack":67.8449,"magvar":3.2,"speed":0.011,"climb":0.009,"eps":307.82,"epc":317.18,"ecefx":3841088.71,"ecefy":716157.31,"ecefz":5024478.53,"ecefvx":0.00,"ecefvy":0.01,"ecefvz":0.01,"ecefpAcc":4.59,"ecefvAcc":0.31,"velN":0.005,"velE":0.010,"velD":-0.009,"geoidSep":43.899,"eph":21.280,"sep":38.760}
{"class":"SKY","device":"/dev/ttyACM0","time":"2024-07-09T11:33:07.999Z","gdop":2.37,"hdop":1.12,"pdop":2.04,"tdop":1.20,"xdop":1.00,"ydop":2.54,"vdop":1.71,"nSat":14,"uSat":8,"satellites":[{"PRN":2,"gnssid":0,"svid":2,"az":290.0,"el":82.0,"ss":48.0,"used":true,"health":1},{"PRN":7,"gnssid":0,"svid":7,"az":0.0,"el":-9.0,"ss":0.0,"used":false,"health":1},{"PRN":25,"gnssid":0,"svid":25,"az":0.0,"el":-9.0,"ss":0.0,"used":false,"health":1},{"PRN":4,"gnssid":0,"svid":4,"az":0.0,"el":-9.0,"ss":0.0,"used":false,"health":1},{"PRN":27,"gnssid":0,"svid":27,"az":0.0,"el":-9.0,"ss":0.0,"used":false,"health":1},{"PRN":17,"gnssid":0,"svid":17,"az":314.0,"el":23.0,"ss":44.0,"used":true,"health":1},{"PRN":14,"gnssid":0,"svid":14,"az":281.0,"el":18.0,"ss":36.0,"used":true,"health":1},{"PRN":8,"gnssid":0,"svid":8,"az":177.0,"el":28.0,"ss":43.0,"used":true,"health":1},{"PRN":3,"gnssid":0,"svid":3,"az":238.0,"el":38.0,"ss":45.0,"used":true,"health":1},{"PRN":32,"gnssid":0,"svid":32,"az":61.0,"el":38.0,"ss":49.0,"used":true,"health":1},{"PRN":23,"gnssid":0,"svid":23,"az":0.0,"el":-9.0,"ss":0.0,"used":false,"health":1},{"PRN":21,"gnssid":0,"svid":21,"az":118.0,"el":78.0,"ss":44.0,"used":true,"health":1},{"PRN":22,"gnssid":0,"svid":22,"az":304.0,"el":20.0,"ss":45.0,"used":true,"health":1},{"PRN":10,"gnssid":0,"svid":10,"az":0.0,"el":-9.0,"ss":0.0,"used":false,"health":1}]}
{"class":"TPV","device":"/dev/ttyACM0","mode":3,"time":"2024-07-09T11:33:08.251Z","leapseconds":18,"ept":0.005,"lat":52.315949714,"lon":10.561329605,"altHAE":135.9924,"altMSL":92.0936,"alt":92.0936,"epx":14.966,"epy":38.170,"epv":39.330,"track":0.0000,"magtrack":3.2193,"magvar":3.2,"speed":0.000,"climb":0.000,"eps":0.30,"epc":312.14,"ecefx":3841088.73,"ecefy":716157.31,"ecefz":5024478.57,"ecefvx":0.00,"ecefvy":0.00,"ecefvz":0.00,"ecefpAcc":4.59,"ecefvAcc":0.30,"velN":0.000,"velE":0.000,"velD":0.000,"geoidSep":43.899,"eph":21.280,"sep":38.760}
{"class":"SKY","device":"/dev/ttyACM0","time":"2024-07-09T11:33:07.999Z","gdop":2.37,"hdop":1.12,"pdop":2.04,"tdop":1.20,"xdop":1.00,"ydop":2.54,"vdop":1.71,"uSat":6}
{"class":"SKY","device":"/dev/ttyACM0","time":"2024-07-09T11:33:07.999Z","gdop":2.37,"hdop":1.12,"pdop":2.04,"tdop":1.20,"xdop":1.00,"ydop":2.54,"vdop":1.71,"uSat":6}
{"class":"TPV","device":"/dev/ttyACM0","mode":3,"time":"2024-07-09T11:33:08.251Z","leapseconds":18,"ept":0.005,"lat":52.315949714,"lon":10.561329605,"altHAE":135.9924,"altMSL":92.0936,"alt":92.0936,"epx":14.966,"epy":38.170,"epv":39.330,"track":0.0000,"magtrack":3.2193,"magvar":3.2,"speed":0.000,"climb":0.000,"eps":302.93,"epc":312.14,"ecefx":3841088.73,"ecefy":716157.31,"ecefz":5024478.57,"ecefvx":0.00,"ecefvy":0.00,"ecefvz":0.00,"ecefpAcc":4.59,"ecefvAcc":0.30,"velN":0.000,"velE":0.000,"velD":0.000,"geoidSep":43.899,"eph":21.280,"sep":38.760}
{"class":"SKY","device":"/dev/ttyACM0","time":"2024-07-09T11:33:08.251Z","gdop":2.37,"hdop":1.12,"pdop":2.04,"tdop":1.20,"xdop":1.00,"ydop":2.54,"vdop":1.71,"nSat":14,"uSat":8,"satellites":[{"PRN":2,"gnssid":0,"svid":2,"az":290.0,"el":82.0,"ss":48.0,"used":true,"health":1},{"PRN":7,"gnssid":0,"svid":7,"az":0.0,"el":-9.0,"ss":0.0,"used":false,"health":1},{"PRN":25,"gnssid":0,"svid":25,"az":0.0,"el":-9.0,"ss":0.0,"used":false,"health":1},{"PRN":4,"gnssid":0,"svid":4,"az":0.0,"el":-9.0,"ss":0.0,"used":false,"health":1},{"PRN":27,"gnssid":0,"svid":27,"az":0.0,"el":-9.0,"ss":0.0,"used":false,"health":1},{"PRN":17,"gnssid":0,"svid":17,"az":314.0,"el":23.0,"ss":44.0,"used":true,"health":1},{"PRN":14,"gnssid":0,"svid":14,"az":281.0,"el":18.0,"ss":36.0,"used":true,"health":1},{"PRN":8,"gnssid":0,"svid":8,"az":177.0,"el":28.0,"ss":44.0,"used":true,"health":1},{"PRN":3,"gnssid":0,"svid":3,"az":238.0,"el":38.0,"ss":45.0,"used":true,"health":1},{"PRN":32,"gnssid":0,"svid":32,"az":61.0,"el":38.0,"ss":49.0,"used":true,"health":1},{"PRN":23,"gnssid":0,"svid":23,"az":0.0,"el":-9.0,"ss":0.0,"used":false,"health":1},{"PRN":21,"gnssid":0,"svid":21,"az":118.0,"el":78.0,"ss":43.0,"used":true,"health":1},{"PRN":22,"gnssid":0,"svid":22,"az":304.0,"el":20.0,"ss":45.0,"used":true,"health":1},{"PRN":10,"gnssid":0,"svid":10,"az":0.0,"el":-9.0,"ss":0.0,"used":false,"health":1}]}
