{"class":"VERSION","release":"3.25","rev":"3.25","proto_major":3,"proto_minor":15}
{"class":"DEVICES","devices":[{"class":"DEVICE","path":"/dev/ttyACM0","driver":"u-blox","subtype":"SW 5.00    May 11 2006 14:40:17,HW 00040001","subtype1":"M4T1.2  May 11 2006 14:40:17","activated":"2024-07-09T11:41:51.639Z","flags":1,"native":1,"bps":57600,"parity":"N","stopbits":1,"cycle":1.00,"mincycle":0.02}]}
{"class":"WATCH","enable":true,"json":true,"nmea":false,"raw":0,"scaled":false,"timing":false,"split24":false,"pps":false}
{"class":"TPV","device":"/dev/ttyACM0","mode":3,"time":"2024-07-09T11:40:04.500Z","leapseconds":18,"ept":0.005,"lat":52.315903351,"lon":10.562170291,"altHAE":135.5676,"altMSL":91.6695,"alt":91.6695,"epx":14.966,"epy":38.170,"epv":58.420,"track":265.9874,"magtrack":269.2070,"magvar":3.2,"speed":0.150,"climb":-0.042,"eps":302.93,"epc":464.56,"ecefx":3841081.98,"ecefy":716214.37,"ecefz":5024475.08,"ecefvx":0.01,"ecefvy":-0.15,"ecefvz":-0.04,"ecefpAcc":3.94,"ecefvAcc":0.40,"velN":-0.010,"velE":-0.149,"velD":0.042,"geoidSep":43.898,"eph":35.530,"sep":59.850}
{"class":"SKY","device":"/dev/ttyACM0","time":"2024-07-09T11:40:04.500Z","gdop":3.75,"hdop":1.87,"pdop":3.15,"tdop":2.02,"xdop":1.00,"ydop":2.54,"vdop":2.54,"nSat":14,"uSat":7,"satellites":[{"PRN":2,"gnssid":0,"svid":2,"az":283.0,"el":85.0,"ss":48.0,"used":true,"health":1},{"PRN":15,"gnssid":0,"svid":15,"az":0.0,"el":-9.0,"ss":0.0,"used":false,"health":1},{"PRN":28,"gnssid":0,"svid":28,"az":99.0,"el":7.0,"ss":26.0,"used":false,"health":1},{"PRN":11,"gnssid":0,"svid":11,"az":0.0,"el":-9.0,"ss":0.0,"used":false,"health":1},{"PRN":12,"gnssid":0,"svid":12,"az":0.0,"el":-9.0,"ss":0.0,"used":false,"health":1},{"PRN":17,"gnssid":0,"svid":17,"az":313.0,"el":26.0,"ss":46.0,"used":true,"health":1},{"PRN":14,"gnssid":0,"svid":14,"az":278.0,"el":16.0,"ss":37.0,"used":true,"health":1},{"PRN":8,"gnssid":0,"svid":8,"az":176.0,"el":25.0,"ss":27.0,"used":false,"health":1},{"PRN":3,"gnssid":0,"svid":3,"az":240.0,"el":41.0,"ss":47.0,"used":true,"health":1},{"PRN":32,"gnssid":0,"svid":32,"az":58.0,"el":37.0,"ss":47.0,"used":true,"health":1},{"PRN":10,"gnssid":0,"svid":10,"az":62.0,"el":11.0,"ss":35.0,"used":false,"health":1},{"PRN":21,"gnssid":0,"svid":21,"az":121.0,"el":75.0,"ss":47.0,"used":true,"health":1},{"PRN":22,"gnssid":0,"svid":22,"az":301.0,"el":19.0,"ss":40.0,"used":true,"health":1},{"PRN":19,"gnssid":0,"svid":19,"az":324.0,"el":2.0,"ss":0.0,"used":false,"health":1}]}
{"class":"TPV","device":"/dev/ttyACM0","mode":3,"time":"2024-07-09T11:40:04.748Z","leapseconds":18,"ept":0.005,"lat":52.315903498,"lon":10.562169687,"altHAE":135.5929,"altMSL":91.6947,"alt":91.6947,"epx":14.966,"epy":38.170,"epv":58.420,"track":272.2941,"magtrack":275.5137,"magvar":3.2,"speed":0.189,"climb":-0.031,"eps":0.40,"epc":471.13,"ecefx":3841081.99,"ecefy":716214.33,"ecefz":5024475.11,"ecefvx":0.01,"ecefvy":-0.19,"ecefvz":-0.02,"ecefpAcc":3.95,"ecefvAcc":0.40,"velN":0.008,"velE":-0.189,"velD":0.031,"geoidSep":43.898,"eph":35.530,"sep":60.040}
{"class":"SKY","device":"/dev/ttyACM0","time":"2024-07-09T11:40:04.500Z","gdop":3.75,"hdop":1.87,"pdop":3.16,"tdop":2.02,"xdop":1.00,"ydop":2.54,"vdop":2.54,"uSat":6}
{"class":"SKY","device":"/dev/ttyACM0","time":"2024-07-09T11:40:04.500Z","gdop":3.75,"hdop":1.87,"pdop":3.16,"tdop":2.03,"xdop":1.00,"ydop":2.54,"vdop":2.54,"uSat":6}
{"class":"TPV","device":"/dev/ttyACM0","mode":3,"time":"2024-07-09T11:40:04.748Z","leapseconds":18,"ept":0.005,"lat":52.315903498,"lon":10.562169687,"altHAE":135.5929,"altMSL":91.6947,"alt":91.6947,"epx":14.966,"epy":38.170,"epv":58.420,"track":272.2941,"magtrack":275.5137,"magvar":3.2,"speed":0.189,"climb":-0.031,"eps":307.82,"epc":471.13,"ecefx":3841081.99,"ecefy":716214.33,"ecefz":5024475.11,"ecefvx":0.01,"ecefvy":-0.19,"ecefvz":-0.02,"ecefpAcc":3.95,"ecefvAcc":0.40,"velN":0.008,"velE":-0.189,"velD":0.031,"geoidSep":43.898,"eph":35.530,"sep":60.040}
{"class":"SKY","device":"/dev/ttyACM0","time":"2024-07-09T11:40:04.748Z","gdop":3.75,"hdop":1.87,"pdop":3.16,"tdop":2.03,"xdop":1.00,"ydop":2.54,"vdop":2.54,"nSat":14,"uSat":7,"satellites":[{"PRN":2,"gnssid":0,"svid":2,"az":283.0,"el":85.0,"ss":48.0,"used":true,"health":1},{"PRN":15,"gnssid":0,"svid":15,"az":0.0,"el":-9.0,"ss":0.0,"used":false,"health":1},{"PRN":28,"gnssid":0,"svid":28,"az":99.0,"el":7.0,"ss":30.0,"used":false,"health":1},{"PRN":11,"gnssid":0,"svid":11,"az":0.0,"el":-9.0,"ss":0.0,"used":false,"health":1},{"PRN":12,"gnssid":0,"svid":12,"az":0.0,"el":-9.0,"ss":0.0,"used":false,"health":1},{"PRN":17,"gnssid":0,"svid":17,"az":313.0,"el":26.0,"ss":46.0,"used":true,"health":1},{"PRN":14,"gnssid":0,"svid":14,"az":278.0,"el":16.0,"ss":38.0,"used":true,"health":1},{"PRN":8,"gnssid":0,"svid":8,"az":176.0,"el":25.0,"ss":27.0,"used":false,"health":1},{"PRN":3,"gnssid":0,"svid":3,"az":240.0,"el":41.0,"ss":47.0,"used":true,"health":1},{"PRN":32,"gnssid":0,"svid":32,"az":58.0,"el":37.0,"ss":47.0,"used":true,"health":1},{"PRN":10,"gnssid":0,"svid":10,"az":62.0,"el":11.0,"ss":35.0,"used":false,"health":1},{"PRN":21,"gnssid":0,"svid":21,"az":121.0,"el":75.0,"ss":46.0,"used":true,"health":1},{"PRN":22,"gnssid":0,"svid":22,"az":301.0,"el":19.0,"ss":38.0,"used":true,"health":1},{"PRN":19,"gnssid":0,"svid":19,"az":324.0,"el":2.0,"ss":0.0,"used":false,"health":1}]}
{"class":"TPV","device":"/dev/ttyACM0","mode":3,"time":"2024-07-09T11:40:05.000Z","leapseconds":18,"ept":0.005,"lat":52.315903756,"lon":10.562168849,"altHAE":135.5960,"altMSL":91.6978,"alt":91.6978,"epx":14.966,"epy":38.170,"epv":58.420,"track":275.7013,"magtrack":278.9209,"magvar":3.2,"speed":0.298,"climb":-0.036,"eps":0.40,"epc":463.65,"ecefx":3841081.98,"ecefy":716214.27,"ecefz":5024475.13,"ecefvx":0.01,"ecefvy":-0.30,"ecefvz":-0.01,"ecefpAcc":3.95,"ecefvAcc":0.40,"velN":0.030,"velE":-0.297,"velD":0.036,"geoidSep":43.898,"eph":35.530,"sep":60.040}
{"class":"SKY","device":"/dev/ttyACM0","time":"2024-07-09T11:40:04.748Z","gdop":3.75,"hdop":1.87,"pdop":3.16,"tdop":2.03,"xdop":1.00,"ydop":2.54,"vdop":2.54,"uSat":6}
{"class":"SKY","device":"/dev/ttyACM0","time":"2024-07-09T11:40:04.748Z","gdop":3.75,"hdop":1.87,"pdop":3.16,"tdop":2.03,"xdop":1.00,"ydop":2.54,"vdop":2.55,"uSat":6}
{"class":"TPV","device":"/dev/ttyACM0","mode":3,"time":"2024-07-09T11:40:05.000Z","leapseconds":18,"ept":0.005,"lat":52.315903756,"lon":10.562168849,"altHAE":135.5960,"altMSL":91.6978,"alt":91.6978,"epx":14.966,"epy":38.170,"epv":58.420,"track":275.7013,"magtrack":278.9209,"magvar":3.2,"speed":0.298,"climb":-0.036,"eps":302.93,"epc":463.65,"ecefx":3841081.98,"ecefy":716214.27,"ecefz":5024475.13,"ecefvx":0.01,"ecefvy":-0.30,"ecefvz":-0.01,"ecefpAcc":3.95,"ecefvAcc":0.40,"velN":0.030,"velE":-0.297,"velD":0.036,"geoidSep":43.898,"eph":35.530,"sep":60.040}
{"class":"SKY","device":"/dev/ttyACM0","time":"2024-07-09T11:40:05.000Z","gdop":3.75,"hdop":1.87,"pdop":3.16,"tdop":2.03,"xdop":1.00,"ydop":2.54,"vdop":2.55,"nSat":14,"uSat":7,"satellites":[{"PRN":2,"gnssid":0,"svid":2,"az":283.0,"el":85.0,"ss":49.0,"used":true,"health":1},{"PRN":15,"gnssid":0,"svid":15,"az":0.0,"el":-9.0,"ss":0.0,"used":false,"health":1},{"PRN":28,"gnssid":0,"svid":28,"az":99.0,"el":7.0,"ss":26.0,"used":false,"health":1},{"PRN":11,"gnssid":0,"svid":11,"az":0.0,"el":-9.0,"ss":0.0,"used":false,"health":1},{"PRN":12,"gnssid":0,"svid":12,"az":0.0,"el":-9.0,"ss":0.0,"used":false,"health":1},{"PRN":17,"gnssid":0,"svid":17,"az":313.0,"el":26.0,"ss":46.0,"used":true,"health":1},{"PRN":14,"gnssid":0,"svid":14,"az":278.0,"el":16.0,"ss":38.0,"used":true,"health":1},{"PRN":8,"gnssid":0,"svid":8,"az":176.0,"el":25.0,"ss":26.0,"used":false,"health":1},{"PRN":3,"gnssid":0,"svid":3,"az":240.0,"el":41.0,"ss":47.0,"used":true,"health":1},{"PRN":32,"gnssid":0,"svid":32,"az":58.0,"el":37.0,"ss":46.0,"used":true,"health":1},{"PRN":10,"gnssid":0,"svid":10,"az":62.0,"el":11.0,"ss":35.0,"used":false,"health":1},{"PRN":21,"gnssid":0,"svid":21,"az":121.0,"el":75.0,"ss":47.0,"used":true,"health":1},{"PRN":22,"gnssid":0,"svid":22,"az":301.0,"el":19.0,"ss":38.0,"used":true,"health":1},{"PRN":19,"gnssid":0,"svid":19,"az":324.0,"el":2.0,"ss":0.0,"used":false,"health":1}]}
{"class":"TPV","device":"/dev/ttyACM0","mode":3,"time":"2024-07-09T11:40:05.248Z","leapseconds":18,"ept":0.005,"lat":52.315903860,"lon":10.562167696,"altHAE":135.5870,"altMSL":91.6889,"alt":91.6889,"epx":14.966,"epy":38.170,"epv":58.650,"track":278.9580,"magtrack":282.1776,"magvar":3.2,"speed":0.420,"climb":-0.025,"eps":0.40,"epc":472.06,"ecefx":3841081.98,"ecefy":716214.19,"ecefz":5024475.13,"ecefvx":0.01,"ecefvy":-0.42,"ecefvz":0.02,"ecefpAcc":3.95,"ecefvAcc":0.40,"velN":0.065,"velE":-0.415,"velD":0.025,"geoidSep":43.898,"eph":35.530,"sep":59.850}
{"class":"SKY","device":"/dev/ttyACM0","time":"2024-07-09T11:40:05.000Z","gdop":3.75,"hdop":1.87,"pdop":3.15,"tdop":2.03,"xdop":1.00,"ydop":2.54,"vdop":2.55,"uSat":6}
{"class":"SKY","device":"/dev/ttyACM0","time":"2024-07-09T11:40:05.000Z","gdop":3.75,"hdop":1.87,"pdop":3.15,"tdop":2.02,"xdop":1.00,"ydop":2.54,"vdop":2.54,"uSat":6}
{"class":"TPV","device":"/dev/ttyACM0","mode":3,"time":"2024-07-09T11:40:05.248Z","leapseconds":18,"ept":0.005,"lat":52.315903860,"lon":10.562167696,"altHAE":135.5870,"altMSL":91.6889,"alt":91.6889,"epx":14.966,"epy":38.170,"epv":58.650,"track":278.9580,"magtrack":282.1776,"magvar":3.2,"speed":0.420,"climb":-0.025,"eps":307.82,"epc":472.06,"ecefx":3841081.98,"ecefy":716214.19,"ecefz":5024475.13,"ecefvx":0.01,"ecefvy":-0.42,"ecefvz":0.02,"ecefpAcc":3.95,"ecefvAcc":0.40,"velN":0.065,"velE":-0.415,"velD":0.025,"geoidSep":43.898,"eph":35.530,"sep":59.850}
{"class":"SKY","device":"/dev/ttyACM0","time":"2024-07-09T11:40:05.248Z","gdop":3.75,"hdop":1.87,"pdop":3.15,"tdop":2.02,"xdop":1.00,"ydop":2.54,"vdop":2.54,"nSat":14,"uSat":7,"satellites":[{"PRN":2,"gnssid":0,"svid":2,"az":283.0,"el":85.0,"ss":49.0,"used":true,"health":1},{"PRN":15,"gnssid":0,"svid":15,"az":0.0,"el":-9.0,"ss":0.0,"used":false,"health":1},{"PRN":28,"gnssid":0,"svid":28,"az":99.0,"el":7.0,"ss":26.0,"used":false,"health":1},{"PRN":11,"gnssid":0,"svid":11,"az":0.0,"el":-9.0,"ss":0.0,"used":false,"health":1},{"PRN":12,"gnssid":0,"svid":12,"az":0.0,"el":-9.0,"ss":0.0,"used":false,"health":1},{"PRN":17,"gnssid":0,"svid":17,"az":313.0,"el":26.0,"ss":45.0,"used":true,"health":1},{"PRN":14,"gnssid":0,"svid":14,"az":278.0,"el":16.0,"ss":38.0,"used":true,"health":1},{"PRN":8,"gnssid":0,"svid":8,"az":176.0,"el":25.0,"ss":21.0,"used":false,"health":1},{"PRN":3,"gnssid":0,"svid":3,"az":240.0,"el":41.0,"ss":46.0,"used":true,"health":1},{"PRN":32,"gnssid":0,"svid":32,"az":58.0,"el":37.0,"ss":47.0,"used":true,"health":1},{"PRN":10,"gnssid":0,"svid":10,"az":62.0,"el":11.0,"ss":35.0,"used":false,"health":1},{"PRN":21,"gnssid":0,"svid":21,"az":121.0,"el":75.0,"ss":47.0,"used":true,"health":1},{"PRN":22,"gnssid":0,"svid":22,"az":301.0,"el":19.0,"ss":38.0,"used":true,"health":1},{"PRN":19,"gnssid":0,"svid":19,"az":324.0,"el":2.0,"ss":0.0,"used":false,"health":1}]}
{"class":"TPV","device":"/dev/ttyACM0","mode":3,"time":"2024-07-09T11:40:05.500Z","leapseconds":18,"ept":0.005,"lat":52.315904235,"lon":10.562165795,"altHAE":135.6180,"altMSL":91.7199,"alt":91.7199,"epx":14.966,"epy":38.170,"epv":58.420,"track":279.6759,"magtrack":282.8955,"magvar":3.2,"speed":0.554,"climb":0.004,"eps":0.40,"epc":464.56,"ecefx":3841081.99,"ecefy":716214.06,"ecefz":5024475.18,"ecefvx":0.03,"ecefvy":-0.55,"ecefvz":0.06,"ecefpAcc":3.95,"ecefvAcc":0.40,"velN":0.093,"velE":-0.546,"velD":-0.004,"geoidSep":43.898,"eph":35.530,"sep":59.850}
{"class":"SKY","device":"/dev/ttyACM0","time":"2024-07-09T11:40:05.248Z","gdop":3.75,"hdop":1.87,"pdop":3.15,"tdop":2.02,"xdop":1.00,"ydop":2.54,"vdop":2.54,"uSat":6}
{"class":"SKY","device":"/dev/ttyACM0","time":"2024-07-09T11:40:05.248Z","gdop":3.75,"hdop":1.87,"pdop":3.15,"tdop":2.02,"xdop":1.00,"ydop":2.54,"vdop":2.54,"uSat":6}
{"class":"TPV","device":"/dev/ttyACM0","mode":3,"time":"2024-07-09T11:40:05.500Z","leapseconds":18,"ept":0.005,"lat":52.315904235,"lon":10.562165795,"altHAE":135.6180,"altMSL":91.7199,"alt":91.7199,"epx":14.966,"epy":38.170,"epv":58.420,"track":279.6759,"magtrack":282.8955,"magvar":3.2,"speed":0.554,"climb":0.004,"eps":302.93,"epc":464.56,"ecefx":3841081.99,"ecefy":716214.06,"ecefz":5024475.18,"ecefvx":0.03,"ecefvy":-0.55,"ecefvz":0.06,"ecefpAcc":3.95,"ecefvAcc":0.40,"velN":0.093,"velE":-0.546,"velD":-0.004,"geoidSep":43.898,"eph":35.530,"sep":59.850}
{"class":"SKY","device":"/dev/ttyACM0","time":"2024-07-09T11:40:05.500Z","gdop":3.75,"hdop":1.87,"pdop":3.15,"tdop":2.02,"xdop":1.00,"ydop":2.54,"vdop":2.54,"nSat":14,"uSat":7,"satellites":[{"PRN":2,"gnssid":0,"svid":2,"az":283.0,"el":85.0,"ss":48.0,"used":true,"health":1},{"PRN":15,"gnssid":0,"svid":15,"az":0.0,"el":-9.0,"ss":0.0,"used":false,"health":1},{"PRN":28,"gnssid":0,"svid":28,"az":99.0,"el":7.0,"ss":26.0,"used":false,"health":1},{"PRN":11,"gnssid":0,"svid":11,"az":0.0,"el":-9.0,"ss":0.0,"used":false,"health":1},{"PRN":12,"gnssid":0,"svid":12,"az":0.0,"el":-9.0,"ss":0.0,"used":false,"health":1},{"PRN":17,"gnssid":0,"svid":17,"az":313.0,"el":26.0,"ss":45.0,"used":true,"health":1},{"PRN":14,"gnssid":0,"svid":14,"az":278.0,"el":16.0,"ss":38.0,"used":true,"health":1},{"PRN":8,"gnssid":0,"svid":8,"az":176.0,"el":25.0,"ss":23.0,"used":false,"health":1},{"PRN":3,"gnssid":0,"svid":3,"az":240.0,"el":41.0,"ss":47.0,"used":true,"health":1},{"PRN":32,"gnssid":0,"svid":32,"az":58.0,"el":37.0,"ss":46.0,"used":true,"health":1},{"PRN":10,"gnssid":0,"svid":10,"az":62.0,"el":11.0,"ss":36.0,"used":false,"health":1},{"PRN":21,"gnssid":0,"svid":21,"az":121.0,"el":75.0,"ss":47.0,"used":true,"health":1},{"PRN":22,"gnssid":0,"svid":22,"az":301.0,"el":19.0,"ss":39.0,"used":true,"health":1},{"PRN":19,"gnssid":0,"svid":19,"az":324.0,"el":2.0,"ss":0.0,"used":false,"health":1}]}
{"class":"TPV","device":"/dev/ttyACM0","mode":3,"time":"2024-07-09T11:40:05.748Z","leapseconds":18,"ept":0.005,"lat":52.315904347,"lon":10.562163750,"altHAE":135.6083,"altMSL":91.7102,"alt":91.7102,"epx":14.966,"epy":38.170,"epv":58.420,"track":271.4374,"magtrack":274.6569,"magvar":3.2,"speed":0.658,"climb":-0.013,"eps":0.40,"epc":471.13,"ecefx":3841082.00,"ecefy":716213.92,"ecefz":5024475.18,"ecefvx":0.10,"ecefvy":-0.65,"ecefvz":0.00,"ecefpAcc":3.95,"ecefvAcc":0.40,"velN":0.016,"velE":-0.657,"velD":0.013,"geoidSep":43.898,"eph":35.530,"sep":59.850}
{"class":"SKY","device":"/dev/ttyACM0","time":"2024-07-09T11:40:05.500Z","gdop":3.75,"hdop":1.87,"pdop":3.15,"tdop":2.02,"xdop":1.00,"ydop":2.54,"vdop":2.54,"uSat":6}
{"class":"SKY","device":"/dev/ttyACM0","time":"2024-07-09T11:40:05.500Z","gdop":3.75,"hdop":1.87,"pdop":3.15,"tdop":2.02,"xdop":1.00,"ydop":2.54,"vdop":2.54,"uSat":6}
{"class":"TPV","device":"/dev/ttyACM0","mode":3,"time":"2024-07-09T11:40:05.748Z","leapseconds":18,"ept":0.005,"lat":52.315904347,"lon":10.562163750,"altHAE":135.6083,"altMSL":91.7102,"alt":91.7102,"epx":14.966,"epy":38.170,"epv":58.420,"track":271.4374,"magtrack":274.6569,"magvar":3.2,"speed":0.658,"climb":-0.013,"eps":307.82,"epc":471.13,"ecefx":3841082.00,"ecefy":716213.92,"ecefz":5024475.18,"ecefvx":0.10,"ecefvy":-0.65,"ecefvz":0.00,"ecefpAcc":3.95,"ecefvAcc":0.40,"velN":0.016,"velE":-0.657,"velD":0.013,"geoidSep":43.898,"eph":35.530,"sep":59.850}
{"class":"SKY","device":"/dev/ttyACM0","time":"2024-07-09T11:40:05.748Z","gdop":3.75,"hdop":1.87,"pdop":3.15,"tdop":2.02,"xdop":1.00,"ydop":2.54,"vdop":2.54,"nSat":14,"uSat":7,"satellites":[{"PRN":2,"gnssid":0,"svid":2,"az":283.0,"el":85.0,"ss":48.0,"used":true,"health":1},{"PRN":15,"gnssid":0,"svid":15,"az":0.0,"el":-9.0,"ss":0.0,"used":false,"health":1},{"PRN":28,"gnssid":0,"svid":28,"az":99.0,"el":7.0,"ss":27.0,"used":false,"health":1},{"PRN":11,"gnssid":0,"svid":11,"az":0.0,"el":-9.0,"ss":0.0,"used":false,"health":1},{"PRN":12,"gnssid":0,"svid":12,"az":0.0,"el":-9.0,"ss":0.0,"used":false,"health":1},{"PRN":17,"gnssid":0,"svid":17,"az":313.0,"el":26.0,"ss":45.0,"used":true,"health":1},{"PRN":14,"gnssid":0,"svid":14,"az":278.0,"el":16.0,"ss":37.0,"used":true,"health":1},{"PRN":8,"gnssid":0,"svid":8,"az":176.0,"el":25.0,"ss":25.0,"used":false,"health":1},{"PRN":3,"gnssid":0,"svid":3,"az":240.0,"el":41.0,"ss":46.0,"used":true,"health":1},{"PRN":32,"gnssid":0,"svid":32,"az":58.0,"el":37.0,"ss":46.0,"used":true,"health":1},{"PRN":10,"gnssid":0,"svid":10,"az":62.0,"el":11.0,"ss":36.0,"used":false,"health":1},{"PRN":21,"gnssid":0,"svid":21,"az":121.0,"el":75.0,"ss":47.0,"used":true,"health":1},{"PRN":22,"gnssid":0,"svid":22,"az":301.0,"el":19.0,"ss":39.0,"used":true,"health":1},{"PRN":19,"gnssid":0,"svid":19,"az":324.0,"el":2.0,"ss":0.0,"used":false,"health":1}]}
{"class":"TPV","device":"/dev/ttyACM0","mode":3,"time":"2024-07-09T11:40:06.000Z","leapseconds":18,"ept":0.005,"lat":52.315904677,"lon":10.562161128,"altHAE":135.6179,"altMSL":91.7198,"alt":91.7198,"epx":14.966,"epy":38.170,"epv":58.420,"track":278.0015,"magtrack":281.2211,"magvar":3.2,"speed":0.795,"climb":0.003,"eps":0.42,"epc":463.65,"ecefx":3841082.01,"ecefy":716213.74,"ecefz":5024475.21,"ecefvx":0.06,"ecefvy":-0.79,"ecefvz":0.07,"ecefpAcc":3.95,"ecefvAcc":0.42,"velN":0.111,"velE":-0.788,"velD":-0.003,"geoidSep":43.898,"eph":35.530,"sep":60.040}
{"class":"SKY","device":"/dev/ttyACM0","time":"2024-07-09T11:40:05.748Z","gdop":3.75,"hdop":1.87,"pdop":3.16,"tdop":2.02,"xdop":1.00,"ydop":2.54,"vdop":2.54,"uSat":6}
{"class":"SKY","device":"/dev/ttyACM0","time":"2024-07-09T11:40:05.748Z","gdop":3.75,"hdop":1.87,"pdop":3.16,"tdop":2.03,"xdop":1.00,"ydop":2.54,"vdop":2.54,"uSat":6}
{"class":"TPV","device":"/dev/ttyACM0","mode":3,"time":"2024-07-09T11:40:06.000Z","leapseconds":18,"ept":0.005,"lat":52.315904677,"lon":10.562161128,"altHAE":135.6179,"altMSL":91.7198,"alt":91.7198,"epx":14.966,"epy":38.170,"epv":58.420,"track":278.0015,"magtrack":281.2211,"magvar":3.2,"speed":0.795,"climb":0.003,"eps":302.93,"epc":463.65,"ecefx":3841082.01,"ecefy":716213.74,"ecefz":5024475.21,"ecefvx":0.06,"ecefvy":-0.79,"ecefvz":0.07,"ecefpAcc":3.95,"ecefvAcc":0.42,"velN":0.111,"velE":-0.788,"velD":-0.003,"geoidSep":43.898,"eph":35.530,"sep":60.040}
{"class":"SKY","device":"/dev/ttyACM0","time":"2024-07-09T11:40:06.000Z","gdop":3.75,"hdop":1.87,"pdop":3.16,"tdop":2.03,"xdop":1.00,"ydop":2.54,"vdop":2.54,"nSat":14,"uSat":7,"satellites":[{"PRN":2,"gnssid":0,"svid":2,"az":283.0,"el":85.0,"ss":48.0,"used":true,"health":1},{"PRN":15,"gnssid":0,"svid":15,"az":0.0,"el":-9.0,"ss":0.0,"used":false,"health":1},{"PRN":28,"gnssid":0,"svid":28,"az":99.0,"el":7.0,"ss":29.0,"used":false,"health":1},{"PRN":11,"gnssid":0,"svid":11,"az":0.0,"el":-9.0,"ss":0.0,"used":false,"health":1},{"PRN":12,"gnssid":0,"svid":12,"az":0.0,"el":-9.0,"ss":0.0,"used":false,"health":1},{"PRN":17,"gnssid":0,"svid":17,"az":313.0,"el":26.0,"ss":45.0,"used":true,"health":1},{"PRN":14,"gnssid":0,"svid":14,"az":278.0,"el":16.0,"ss":38.0,"used":true,"health":1},{"PRN":8,"gnssid":0,"svid":8,"az":176.0,"el":25.0,"ss":29.0,"used":false,"health":1},{"PRN":3,"gnssid":0,"svid":3,"az":240.0,"el":41.0,"ss":47.0,"used":true,"health":1},{"PRN":32,"gnssid":0,"svid":32,"az":58.0,"el":37.0,"ss":45.0,"used":true,"health":1},{"PRN":10,"gnssid":0,"svid":10,"az":62.0,"el":11.0,"ss":37.0,"used":false,"health":1},{"PRN":21,"gnssid":0,"svid":21,"az":121.0,"el":75.0,"ss":47.0,"used":true,"health":1},{"PRN":22,"gnssid":0,"svid":22,"az":301.0,"el":19.0,"ss":37.0,"used":true,"health":1},{"PRN":19,"gnssid":0,"svid":19,"az":324.0,"el":2.0,"ss":0.0,"used":false,"health":1}]}
{"class":"TPV","device":"/dev/ttyACM0","mode":3,"time":"2024-07-09T11:40:06.248Z","leapseconds":18,"ept":0.005,"lat":52.315905290,"lon":10.562158021,"altHAE":135.6915,"altMSL":91.7934,"alt":91.7934,"epx":14.966,"epy":38.170,"epv":58.420,"track":273.6740,"magtrack":276.8936,"magvar":3.2,"speed":0.747,"climb":0.001,"eps":0.42,"epc":471.13,"ecefx":3841082.04,"ecefy":716213.53,"ecefz":5024475.31,"ecefvx":0.10,"ecefvy":-0.74,"ecefvz":0.03,"ecefpAcc":3.95,"ecefvAcc":0.42,"velN":0.048,"velE":-0.746,"velD":-0.001,"geoidSep":43.898,"eph":35.530,"sep":59.850}
{"class":"SKY","device":"/dev/ttyACM0","time":"2024-07-09T11:40:06.000Z","gdop":3.75,"hdop":1.87,"pdop":3.15,"tdop":2.03,"xdop":1.00,"ydop":2.54,"vdop":2.54,"uSat":6}
{"class":"SKY","device":"/dev/ttyACM0","time":"2024-07-09T11:40:06.000Z","gdop":3.75,"hdop":1.87,"pdop":3.15,"tdop":2.02,"xdop":1.00,"ydop":2.54,"vdop":2.54,"uSat":6}
{"class":"TPV","device":"/dev/ttyACM0","mode":3,"time":"2024-07-09T11:40:06.248Z","leapseconds":18,"ept":0.005,"lat":52.315905290,"lon":10.562158021,"altHAE":135.6915,"altMSL":91.7934,"alt":91.7934,"epx":14.966,"epy":38.170,"epv":58.420,"track":273.6740,"magtrack":276.8936,"magvar":3.2,"speed":0.747,"climb":0.001,"eps":307.82,"epc":471.13,"ecefx":3841082.04,"ecefy":716213.53,"ecefz":5024475.31,"ecefvx":0.10,"ecefvy":-0.74,"ecefvz":0.03,"ecefpAcc":3.95,"ecefvAcc":0.42,"velN":0.048,"velE":-0.746,"velD":-0.001,"geoidSep":43.898,"eph":35.530,"sep":59.850}
{"class":"SKY","device":"/dev/ttyACM0","time":"2024-07-09T11:40:06.248Z","gdop":3.75,"hdop":1.87,"pdop":3.15,"tdop":2.02,"xdop":1.00,"ydop":2.54,"vdop":2.54,"nSat":14,"uSat":7,"satellites":[{"PRN":2,"gnssid":0,"svid":2,"az":283.0,"el":85.0,"ss":48.0,"used":true,"health":1},{"PRN":15,"gnssid":0,"svid":15,"az":0.0,"el":-9.0,"ss":0.0,"used":false,"health":1},{"PRN":28,"gnssid":0,"svid":28,"az":99.0,"el":7.0,"ss":28.0,"used":false,"health":1},{"PRN":11,"gnssid":0,"svid":11,"az":0.0,"el":-9.0,"ss":0.0,"used":false,"health":1},{"PRN":12,"gnssid":0,"svid":12,"az":0.0,"el":-9.0,"ss":0.0,"used":false,"health":1},{"PRN":17,"gnssid":0,"svid":17,"az":313.0,"el":26.0,"ss":45.0,"used":true,"health":1},{"PRN":14,"gnssid":0,"svid":14,"az":278.0,"el":16.0,"ss":38.0,"used":true,"health":1},{"PRN":8,"gnssid":0,"svid":8,"az":176.0,"el":25.0,"ss":28.0,"used":false,"health":1},{"PRN":3,"gnssid":0,"svid":3,"az":240.0,"el":41.0,"ss":46.0,"used":true,"health":1},{"PRN":32,"gnssid":0,"svid":32,"az":58.0,"el":37.0,"ss":45.0,"used":true,"health":1},{"PRN":10,"gnssid":0,"svid":10,"az":62.0,"el":11.0,"ss":38.0,"used":false,"health":1},{"PRN":21,"gnssid":0,"svid":21,"az":121.0,"el":75.0,"ss":47.0,"used":true,"health":1},{"PRN":22,"gnssid":0,"svid":22,"az":301.0,"el":19.0,"ss":38.0,"used":true,"health":1},{"PRN":19,"gnssid":0,"svid":19,"az":324.0,"el":2.0,"ss":0.0,"used":false,"health":1}]}
{"class":"TPV","device":"/dev/ttyACM0","mode":3,"time":"2024-07-09T11:40:06.500Z","leapseconds":18,"ept":0.005,"lat":52.315905672,"lon":10.562154822,"altHAE":135.6966,"altMSL":91.7985,"alt":91.7985,"epx":14.966,"epy":38.170,"epv":58.420,"track":276.2719,"magtrack":279.4915,"magvar":3.2,"speed":1.007,"climb":0.003,"eps":0.42,"epc":463.65,"ecefx":3841082.05,"ecefy":716213.31,"ecefz":5024475.34,"ecefvx":0.10,"ecefvy":-1.00,"ecefvz":0.07,"ecefpAcc":3.95,"ecefvAcc":0.42,"velN":0.110,"velE":-1.001,"velD":-0.003,"geoidSep":43.898,"eph":35.530,"sep":60.990}
{"class":"SKY","device":"/dev/ttyACM0","time":"2024-07-09T11:40:06.248Z","gdop":3.75,"hdop":1.87,"pdop":3.21,"tdop":2.02,"xdop":1.00,"ydop":2.54,"vdop":2.54,"uSat":6}
{"class":"SKY","device":"/dev/ttyACM0","time":"2024-07-09T11:40:06.248Z","gdop":3.79,"hdop":1.96,"pdop":3.21,"tdop":2.03,"xdop":1.00,"ydop":2.54,"vdop":2.54,"uSat":6}
{"class":"TPV","device":"/dev/ttyACM0","mode":3,"time":"2024-07-09T11:40:06.500Z","leapseconds":18,"ept":0.005,"lat":52.315905672,"lon":10.562154822,"altHAE":135.6966,"altMSL":91.7985,"alt":91.7985,"epx":14.966,"epy":38.170,"epv":58.420,"track":276.2719,"magtrack":279.4915,"magvar":3.2,"speed":1.007,"climb":0.003,"eps":302.93,"epc":463.65,"ecefx":3841082.05,"ecefy":716213.31,"ecefz":5024475.34,"ecefvx":0.10,"ecefvy":-1.00,"ecefvz":0.07,"ecefpAcc":3.95,"ecefvAcc":0.42,"velN":0.110,"velE":-1.001,"velD":-0.003,"geoidSep":43.898,"eph":35.530,"sep":60.990}
{"class":"SKY","device":"/dev/ttyACM0","time":"2024-07-09T11:40:06.500Z","gdop":3.79,"hdop":1.96,"pdop":3.21,"tdop":2.03,"xdop":1.00,"ydop":2.54,"vdop":2.54,"nSat":14,"uSat":6,"satellites":[{"PRN":2,"gnssid":0,"svid":2,"az":283.0,"el":85.0,"ss":48.0,"used":true,"health":1},{"PRN":15,"gnssid":0,"svid":15,"az":0.0,"el":-9.0,"ss":0.0,"used":false,"health":1},{"PRN":28,"gnssid":0,"svid":28,"az":99.0,"el":7.0,"ss":29.0,"used":false,"health":1},{"PRN":11,"gnssid":0,"svid":11,"az":0.0,"el":-9.0,"ss":0.0,"used":false,"health":1},{"PRN":12,"gnssid":0,"svid":12,"az":0.0,"el":-9.0,"ss":0.0,"used":false,"health":1},{"PRN":17,"gnssid":0,"svid":17,"az":313.0,"el":26.0,"ss":46.0,"used":true,"health":1},{"PRN":14,"gnssid":0,"svid":14,"az":278.0,"el":16.0,"ss":38.0,"used":true,"health":1},{"PRN":8,"gnssid":0,"svid":8,"az":176.0,"el":25.0,"ss":29.0,"used":false,"health":1},{"PRN":3,"gnssid":0,"svid":3,"az":240.0,"el":41.0,"ss":46.0,"used":true,"health":1},{"PRN":32,"gnssid":0,"svid":32,"az":58.0,"el":37.0,"ss":45.0,"used":true,"health":1},{"PRN":10,"gnssid":0,"svid":10,"az":62.0,"el":11.0,"ss":37.0,"used":false,"health":1},{"PRN":21,"gnssid":0,"svid":21,"az":121.0,"el":75.0,"ss":47.0,"used":true,"health":1},{"PRN":22,"gnssid":0,"svid":22,"az":301.0,"el":19.0,"ss":38.0,"used":false,"health":1},{"PRN":19,"gnssid":0,"svid":19,"az":324.0,"el":2.0,"ss":0.0,"used":false,"health":1}]}
{"class":"TPV","device":"/dev/ttyACM0","mode":3,"time":"2024-07-09T11:40:06.748Z","leapseconds":18,"ept":0.005,"lat":52.315906119,"lon":10.562150903,"altHAE":135.6961,"altMSL":91.7980,"alt":91.7980,"epx":14.966,"epy":38.170,"epv":58.420,"track":279.7525,"magtrack":282.9721,"magvar":3.2,"speed":1.220,"climb":0.017,"eps":0.42,"epc":471.13,"ecefx":3841082.06,"ecefy":716213.04,"ecefz":5024475.37,"ecefvx":0.07,"ecefvy":-1.21,"ecefvz":0.14,"ecefpAcc":3.95,"ecefvAcc":0.42,"velN":0.207,"velE":-1.202,"velD":-0.017,"geoidSep":43.898,"eph":37.240,"sep":59.850}
{"class":"SKY","device":"/dev/ttyACM0","time":"2024-07-09T11:40:06.500Z","gdop":3.79,"hdop":1.96,"pdop":3.15,"tdop":2.03,"xdop":1.00,"ydop":2.54,"vdop":2.54,"uSat":6}
{"class":"SKY","device":"/dev/ttyACM0","time":"2024-07-09T11:40:06.500Z","gdop":3.75,"hdop":1.87,"pdop":3.15,"tdop":2.02,"xdop":1.00,"ydop":2.54,"vdop":2.54,"uSat":6}
{"class":"TPV","device":"/dev/ttyACM0","mode":3,"time":"2024-07-09T11:40:06.748Z","leapseconds":18,"ept":0.005,"lat":52.315906119,"lon":10.562150903,"altHAE":135.6961,"altMSL":91.7980,"alt":91.7980,"epx":14.966,"epy":38.170,"epv":58.420,"track":279.7525,"magtrack":282.9721,"magvar":3.2,"speed":1.220,"climb":0.017,"eps":307.82,"epc":471.13,"ecefx":3841082.06,"ecefy":716213.04,"ecefz":5024475.37,"ecefvx":0.07,"ecefvy":-1.21,"ecefvz":0.14,"ecefpAcc":3.95,"ecefvAcc":0.42,"velN":0.207,"velE":-1.202,"velD":-0.017,"geoidSep":43.898,"eph":37.240,"sep":59.850}
{"class":"SKY","device":"/dev/ttyACM0","time":"2024-07-09T11:40:06.748Z","gdop":3.75,"hdop":1.87,"pdop":3.15,"tdop":2.02,"xdop":1.00,"ydop":2.54,"vdop":2.54,"nSat":14,"uSat":7,"satellites":[{"PRN":2,"gnssid":0,"svid":2,"az":283.0,"el":85.0,"ss":49.0,"used":true,"health":1},{"PRN":15,"gnssid":0,"svid":15,"az":0.0,"el":-9.0,"ss":0.0,"used":false,"health":1},{"PRN":28,"gnssid":0,"svid":28,"az":99.0,"el":7.0,"ss":30.0,"used":false,"health":1},{"PRN":11,"gnssid":0,"svid":11,"az":0.0,"el":-9.0,"ss":0.0,"used":false,"health":1},{"PRN":12,"gnssid":0,"svid":12,"az":0.0,"el":-9.0,"ss":0.0,"used":false,"health":1},{"PRN":17,"gnssid":0,"svid":17,"az":313.0,"el":26.0,"ss":46.0,"used":true,"health":1},{"PRN":14,"gnssid":0,"svid":14,"az":278.0,"el":16.0,"ss":39.0,"used":true,"health":1},{"PRN":8,"gnssid":0,"svid":8,"az":176.0,"el":25.0,"ss":28.0,"used":false,"health":1},{"PRN":3,"gnssid":0,"svid":3,"az":240.0,"el":41.0,"ss":46.0,"used":true,"health":1},{"PRN":32,"gnssid":0,"svid":32,"az":58.0,"el":37.0,"ss":46.0,"used":true,"health":1},{"PRN":10,"gnssid":0,"svid":10,"az":62.0,"el":11.0,"ss":37.0,"used":false,"health":1},{"PRN":21,"gnssid":0,"svid":21,"az":121.0,"el":75.0,"ss":47.0,"used":true,"health":1},{"PRN":22,"gnssid":0,"svid":22,"az":301.0,"el":19.0,"ss":39.0,"used":true,"health":1},{"PRN":19,"gnssid":0,"svid":19,"az":324.0,"el":2.0,"ss":0.0,"used":false,"health":1}]}
{"class":"TPV","device":"/dev/ttyACM0","mode":3,"time":"2024-07-09T11:40:07.000Z","leapseconds":18,"ept":0.005,"lat":52.315906504,"lon":10.562146066,"altHAE":135.7009,"altMSL":91.8028,"alt":91.8028,"epx":14.966,"epy":38.170,"epv":58.420,"track":275.3776,"magtrack":278.5972,"magvar":3.2,"speed":1.424,"climb":0.023,"eps":0.42,"epc":463.65,"ecefx":3841082.09,"ecefy":716212.71,"ecefz":5024475.40,"ecefvx":0.17,"ecefvy":-1.41,"ecefvz":0.10,"ecefpAcc":3.96,"ecefvAcc":0.42,"velN":0.133,"velE":-1.417,"velD":-0.023,"geoidSep":43.898,"eph":35.530,"sep":60.990}
{"class":"SKY","device":"/dev/ttyACM0","time":"2024-07-09T11:40:06.748Z","gdop":3.75,"hdop":1.87,"pdop":3.21,"tdop":2.02,"xdop":1.00,"ydop":2.54,"vdop":2.54,"uSat":6}
{"class":"SKY","device":"/dev/ttyACM0","time":"2024-07-09T11:40:06.748Z","gdop":3.79,"hdop":1.95,"pdop":3.21,"tdop":2.02,"xdop":1.00,"ydop":2.54,"vdop":2.54,"uSat":6}
{"class":"TPV","device":"/dev/ttyACM0","mode":3,"time":"2024-07-09T11:40:07.000Z","leapseconds":18,"ept":0.005,"lat":52.315906504,"lon":10.562146066,"altHAE":135.7009,"altMSL":91.8028,"alt":91.8028,"epx":14.966,"epy":38.170,"epv":58.420,"track":275.3776,"magtrack":278.5972,"magvar":3.2,"speed":1.424,"climb":0.023,"eps":302.93,"epc":463.65,"ecefx":3841082.09,"ecefy":716212.71,"ecefz":5024475.40,"ecefvx":0.17,"ecefvy":-1.41,"ecefvz":0.10,"ecefpAcc":3.96,"ecefvAcc":0.42,"velN":0.133,"velE":-1.417,"velD":-0.023,"geoidSep":43.898,"eph":35.530,"sep":60.990}
{"class":"SKY","device":"/dev/ttyACM0","time":"2024-07-09T11:40:07.000Z","gdop":3.79,"hdop":1.95,"pdop":3.21,"tdop":2.02,"xdop":1.00,"ydop":2.54,"vdop":2.54,"nSat":14,"uSat":6,"satellites":[{"PRN":2,"gnssid":0,"svid":2,"az":283.0,"el":85.0,"ss":48.0,"used":true,"health":1},{"PRN":15,"gnssid":0,"svid":15,"az":0.0,"el":-9.0,"ss":0.0,"used":false,"health":1},{"PRN":28,"gnssid":0,"svid":28,"az":99.0,"el":7.0,"ss":32.0,"used":false,"health":1},{"PRN":11,"gnssid":0,"svid":11,"az":0.0,"el":-9.0,"ss":0.0,"used":false,"health":1},{"PRN":12,"gnssid":0,"svid":12,"az":0.0,"el":-9.0,"ss":0.0,"used":false,"health":1},{"PRN":17,"gnssid":0,"svid":17,"az":313.0,"el":26.0,"ss":46.0,"used":true,"health":1},{"PRN":14,"gnssid":0,"svid":14,"az":278.0,"el":16.0,"ss":38.0,"used":true,"health":1},{"PRN":8,"gnssid":0,"svid":8,"az":176.0,"el":25.0,"ss":24.0,"used":false,"health":1},{"PRN":3,"gnssid":0,"svid":3,"az":240.0,"el":41.0,"ss":46.0,"used":true,"health":1},{"PRN":32,"gnssid":0,"svid":32,"az":58.0,"el":37.0,"ss":47.0,"used":true,"health":1},{"PRN":10,"gnssid":0,"svid":10,"az":62.0,"el":11.0,"ss":36.0,"used":false,"health":1},{"PRN":21,"gnssid":0,"svid":21,"az":121.0,"el":75.0,"ss":47.0,"used":true,"health":1},{"PRN":22,"gnssid":0,"svid":22,"az":301.0,"el":19.0,"ss":38.0,"used":false,"health":1},{"PRN":19,"gnssid":0,"svid":19,"az":324.0,"el":2.0,"ss":0.0,"used":false,"health":1}]}
{"class":"TPV","device":"/dev/ttyACM0","mode":3,"time":"2024-07-09T11:40:07.248Z","leapseconds":18,"ept":0.005,"lat":52.315907024,"lon":10.562140534,"altHAE":135.6941,"altMSL":91.7960,"alt":91.7960,"epx":14.966,"epy":38.170,"epv":58.420,"track":279.4194,"magtrack":282.6390,"magvar":3.2,"speed":1.633,"climb":0.021,"eps":0.42,"epc":471.13,"ecefx":3841082.11,"ecefy":716212.33,"ecefz":5024475.43,"ecefvx":0.10,"ecefvy":-1.62,"ecefvz":0.18,"ecefpAcc":3.96,"ecefvAcc":0.42,"velN":0.267,"velE":-1.611,"velD":-0.021,"geoidSep":43.898,"eph":37.050,"sep":60.800}
{"class":"SKY","device":"/dev/ttyACM0","time":"2024-07-09T11:40:07.000Z","gdop":3.79,"hdop":1.95,"pdop":3.20,"tdop":2.02,"xdop":1.00,"ydop":2.54,"vdop":2.54,"uSat":6}
{"class":"SKY","device":"/dev/ttyACM0","time":"2024-07-09T11:40:07.000Z","gdop":3.79,"hdop":1.95,"pdop":3.20,"tdop":2.02,"xdop":1.00,"ydop":2.54,"vdop":2.54,"uSat":6}
{"class":"TPV","device":"/dev/ttyACM0","mode":3,"time":"2024-07-09T11:40:07.248Z","leapseconds":18,"ept":0.005,"lat":52.315907024,"lon":10.562140534,"altHAE":135.6941,"altMSL":91.7960,"alt":91.7960,"epx":14.966,"epy":38.170,"epv":58.420,"track":279.4194,"magtrack":282.6390,"magvar":3.2,"speed":1.633,"climb":0.021,"eps":307.82,"epc":471.13,"ecefx":3841082.11,"ecefy":716212.33,"ecefz":5024475.43,"ecefvx":0.10,"ecefvy":-1.62,"ecefvz":0.18,"ecefpAcc":3.96,"ecefvAcc":0.42,"velN":0.267,"velE":-1.611,"velD":-0.021,"geoidSep":43.898,"eph":37.050,"sep":60.800}
{"class":"SKY","device":"/dev/ttyACM0","time":"2024-07-09T11:40:07.248Z","gdop":3.79,"hdop":1.95,"pdop":3.20,"tdop":2.02,"xdop":1.00,"ydop":2.54,"vdop":2.54,"nSat":14,"uSat":6,"satellites":[{"PRN":2,"gnssid":0,"svid":2,"az":283.0,"el":85.0,"ss":48.0,"used":true,"health":1},{"PRN":15,"gnssid":0,"svid":15,"az":0.0,"el":-9.0,"ss":0.0,"used":false,"health":1},{"PRN":28,"gnssid":0,"svid":28,"az":99.0,"el":7.0,"ss":30.0,"used":false,"health":1},{"PRN":11,"gnssid":0,"svid":11,"az":0.0,"el":-9.0,"ss":0.0,"used":false,"health":1},{"PRN":12,"gnssid":0,"svid":12,"az":0.0,"el":-9.0,"ss":0.0,"used":false,"health":1},{"PRN":17,"gnssid":0,"svid":17,"az":313.0,"el":26.0,"ss":46.0,"used":true,"health":1},{"PRN":14,"gnssid":0,"svid":14,"az":278.0,"el":16.0,"ss":38.0,"used":true,"health":1},{"PRN":8,"gnssid":0,"svid":8,"az":176.0,"el":25.0,"ss":24.0,"used":false,"health":1},{"PRN":3,"gnssid":0,"svid":3,"az":240.0,"el":41.0,"ss":47.0,"used":true,"health":1},{"PRN":32,"gnssid":0,"svid":32,"az":58.0,"el":37.0,"ss":47.0,"used":true,"health":1},{"PRN":10,"gnssid":0,"svid":10,"az":62.0,"el":11.0,"ss":35.0,"used":false,"health":1},{"PRN":21,"gnssid":0,"svid":21,"az":121.0,"el":75.0,"ss":47.0,"used":true,"health":1},{"PRN":22,"gnssid":0,"svid":22,"az":301.0,"el":19.0,"ss":38.0,"used":false,"health":1},{"PRN":19,"gnssid":0,"svid":19,"az":324.0,"el":2.0,"ss":0.0,"used":false,"health":1}]}
{"class":"TPV","device":"/dev/ttyACM0","mode":3,"time":"2024-07-09T11:40:07.500Z","leapseconds":18,"ept":0.005,"lat":52.315907720,"lon":10.562134282,"altHAE":135.6975,"altMSL":91.7994,"alt":91.7994,"epx":14.966,"epy":38.170,"epv":58.420,"track":279.0117,"magtrack":282.2313,"magvar":3.2,"speed":1.794,"climb":0.023,"eps":0.41,"epc":463.65,"ecefx":3841082.13,"ecefy":716211.90,"ecefz":5024475.48,"ecefvx":0.12,"ecefvy":-1.78,"ecefvz":0.19,"ecefpAcc":3.96,"ecefvAcc":0.41,"velN":0.281,"velE":-1.772,"velD":-0.023,"geoidSep":43.898,"eph":37.050,"sep":59.850}
{"class":"SKY","device":"/dev/ttyACM0","time":"2024-07-09T11:40:07.248Z","gdop":3.79,"hdop":1.95,"pdop":3.15,"tdop":2.02,"xdop":1.00,"ydop":2.54,"vdop":2.54,"uSat":6}
{"class":"SKY","device":"/dev/ttyACM0","time":"2024-07-09T11:40:07.248Z","gdop":3.75,"hdop":1.87,"pdop":3.15,"tdop":2.02,"xdop":1.00,"ydop":2.54,"vdop":2.54,"uSat":6}
{"class":"TPV","device":"/dev/ttyACM0","mode":3,"time":"2024-07-09T11:40:07.500Z","leapseconds":18,"ept":0.005,"lat":52.315907720,"lon":10.562134282,"altHAE":135.6975,"altMSL":91.7994,"alt":91.7994,"epx":14.966,"epy":38.170,"epv":58.420,"track":279.0117,"magtrack":282.2313,"magvar":3.2,"speed":1.794,"climb":0.023,"eps":302.93,"epc":463.65,"ecefx":3841082.13,"ecefy":716211.90,"ecefz":5024475.48,"ecefvx":0.12,"ecefvy":-1.78,"ecefvz":0.19,"ecefpAcc":3.96,"ecefvAcc":0.41,"velN":0.281,"velE":-1.772,"velD":-0.023,"geoidSep":43.898,"eph":37.050,"sep":59.850}
{"class":"SKY","device":"/dev/ttyACM0","time":"2024-07-09T11:40:07.500Z","gdop":3.75,"hdop":1.87,"pdop":3.15,"tdop":2.02,"xdop":1.00,"ydop":2.54,"vdop":2.54,"nSat":14,"uSat":7,"satellites":[{"PRN":2,"gnssid":0,"svid":2,"az":283.0,"el":85.0,"ss":48.0,"used":true,"health":1},{"PRN":15,"gnssid":0,"svid":15,"az":0.0,"el":-9.0,"ss":0.0,"used":false,"health":1},{"PRN":28,"gnssid":0,"svid":28,"az":99.0,"el":7.0,"ss":30.0,"used":false,"health":1},{"PRN":11,"gnssid":0,"svid":11,"az":0.0,"el":-9.0,"ss":0.0,"used":false,"health":1},{"PRN":12,"gnssid":0,"svid":12,"az":0.0,"el":-9.0,"ss":0.0,"used":false,"health":1},{"PRN":17,"gnssid":0,"svid":17,"az":313.0,"el":26.0,"ss":46.0,"used":true,"health":1},{"PRN":14,"gnssid":0,"svid":14,"az":278.0,"el":16.0,"ss":38.0,"used":true,"health":1},{"PRN":8,"gnssid":0,"svid":8,"az":176.0,"el":25.0,"ss":27.0,"used":false,"health":1},{"PRN":3,"gnssid":0,"svid":3,"az":240.0,"el":41.0,"ss":46.0,"used":true,"health":1},{"PRN":32,"gnssid":0,"svid":32,"az":58.0,"el":37.0,"ss":47.0,"used":true,"health":1},{"PRN":10,"gnssid":0,"svid":10,"az":62.0,"el":11.0,"ss":33.0,"used":false,"health":1},{"PRN":21,"gnssid":0,"svid":21,"az":121.0,"el":75.0,"ss":47.0,"used":true,"health":1},{"PRN":22,"gnssid":0,"svid":22,"az":301.0,"el":19.0,"ss":37.0,"used":true,"health":1},{"PRN":19,"gnssid":0,"svid":19,"az":324.0,"el":2.0,"ss":0.0,"used":false,"health":1}]}
{"class":"TPV","device":"/dev/ttyACM0","mode":3,"time":"2024-07-09T11:40:07.748Z","leapseconds":18,"ept":0.005,"lat":52.315908342,"lon":10.562127426,"altHAE":135.6945,"altMSL":91.7964,"alt":91.7964,"epx":14.966,"epy":38.170,"epv":58.420,"track":277.3897,"magtrack":280.6093,"magvar":3.2,"speed":2.077,"climb":0.034,"eps":0.42,"epc":471.13,"ecefx":3841082.16,"ecefy":716211.43,"ecefz":5024475.52,"ecefvx":0.19,"ecefvy":-2.06,"ecefvz":0.19,"ecefpAcc":3.96,"ecefvAcc":0.42,"velN":0.267,"velE":-2.060,"velD":-0.034,"geoidSep":43.898,"eph":35.530,"sep":59.850}
{"class":"SKY","device":"/dev/ttyACM0","time":"2024-07-09T11:40:07.500Z","gdop":3.75,"hdop":1.87,"pdop":3.15,"tdop":2.02,"xdop":1.00,"ydop":2.54,"vdop":2.54,"uSat":6}
{"class":"SKY","device":"/dev/ttyACM0","time":"2024-07-09T11:40:07.500Z","gdop":3.75,"hdop":1.87,"pdop":3.15,"tdop":2.02,"xdop":1.00,"ydop":2.54,"vdop":2.54,"uSat":6}
{"class":"TPV","device":"/dev/ttyACM0","mode":3,"time":"2024-07-09T11:40:07.748Z","leapseconds":18,"ept":0.005,"lat":52.315908342,"lon":10.562127426,"altHAE":135.6945,"altMSL":91.7964,"alt":91.7964,"epx":14.966,"epy":38.170,"epv":58.420,"track":277.3897,"magtrack":280.6093,"magvar":3.2,"speed":2.077,"climb":0.034,"eps":307.82,"epc":471.13,"ecefx":3841082.16,"ecefy":716211.43,"ecefz":5024475.52,"ecefvx":0.19,"ecefvy":-2.06,"ecefvz":0.19,"ecefpAcc":3.96,"ecefvAcc":0.42,"velN":0.267,"velE":-2.060,"velD":-0.034,"geoidSep":43.898,"eph":35.530,"sep":59.850}
{"class":"SKY","device":"/dev/ttyACM0","time":"2024-07-09T11:40:07.748Z","gdop":3.75,"hdop":1.87,"pdop":3.15,"tdop":2.02,"xdop":1.00,"ydop":2.54,"vdop":2.54,"nSat":14,"uSat":7,"satellites":[{"PRN":2,"gnssid":0,"svid":2,"az":283.0,"el":85.0,"ss":48.0,"used":true,"health":1},{"PRN":15,"gnssid":0,"svid":15,"az":0.0,"el":-9.0,"ss":0.0,"used":false,"health":1},{"PRN":28,"gnssid":0,"svid":28,"az":99.0,"el":7.0,"ss":30.0,"used":false,"health":1},{"PRN":11,"gnssid":0,"svid":11,"az":0.0,"el":-9.0,"ss":0.0,"used":false,"health":1},{"PRN":12,"gnssid":0,"svid":12,"az":0.0,"el":-9.0,"ss":0.0,"used":false,"health":1},{"PRN":17,"gnssid":0,"svid":17,"az":313.0,"el":26.0,"ss":45.0,"used":true,"health":1},{"PRN":14,"gnssid":0,"svid":14,"az":278.0,"el":16.0,"ss":38.0,"used":true,"health":1},{"PRN":8,"gnssid":0,"svid":8,"az":176.0,"el":25.0,"ss":27.0,"used":false,"health":1},{"PRN":3,"gnssid":0,"svid":3,"az":240.0,"el":41.0,"ss":46.0,"used":true,"health":1},{"PRN":32,"gnssid":0,"svid":32,"az":58.0,"el":37.0,"ss":47.0,"used":true,"health":1},{"PRN":10,"gnssid":0,"svid":10,"az":62.0,"el":11.0,"ss":31.0,"used":false,"health":1},{"PRN":21,"gnssid":0,"svid":21,"az":121.0,"el":75.0,"ss":47.0,"used":true,"health":1},{"PRN":22,"gnssid":0,"svid":22,"az":301.0,"el":19.0,"ss":38.0,"used":true,"health":1},{"PRN":19,"gnssid":0,"svid":19,"az":324.0,"el":2.0,"ss":0.0,"used":false,"health":1}]}
{"class":"TPV","device":"/dev/ttyACM0","mode":3,"time":"2024-07-09T11:40:08.000Z","leapseconds":18,"ept":0.005,"lat":52.315909056,"lon":10.562119561,"altHAE":135.6837,"altMSL":91.7856,"alt":91.7856,"epx":14.966,"epy":38.170,"epv":58.420,"track":278.0241,"magtrack":281.2437,"magvar":3.2,"speed":2.235,"climb":0.012,"eps":0.41,"epc":463.65,"ecefx":3841082.19,"ecefy":716210.89,"ecefz":5024475.56,"ecefvx":0.17,"ecefvy":-2.22,"ecefvz":0.20,"ecefpAcc":3.96,"ecefvAcc":0.41,"velN":0.312,"velE":-2.214,"velD":-0.012,"geoidSep":43.898,"eph":35.530,"sep":59.850}
{"class":"SKY","device":"/dev/ttyACM0","time":"2024-07-09T11:40:07.748Z","gdop":3.75,"hdop":1.87,"pdop":3.15,"tdop":2.02,"xdop":1.00,"ydop":2.54,"vdop":2.54,"uSat":6}
{"class":"SKY","device":"/dev/ttyACM0","time":"2024-07-09T11:40:07.748Z","gdop":3.75,"hdop":1.87,"pdop":3.15,"tdop":2.02,"xdop":1.00,"ydop":2.54,"vdop":2.54,"uSat":6}
{"class":"TPV","device":"/dev/ttyACM0","mode":3,"time":"2024-07-09T11:40:08.000Z","leapseconds":18,"ept":0.005,"lat":52.315909056,"lon":10.562119561,"altHAE":135.6837,"altMSL":91.7856,"alt":91.7856,"epx":14.966,"epy":38.170,"epv":58.420,"track":278.0241,"magtrack":281.2437,"magvar":3.2,"speed":2.235,"climb":0.012,"eps":302.93,"epc":463.65,"ecefx":3841082.19,"ecefy":716210.89,"ecefz":5024475.56,"ecefvx":0.17,"ecefvy":-2.22,"ecefvz":0.20,"ecefpAcc":3.96,"ecefvAcc":0.41,"velN":0.312,"velE":-2.214,"velD":-0.012,"geoidSep":43.898,"eph":35.530,"sep":59.850}
{"class":"SKY","device":"/dev/ttyACM0","time":"2024-07-09T11:40:08.000Z","gdop":3.75,"hdop":1.87,"pdop":3.15,"tdop":2.02,"xdop":1.00,"ydop":2.54,"vdop":2.54,"nSat":14,"uSat":7,"satellites":[{"PRN":2,"gnssid":0,"svid":2,"az":283.0,"el":85.0,"ss":48.0,"used":true,"health":1},{"PRN":15,"gnssid":0,"svid":15,"az":0.0,"el":-9.0,"ss":0.0,"used":false,"health":1},{"PRN":28,"gnssid":0,"svid":28,"az":99.0,"el":7.0,"ss":30.0,"used":false,"health":1},{"PRN":11,"gnssid":0,"svid":11,"az":0.0,"el":-9.0,"ss":0.0,"used":false,"health":1},{"PRN":12,"gnssid":0,"svid":12,"az":0.0,"el":-9.0,"ss":0.0,"used":false,"health":1},{"PRN":17,"gnssid":0,"svid":17,"az":313.0,"el":26.0,"ss":46.0,"used":true,"health":1},{"PRN":14,"gnssid":0,"svid":14,"az":278.0,"el":16.0,"ss":38.0,"used":true,"health":1},{"PRN":8,"gnssid":0,"svid":8,"az":176.0,"el":25.0,"ss":27.0,"used":false,"health":1},{"PRN":3,"gnssid":0,"svid":3,"az":240.0,"el":41.0,"ss":47.0,"used":true,"health":1},{"PRN":32,"gnssid":0,"svid":32,"az":58.0,"el":37.0,"ss":46.0,"used":true,"health":1},{"PRN":10,"gnssid":0,"svid":10,"az":62.0,"el":11.0,"ss":32.0,"used":false,"health":1},{"PRN":21,"gnssid":0,"svid":21,"az":121.0,"el":75.0,"ss":47.0,"used":true,"health":1},{"PRN":22,"gnssid":0,"svid":22,"az":301.0,"el":19.0,"ss":39.0,"used":true,"health":1},{"PRN":19,"gnssid":0,"svid":19,"az":324.0,"el":2.0,"ss":0.0,"used":false,"health":1}]}
{"class":"TPV","device":"/dev/ttyACM0","mode":3,"time":"2024-07-09T11:40:08.248Z","leapseconds":18,"ept":0.005,"lat":52.315909890,"lon":10.562110975,"altHAE":135.6752,"altMSL":91.7770,"alt":91.7770,"epx":14.966,"epy":38.170,"epv":58.420,"track":278.1203,"magtrack":281.3399,"magvar":3.2,"speed":2.557,"climb":0.012,"eps":0.42,"epc":471.13,"ecefx":3841082.22,"ecefy":716210.30,"ecefz":5024475.61,"ecefvx":0.19,"ecefvy":-2.54,"ecefvz":0.23,"ecefpAcc":3.96,"ecefvAcc":0.42,"velN":0.361,"velE":-2.532,"velD":-0.012,"geoidSep":43.898,"eph":35.530,"sep":59.850}
{"class":"SKY","device":"/dev/ttyACM0","time":"2024-07-09T11:40:08.000Z","gdop":3.75,"hdop":1.87,"pdop":3.15,"tdop":2.02,"xdop":1.00,"ydop":2.54,"vdop":2.54,"uSat":6}
{"class":"SKY","device":"/dev/ttyACM0","time":"2024-07-09T11:40:08.000Z","gdop":3.75,"hdop":1.87,"pdop":3.15,"tdop":2.02,"xdop":1.00,"ydop":2.54,"vdop":2.54,"uSat":6}
{"class":"TPV","device":"/dev/ttyACM0","mode":3,"time":"2024-07-09T11:40:08.248Z","leapseconds":18,"ept":0.005,"lat":52.315909890,"lon":10.562110975,"altHAE":135.6752,"altMSL":91.7770,"alt":91.7770,"epx":14.966,"epy":38.170,"epv":58.420,"track":278.1203,"magtrack":281.3399,"magvar":3.2,"speed":2.557,"climb":0.012,"eps":307.82,"epc":471.13,"ecefx":3841082.22,"ecefy":716210.30,"ecefz":5024475.61,"ecefvx":0.19,"ecefvy":-2.54,"ecefvz":0.23,"ecefpAcc":3.96,"ecefvAcc":0.42,"velN":0.361,"velE":-2.532,"velD":-0.012,"geoidSep":43.898,"eph":35.530,"sep":59.850}
{"class":"SKY","device":"/dev/ttyACM0","time":"2024-07-09T11:40:08.248Z","gdop":3.75,"hdop":1.87,"pdop":3.15,"tdop":2.02,"xdop":1.00,"ydop":2.54,"vdop":2.54,"nSat":14,"uSat":7,"satellites":[{"PRN":2,"gnssid":0,"svid":2,"az":283.0,"el":85.0,"ss":48.0,"used":true,"health":1},{"PRN":15,"gnssid":0,"svid":15,"az":0.0,"el":-9.0,"ss":0.0,"used":false,"health":1},{"PRN":28,"gnssid":0,"svid":28,"az":99.0,"el":7.0,"ss":31.0,"used":false,"health":1},{"PRN":11,"gnssid":0,"svid":11,"az":0.0,"el":-9.0,"ss":0.0,"used":false,"health":1},{"PRN":12,"gnssid":0,"svid":12,"az":0.0,"el":-9.0,"ss":0.0,"used":false,"health":1},{"PRN":17,"gnssid":0,"svid":17,"az":313.0,"el":26.0,"ss":46.0,"used":true,"health":1},{"PRN":14,"gnssid":0,"svid":14,"az":278.0,"el":16.0,"ss":38.0,"used":true,"health":1},{"PRN":8,"gnssid":0,"svid":8,"az":176.0,"el":25.0,"ss":27.0,"used":false,"health":1},{"PRN":3,"gnssid":0,"svid":3,"az":240.0,"el":41.0,"ss":47.0,"used":true,"health":1},{"PRN":32,"gnssid":0,"svid":32,"az":58.0,"el":37.0,"ss":46.0,"used":true,"health":1},{"PRN":10,"gnssid":0,"svid":10,"az":62.0,"el":11.0,"ss":32.0,"used":false,"health":1},{"PRN":21,"gnssid":0,"svid":21,"az":121.0,"el":75.0,"ss":47.0,"used":true,"health":1},{"PRN":22,"gnssid":0,"svid":22,"az":301.0,"el":19.0,"ss":39.0,"used":true,"health":1},{"PRN":19,"gnssid":0,"svid":19,"az":324.0,"el":2.0,"ss":0.0,"used":false,"health":1}]}
{"class":"TPV","device":"/dev/ttyACM0","mode":3,"time":"2024-07-09T11:40:08.500Z","leapseconds":18,"ept":0.005,"lat":52.315910814,"lon":10.562101209,"altHAE":135.6716,"altMSL":91.7735,"alt":91.7735,"epx":14.966,"epy":38.170,"epv":58.420,"track":277.1056,"magtrack":280.3251,"magvar":3.2,"speed":2.767,"climb":-0.012,"eps":0.41,"epc":463.65,"ecefx":3841082.26,"ecefy":716209.63,"ecefz":5024475.67,"ecefvx":0.23,"ecefvy":-2.75,"ecefvz":0.20,"ecefpAcc":3.96,"ecefvAcc":0.41,"velN":0.342,"velE":-2.746,"velD":0.012,"geoidSep":43.898,"eph":35.530,"sep":59.850}
{"class":"SKY","device":"/dev/ttyACM0","time":"2024-07-09T11:40:08.248Z","gdop":3.75,"hdop":1.87,"pdop":3.15,"tdop":2.02,"xdop":1.00,"ydop":2.54,"vdop":2.54,"uSat":6}
{"class":"SKY","device":"/dev/ttyACM0","time":"2024-07-09T11:40:08.248Z","gdop":3.75,"hdop":1.87,"pdop":3.15,"tdop":2.02,"xdop":1.00,"ydop":2.54,"vdop":2.54,"uSat":6}
{"class":"TPV","device":"/dev/ttyACM0","mode":3,"time":"2024-07-09T11:40:08.500Z","leapseconds":18,"ept":0.005,"lat":52.315910814,"lon":10.562101209,"altHAE":135.6716,"altMSL":91.7735,"alt":91.7735,"epx":14.966,"epy":38.170,"epv":58.420,"track":277.1056,"magtrack":280.3251,"magvar":3.2,"speed":2.767,"climb":-0.012,"eps":302.93,"epc":463.65,"ecefx":3841082.26,"ecefy":716209.63,"ecefz":5024475.67,"ecefvx":0.23,"ecefvy":-2.75,"ecefvz":0.20,"ecefpAcc":3.96,"ecefvAcc":0.41,"velN":0.342,"velE":-2.746,"velD":0.012,"geoidSep":43.898,"eph":35.530,"sep":59.850}
{"class":"SKY","device":"/dev/ttyACM0","time":"2024-07-09T11:40:08.500Z","gdop":3.75,"hdop":1.87,"pdop":3.15,"tdop":2.02,"xdop":1.00,"ydop":2.54,"vdop":2.54,"nSat":14,"uSat":7,"satellites":[{"PRN":2,"gnssid":0,"svid":2,"az":283.0,"el":85.0,"ss":48.0,"used":true,"health":1},{"PRN":15,"gnssid":0,"svid":15,"az":0.0,"el":-9.0,"ss":0.0,"used":false,"health":1},{"PRN":28,"gnssid":0,"svid":28,"az":99.0,"el":7.0,"ss":31.0,"used":false,"health":1},{"PRN":11,"gnssid":0,"svid":11,"az":0.0,"el":-9.0,"ss":0.0,"used":false,"health":1},{"PRN":12,"gnssid":0,"svid":12,"az":0.0,"el":-9.0,"ss":0.0,"used":false,"health":1},{"PRN":17,"gnssid":0,"svid":17,"az":313.0,"el":26.0,"ss":46.0,"used":true,"health":1},{"PRN":14,"gnssid":0,"svid":14,"az":278.0,"el":16.0,"ss":39.0,"used":true,"health":1},{"PRN":8,"gnssid":0,"svid":8,"az":176.0,"el":25.0,"ss":27.0,"used":false,"health":1},{"PRN":3,"gnssid":0,"svid":3,"az":240.0,"el":41.0,"ss":47.0,"used":true,"health":1},{"PRN":32,"gnssid":0,"svid":32,"az":58.0,"el":37.0,"ss":47.0,"used":true,"health":1},{"PRN":10,"gnssid":0,"svid":10,"az":62.0,"el":11.0,"ss":31.0,"used":false,"health":1},{"PRN":21,"gnssid":0,"svid":21,"az":121.0,"el":75.0,"ss":47.0,"used":true,"health":1},{"PRN":22,"gnssid":0,"svid":22,"az":301.0,"el":19.0,"ss":38.0,"used":true,"health":1},{"PRN":19,"gnssid":0,"svid":19,"az":324.0,"el":2.0,"ss":0.0,"used":false,"health":1}]}
{"class":"TPV","device":"/dev/ttyACM0","mode":3,"time":"2024-07-09T11:40:08.748Z","leapseconds":18,"ept":0.005,"lat":52.315911940,"lon":10.562090605,"altHAE":135.6633,"altMSL":91.7651,"alt":91.7651,"epx":14.966,"epy":38.170,"epv":58.420,"track":277.7824,"magtrack":281.0020,"magvar":3.2,"speed":3.024,"climb":-0.051,"eps":0.42,"epc":471.13,"ecefx":3841082.29,"ecefy":716208.90,"ecefz":5024475.74,"ecefvx":0.20,"ecefvy":-3.01,"ecefvz":0.21,"ecefpAcc":3.96,"ecefvAcc":0.42,"velN":0.409,"velE":-2.996,"velD":0.051,"geoidSep":43.898,"eph":35.530,"sep":59.850}
{"class":"SKY","device":"/dev/ttyACM0","time":"2024-07-09T11:40:08.500Z","gdop":3.75,"hdop":1.87,"pdop":3.15,"tdop":2.02,"xdop":1.00,"ydop":2.54,"vdop":2.54,"uSat":6}
{"class":"SKY","device":"/dev/ttyACM0","time":"2024-07-09T11:40:08.500Z","gdop":3.75,"hdop":1.87,"pdop":3.15,"tdop":2.02,"xdop":1.00,"ydop":2.54,"vdop":2.54,"uSat":6}
{"class":"TPV","device":"/dev/ttyACM0","mode":3,"time":"2024-07-09T11:40:08.748Z","leapseconds":18,"ept":0.005,"lat":52.315911940,"lon":10.562090605,"altHAE":135.6633,"altMSL":91.7651,"alt":91.7651,"epx":14.966,"epy":38.170,"epv":58.420,"track":277.7824,"magtrack":281.0020,"magvar":3.2,"speed":3.024,"climb":-0.051,"eps":307.82,"epc":471.13,"ecefx":3841082.29,"ecefy":716208.90,"ecefz":5024475.74,"ecefvx":0.20,"ecefvy":-3.01,"ecefvz":0.21,"ecefpAcc":3.96,"ecefvAcc":0.42,"velN":0.409,"velE":-2.996,"velD":0.051,"geoidSep":43.898,"eph":35.530,"sep":59.850}
{"class":"SKY","device":"/dev/ttyACM0","time":"2024-07-09T11:40:08.748Z","gdop":3.75,"hdop":1.87,"pdop":3.15,"tdop":2.02,"xdop":1.00,"ydop":2.54,"vdop":2.54,"nSat":14,"uSat":7,"satellites":[{"PRN":2,"gnssid":0,"svid":2,"az":283.0,"el":85.0,"ss":48.0,"used":true,"health":1},{"PRN":15,"gnssid":0,"svid":15,"az":0.0,"el":-9.0,"ss":0.0,"used":false,"health":1},{"PRN":28,"gnssid":0,"svid":28,"az":99.0,"el":7.0,"ss":34.0,"used":false,"health":1},{"PRN":11,"gnssid":0,"svid":11,"az":0.0,"el":-9.0,"ss":0.0,"used":false,"health":1},{"PRN":12,"gnssid":0,"svid":12,"az":0.0,"el":-9.0,"ss":0.0,"used":false,"health":1},{"PRN":17,"gnssid":0,"svid":17,"az":313.0,"el":26.0,"ss":46.0,"used":true,"health":1},{"PRN":14,"gnssid":0,"svid":14,"az":278.0,"el":16.0,"ss":39.0,"used":true,"health":1},{"PRN":8,"gnssid":0,"svid":8,"az":176.0,"el":25.0,"ss":27.0,"used":false,"health":1},{"PRN":3,"gnssid":0,"svid":3,"az":240.0,"el":41.0,"ss":47.0,"used":true,"health":1},{"PRN":32,"gnssid":0,"svid":32,"az":58.0,"el":37.0,"ss":47.0,"used":true,"health":1},{"PRN":10,"gnssid":0,"svid":10,"az":62.0,"el":11.0,"ss":33.0,"used":false,"health":1},{"PRN":21,"gnssid":0,"svid":21,"az":121.0,"el":75.0,"ss":47.0,"used":true,"health":1},{"PRN":22,"gnssid":0,"svid":22,"az":301.0,"el":19.0,"ss":38.0,"used":true,"health":1},{"PRN":19,"gnssid":0,"svid":19,"az":324.0,"el":2.0,"ss":0.0,"used":false,"health":1}]}
{"class":"TPV","device":"/dev/ttyACM0","mode":3,"time":"2024-07-09T11:40:09.000Z","leapseconds":18,"ept":0.005,"lat":52.315912920,"lon":10.562079029,"altHAE":135.6801,"altMSL":91.7819,"alt":91.7819,"epx":14.966,"epy":38.170,"epv":58.420,"track":276.4298,"magtrack":279.6494,"magvar":3.2,"speed":3.209,"climb":-0.025,"eps":0.41,"epc":463.65,"ecefx":3841082.36,"ecefy":716208.11,"ecefz":5024475.82,"ecefvx":0.29,"ecefvy":-3.19,"ecefvz":0.20,"ecefpAcc":3.96,"ecefvAcc":0.41,"velN":0.359,"velE":-3.189,"velD":0.025,"geoidSep":43.898,"eph":35.530,"sep":60.040}
{"class":"SKY","device":"/dev/ttyACM0","time":"2024-07-09T11:40:08.748Z","gdop":3.75,"hdop":1.87,"pdop":3.16,"tdop":2.02,"xdop":1.00,"ydop":2.54,"vdop":2.54,"uSat":6}
{"class":"SKY","device":"/dev/ttyACM0","time":"2024-07-09T11:40:08.748Z","gdop":3.75,"hdop":1.87,"pdop":3.16,"tdop":2.03,"xdop":1.00,"ydop":2.54,"vdop":2.54,"uSat":6}
{"class":"TPV","device":"/dev/ttyACM0","mode":3,"time":"2024-07-09T11:40:09.000Z","leapseconds":18,"ept":0.005,"lat":52.315912920,"lon":10.562079029,"altHAE":135.6801,"altMSL":91.7819,"alt":91.7819,"epx":14.966,"epy":38.170,"epv":58.420,"track":276.4298,"magtrack":279.6494,"magvar":3.2,"speed":3.209,"climb":-0.025,"eps":302.93,"epc":463.65,"ecefx":3841082.36,"ecefy":716208.11,"ecefz":5024475.82,"ecefvx":0.29,"ecefvy":-3.19,"ecefvz":0.20,"ecefpAcc":3.96,"ecefvAcc":0.41,"velN":0.359,"velE":-3.189,"velD":0.025,"geoidSep":43.898,"eph":35.530,"sep":60.040}
{"class":"SKY","device":"/dev/ttyACM0","time":"2024-07-09T11:40:09.000Z","gdop":3.75,"hdop":1.87,"pdop":3.16,"tdop":2.03,"xdop":1.00,"ydop":2.54,"vdop":2.54,"nSat":14,"uSat":7,"satellites":[{"PRN":2,"gnssid":0,"svid":2,"az":283.0,"el":85.0,"ss":49.0,"used":true,"health":1},{"PRN":15,"gnssid":0,"svid":15,"az":0.0,"el":-9.0,"ss":0.0,"used":false,"health":1},{"PRN":28,"gnssid":0,"svid":28,"az":99.0,"el":7.0,"ss":34.0,"used":false,"health":1},{"PRN":11,"gnssid":0,"svid":11,"az":0.0,"el":-9.0,"ss":0.0,"used":false,"health":1},{"PRN":12,"gnssid":0,"svid":12,"az":0.0,"el":-9.0,"ss":0.0,"used":false,"health":1},{"PRN":17,"gnssid":0,"svid":17,"az":313.0,"el":26.0,"ss":45.0,"used":true,"health":1},{"PRN":14,"gnssid":0,"svid":14,"az":278.0,"el":16.0,"ss":39.0,"used":true,"health":1},{"PRN":8,"gnssid":0,"svid":8,"az":176.0,"el":25.0,"ss":27.0,"used":false,"health":1},{"PRN":3,"gnssid":0,"svid":3,"az":240.0,"el":41.0,"ss":47.0,"used":true,"health":1},{"PRN":32,"gnssid":0,"svid":32,"az":58.0,"el":37.0,"ss":48.0,"used":true,"health":1},{"PRN":10,"gnssid":0,"svid":10,"az":62.0,"el":11.0,"ss":37.0,"used":false,"health":1},{"PRN":21,"gnssid":0,"svid":21,"az":121.0,"el":75.0,"ss":47.0,"used":true,"health":1},{"PRN":22,"gnssid":0,"svid":22,"az":301.0,"el":19.0,"ss":38.0,"used":true,"health":1},{"PRN":19,"gnssid":0,"svid":19,"az":324.0,"el":2.0,"ss":0.0,"used":false,"health":1}]}
{"class":"TPV","device":"/dev/ttyACM0","mode":3,"time":"2024-07-09T11:40:09.248Z","leapseconds":18,"ept":0.005,"lat":52.315913871,"lon":10.562067164,"altHAE":135.6868,"altMSL":91.7886,"alt":91.7886,"epx":14.966,"epy":38.170,"epv":58.420,"track":276.3575,"magtrack":279.5771,"magvar":3.2,"speed":3.319,"climb":-0.031,"eps":0.42,"epc":471.13,"ecefx":3841082.43,"ecefy":716207.30,"ecefz":5024475.89,"ecefvx":0.30,"ecefvy":-3.30,"ecefvz":0.20,"ecefpAcc":3.96,"ecefvAcc":0.42,"velN":0.368,"velE":-3.299,"velD":0.031,"geoidSep":43.898,"eph":35.530,"sep":59.850}
{"class":"SKY","device":"/dev/ttyACM0","time":"2024-07-09T11:40:09.000Z","gdop":3.75,"hdop":1.87,"pdop":3.15,"tdop":2.03,"xdop":1.00,"ydop":2.54,"vdop":2.54,"uSat":6}
{"class":"SKY","device":"/dev/ttyACM0","time":"2024-07-09T11:40:09.000Z","gdop":3.75,"hdop":1.87,"pdop":3.15,"tdop":2.02,"xdop":1.00,"ydop":2.54,"vdop":2.54,"uSat":6}
{"class":"TPV","device":"/dev/ttyACM0","mode":3,"time":"2024-07-09T11:40:09.248Z","leapseconds":18,"ept":0.005,"lat":52.315913871,"lon":10.562067164,"altHAE":135.6868,"altMSL":91.7886,"alt":91.7886,"epx":14.966,"epy":38.170,"epv":58.420,"track":276.3575,"magtrack":279.5771,"magvar":3.2,"speed":3.319,"climb":-0.031,"eps":307.82,"epc":471.13,"ecefx":3841082.43,"ecefy":716207.30,"ecefz":5024475.89,"ecefvx":0.30,"ecefvy":-3.30,"ecefvz":0.20,"ecefpAcc":3.96,"ecefvAcc":0.42,"velN":0.368,"velE":-3.299,"velD":0.031,"geoidSep":43.898,"eph":35.530,"sep":59.850}
{"class":"SKY","device":"/dev/ttyACM0","time":"2024-07-09T11:40:09.248Z","gdop":3.75,"hdop":1.87,"pdop":3.15,"tdop":2.02,"xdop":1.00,"ydop":2.54,"vdop":2.54,"nSat":14,"uSat":7,"satellites":[{"PRN":2,"gnssid":0,"svid":2,"az":283.0,"el":85.0,"ss":48.0,"used":true,"health":1},{"PRN":15,"gnssid":0,"svid":15,"az":0.0,"el":-9.0,"ss":0.0,"used":false,"health":1},{"PRN":28,"gnssid":0,"svid":28,"az":99.0,"el":7.0,"ss":35.0,"used":false,"health":1},{"PRN":11,"gnssid":0,"svid":11,"az":0.0,"el":-9.0,"ss":0.0,"used":false,"health":1},{"PRN":12,"gnssid":0,"svid":12,"az":0.0,"el":-9.0,"ss":0.0,"used":false,"health":1},{"PRN":17,"gnssid":0,"svid":17,"az":313.0,"el":26.0,"ss":45.0,"used":true,"health":1},{"PRN":14,"gnssid":0,"svid":14,"az":278.0,"el":16.0,"ss":39.0,"used":true,"health":1},{"PRN":8,"gnssid":0,"svid":8,"az":176.0,"el":25.0,"ss":0.0,"used":false,"health":1},{"PRN":3,"gnssid":0,"svid":3,"az":240.0,"el":41.0,"ss":47.0,"used":true,"health":1},{"PRN":32,"gnssid":0,"svid":32,"az":58.0,"el":37.0,"ss":47.0,"used":true,"health":1},{"PRN":10,"gnssid":0,"svid":10,"az":62.0,"el":11.0,"ss":39.0,"used":false,"health":1},{"PRN":21,"gnssid":0,"svid":21,"az":121.0,"el":75.0,"ss":47.0,"used":true,"health":1},{"PRN":22,"gnssid":0,"svid":22,"az":301.0,"el":19.0,"ss":37.0,"used":true,"health":1},{"PRN":19,"gnssid":0,"svid":19,"az":324.0,"el":2.0,"ss":0.0,"used":false,"health":1}]}
{"class":"TPV","device":"/dev/ttyACM0","mode":3,"time":"2024-07-09T11:40:09.500Z","leapseconds":18,"ept":0.005,"lat":52.315914848,"lon":10.562054606,"altHAE":135.6661,"altMSL":91.7679,"alt":91.7679,"epx":14.966,"epy":38.170,"epv":58.420,"track":277.2740,"magtrack":280.4936,"magvar":3.2,"speed":3.477,"climb":-0.049,"eps":0.41,"epc":463.65,"ecefx":3841082.49,"ecefy":716206.44,"ecefz":5024475.94,"ecefvx":0.26,"ecefvy":-3.46,"ecefvz":0.23,"ecefpAcc":3.97,"ecefvAcc":0.41,"velN":0.440,"velE":-3.449,"velD":0.049,"geoidSep":43.898,"eph":35.530,"sep":59.850}
{"class":"SKY","device":"/dev/ttyACM0","time":"2024-07-09T11:40:09.248Z","gdop":3.75,"hdop":1.87,"pdop":3.15,"tdop":2.02,"xdop":1.00,"ydop":2.54,"vdop":2.54,"uSat":6}
{"class":"SKY","device":"/dev/ttyACM0","time":"2024-07-09T11:40:09.248Z","gdop":3.75,"hdop":1.87,"pdop":3.15,"tdop":2.02,"xdop":1.00,"ydop":2.54,"vdop":2.54,"uSat":6}
{"class":"TPV","device":"/dev/ttyACM0","mode":3,"time":"2024-07-09T11:40:09.500Z","leapseconds":18,"ept":0.005,"lat":52.315914848,"lon":10.562054606,"altHAE":135.6661,"altMSL":91.7679,"alt":91.7679,"epx":14.966,"epy":38.170,"epv":58.420,"track":277.2740,"magtrack":280.4936,"magvar":3.2,"speed":3.477,"climb":-0.049,"eps":302.93,"epc":463.65,"ecefx":3841082.49,"ecefy":716206.44,"ecefz":5024475.94,"ecefvx":0.26,"ecefvy":-3.46,"ecefvz":0.23,"ecefpAcc":3.97,"ecefvAcc":0.41,"velN":0.440,"velE":-3.449,"velD":0.049,"geoidSep":43.898,"eph":35.530,"sep":59.850}
{"class":"SKY","device":"/dev/ttyACM0","time":"2024-07-09T11:40:09.500Z","gdop":3.75,"hdop":1.87,"pdop":3.15,"tdop":2.02,"xdop":1.00,"ydop":2.54,"vdop":2.54,"nSat":14,"uSat":7,"satellites":[{"PRN":2,"gnssid":0,"svid":2,"az":283.0,"el":85.0,"ss":49.0,"used":true,"health":1},{"PRN":15,"gnssid":0,"svid":15,"az":0.0,"el":-9.0,"ss":0.0,"used":false,"health":1},{"PRN":28,"gnssid":0,"svid":28,"az":99.0,"el":7.0,"ss":35.0,"used":false,"health":1},{"PRN":11,"gnssid":0,"svid":11,"az":0.0,"el":-9.0,"ss":0.0,"used":false,"health":1},{"PRN":12,"gnssid":0,"svid":12,"az":0.0,"el":-9.0,"ss":0.0,"used":false,"health":1},{"PRN":17,"gnssid":0,"svid":17,"az":313.0,"el":26.0,"ss":46.0,"used":true,"health":1},{"PRN":14,"gnssid":0,"svid":14,"az":278.0,"el":16.0,"ss":39.0,"used":true,"health":1},{"PRN":8,"gnssid":0,"svid":8,"az":176.0,"el":25.0,"ss":0.0,"used":false,"health":1},{"PRN":3,"gnssid":0,"svid":3,"az":240.0,"el":41.0,"ss":47.0,"used":true,"health":1},{"PRN":32,"gnssid":0,"svid":32,"az":58.0,"el":37.0,"ss":47.0,"used":true,"health":1},{"PRN":10,"gnssid":0,"svid":10,"az":62.0,"el":11.0,"ss":40.0,"used":false,"health":1},{"PRN":21,"gnssid":0,"svid":21,"az":121.0,"el":75.0,"ss":47.0,"used":true,"health":1},{"PRN":22,"gnssid":0,"svid":22,"az":301.0,"el":19.0,"ss":36.0,"used":true,"health":1},{"PRN":19,"gnssid":0,"svid":19,"az":324.0,"el":2.0,"ss":0.0,"used":false,"health":1}]}
{"class":"TPV","device":"/dev/ttyACM0","mode":3,"time":"2024-07-09T11:40:09.748Z","leapseconds":18,"ept":0.005,"lat":52.315916094,"lon":10.562041300,"altHAE":135.6853,"altMSL":91.7871,"alt":91.7871,"epx":14.966,"epy":38.170,"epv":58.420,"track":276.8477,"magtrack":280.0673,"magvar":3.2,"speed":3.770,"climb":-0.044,"eps":0.42,"epc":471.13,"ecefx":3841082.56,"ecefy":716205.53,"ecefz":5024476.04,"ecefvx":0.31,"ecefvy":-3.75,"ecefvz":0.24,"ecefpAcc":3.97,"ecefvAcc":0.42,"velN":0.450,"velE":-3.743,"velD":0.044,"geoidSep":43.898,"eph":35.530,"sep":59.850}
{"class":"SKY","device":"/dev/ttyACM0","time":"2024-07-09T11:40:09.500Z","gdop":3.75,"hdop":1.87,"pdop":3.15,"tdop":2.02,"xdop":1.00,"ydop":2.54,"vdop":2.54,"uSat":6}
