{"class":"VERSION","release":"3.25","rev":"3.25","proto_major":3,"proto_minor":15}
{"class":"DEVICES","devices":[{"class":"DEVICE","path":"/dev/ttyACM0","driver":"u-blox","subtype":"SW 5.00    May 11 2006 14:40:17,HW 00040001","subtype1":"M4T1.2  May 11 2006 14:40:17","activated":"2024-07-09T11:37:38.898Z","flags":1,"native":1,"bps":57600,"parity":"N","stopbits":1,"cycle":1.00,"mincycle":0.02}]}
{"class":"WATCH","enable":true,"json":true,"nmea":false,"raw":0,"scaled":false,"timing":false,"split24":false,"pps":false}
{"class":"TPV","device":"/dev/ttyACM0","mode":3,"time":"2024-07-09T11:35:52.000Z","leapseconds":18,"ept":0.005,"lat":52.316230345,"lon":10.560737886,"altHAE":133.7439,"altMSL":89.8450,"alt":89.8450,"epx":14.966,"epy":38.170,"epv":38.640,"track":268.9369,"magtrack":272.1561,"magvar":3.2,"speed":0.012,"climb":0.013,"eps":0.33,"epc":307.58,"ecefx":3841070.48,"ecefy":716112.86,"ecefz":5024495.88,"ecefvx":0.01,"ecefvy":-0.01,"ecefvz":0.01,"ecefpAcc":4.24,"ecefvAcc":0.33,"velN":0.000,"velE":-0.012,"velD":-0.013,"geoidSep":43.899,"eph":21.090,"sep":38.190}
{"class":"SKY","device":"/dev/ttyACM0","time":"2024-07-09T11:35:51.748Z","gdop":2.34,"hdop":1.11,"pdop":2.01,"tdop":1.18,"xdop":1.00,"ydop":2.54,"vdop":1.68,"uSat":6}
{"class":"SKY","device":"/dev/ttyACM0","time":"2024-07-09T11:35:51.748Z","gdop":2.34,"hdop":1.11,"pdop":2.01,"tdop":1.18,"xdop":1.00,"ydop":2.54,"vdop":1.68,"uSat":6}
{"class":"TPV","device":"/dev/ttyACM0","mode":3,"time":"2024-07-09T11:35:52.000Z","leapseconds":18,"ept":0.005,"lat":52.316230345,"lon":10.560737886,"altHAE":133.7439,"altMSL":89.8450,"alt":89.8450,"epx":14.966,"epy":38.170,"epv":38.640,"track":268.9369,"magtrack":272.1561,"magvar":3.2,"speed":0.012,"climb":0.013,"eps":302.93,"epc":307.58,"ecefx":3841070.48,"ecefy":716112.86,"ecefz":5024495.88,"ecefvx":0.01,"ecefvy":-0.01,"ecefvz":0.01,"ecefpAcc":4.24,"ecefvAcc":0.33,"velN":0.000,"velE":-0.012,"velD":-0.013,"geoidSep":43.899,"eph":21.090,"sep":38.190}
{"class":"SKY","device":"/dev/ttyACM0","time":"2024-07-09T11:35:52.000Z","gdop":2.34,"hdop":1.11,"pdop":2.01,"tdop":1.18,"xdop":1.00,"ydop":2.54,"vdop":1.68,"nSat":14,"uSat":8,"satellites":[{"PRN":2,"gnssid":0,"svid":2,"az":288.0,"el":83.0,"ss":47.0,"used":true,"health":1},{"PRN":28,"gnssid":0,"svid":28,"az":0.0,"el":-9.0,"ss":0.0,"used":false,"health":1},{"PRN":37,"gnssid":1,"svid":124,"az":0.0,"el":-9.0,"ss":0.0,"used":false,"health":1},{"PRN":12,"gnssid":0,"svid":12,"az":0.0,"el":-9.0,"ss":0.0,"used":false,"health":1},{"PRN":29,"gnssid":0,"svid":29,"az":0.0,"el":-9.0,"ss":0.0,"used":false,"health":1},{"PRN":17,"gnssid":0,"svid":17,"az":314.0,"el":24.0,"ss":46.0,"used":true,"health":1},{"PRN":14,"gnssid":0,"svid":14,"az":279.0,"el":17.0,"ss":39.0,"used":true,"health":1},{"PRN":8,"gnssid":0,"svid":8,"az":176.0,"el":27.0,"ss":40.0,"used":true,"health":1},{"PRN":3,"gnssid":0,"svid":3,"az":239.0,"el":39.0,"ss":44.0,"used":true,"health":1},{"PRN":32,"gnssid":0,"svid":32,"az":60.0,"el":38.0,"ss":48.0,"used":true,"health":1},{"PRN":10,"gnssid":0,"svid":10,"az":0.0,"el":-9.0,"ss":23.0,"used":false,"health":1},{"PRN":21,"gnssid":0,"svid":21,"az":119.0,"el":77.0,"ss":47.0,"used":true,"health":1},{"PRN":22,"gnssid":0,"svid":22,"az":303.0,"el":19.0,"ss":41.0,"used":true,"health":1},{"PRN":19,"gnssid":0,"svid":19,"az":324.0,"el":1.0,"ss":28.0,"used":false,"health":1}]}
{"class":"TPV","device":"/dev/ttyACM0","mode":3,"time":"2024-07-09T11:35:52.248Z","leapseconds":18,"ept":0.005,"lat":52.316230192,"lon":10.560737976,"altHAE":133.7570,"altMSL":89.8581,"alt":89.8581,"epx":14.966,"epy":38.170,"epv":38.640,"track":307.5740,"magtrack":310.7932,"magvar":3.2,"speed":0.012,"climb":0.007,"eps":0.33,"epc":311.61,"ecefx":3841070.50,"ecefy":716112.87,"ecefz":5024495.88,"ecefvx":0.00,"ecefvy":-0.01,"ecefvz":0.01,"ecefpAcc":4.24,"ecefvAcc":0.33,"velN":0.008,"velE":-0.010,"velD":-0.007,"geoidSep":43.899,"eph":21.090,"sep":38.380}
{"class":"SKY","device":"/dev/ttyACM0","time":"2024-07-09T11:35:52.000Z","gdop":2.34,"hdop":1.11,"pdop":2.02,"tdop":1.18,"xdop":1.00,"ydop":2.54,"vdop":1.68,"uSat":6}
{"class":"SKY","device":"/dev/ttyACM0","time":"2024-07-09T11:35:52.000Z","gdop":2.34,"hdop":1.11,"pdop":2.02,"tdop":1.18,"xdop":1.00,"ydop":2.54,"vdop":1.68,"uSat":6}
{"class":"TPV","device":"/dev/ttyACM0","mode":3,"time":"2024-07-09T11:35:52.248Z","leapseconds":18,"ept":0.005,"lat":52.316230192,"lon":10.560737976,"altHAE":133.7570,"altMSL":89.8581,"alt":89.8581,"epx":14.966,"epy":38.170,"epv":38.640,"track":307.5740,"magtrack":310.7932,"magvar":3.2,"speed":0.012,"climb":0.007,"eps":307.82,"epc":311.61,"ecefx":3841070.50,"ecefy":716112.87,"ecefz":5024495.88,"ecefvx":0.00,"ecefvy":-0.01,"ecefvz":0.01,"ecefpAcc":4.24,"ecefvAcc":0.33,"velN":0.008,"velE":-0.010,"velD":-0.007,"geoidSep":43.899,"eph":21.090,"sep":38.380}
{"class":"SKY","device":"/dev/ttyACM0","time":"2024-07-09T11:35:52.248Z","gdop":2.34,"hdop":1.11,"pdop":2.02,"tdop":1.18,"xdop":1.00,"ydop":2.54,"vdop":1.68,"nSat":14,"uSat":8,"satellites":[{"PRN":2,"gnssid":0,"svid":2,"az":288.0,"el":83.0,"ss":47.0,"used":true,"health":1},{"PRN":28,"gnssid":0,"svid":28,"az":0.0,"el":-9.0,"ss":0.0,"used":false,"health":1},{"PRN":37,"gnssid":1,"svid":124,"az":0.0,"el":-9.0,"ss":0.0,"used":false,"health":1},{"PRN":12,"gnssid":0,"svid":12,"az":0.0,"el":-9.0,"ss":0.0,"used":false,"health":1},{"PRN":29,"gnssid":0,"svid":29,"az":0.0,"el":-9.0,"ss":0.0,"used":false,"health":1},{"PRN":17,"gnssid":0,"svid":17,"az":314.0,"el":24.0,"ss":46.0,"used":true,"health":1},{"PRN":14,"gnssid":0,"svid":14,"az":279.0,"el":17.0,"ss":39.0,"used":true,"health":1},{"PRN":8,"gnssid":0,"svid":8,"az":176.0,"el":27.0,"ss":40.0,"used":true,"health":1},{"PRN":3,"gnssid":0,"svid":3,"az":239.0,"el":39.0,"ss":44.0,"used":true,"health":1},{"PRN":32,"gnssid":0,"svid":32,"az":60.0,"el":38.0,"ss":48.0,"used":true,"health":1},{"PRN":10,"gnssid":0,"svid":10,"az":0.0,"el":-9.0,"ss":23.0,"used":false,"health":1},{"PRN":21,"gnssid":0,"svid":21,"az":119.0,"el":77.0,"ss":47.0,"used":true,"health":1},{"PRN":22,"gnssid":0,"svid":22,"az":303.0,"el":19.0,"ss":41.0,"used":true,"health":1},{"PRN":19,"gnssid":0,"svid":19,"az":324.0,"el":1.0,"ss":28.0,"used":false,"health":1}]}
{"class":"TPV","device":"/dev/ttyACM0","mode":3,"time":"2024-07-09T11:35:52.500Z","leapseconds":18,"ept":0.005,"lat":52.316230053,"lon":10.560737922,"altHAE":133.7691,"altMSL":89.8702,"alt":89.8702,"epx":14.966,"epy":38.170,"epv":38.640,"track":119.3404,"magtrack":122.5596,"magvar":3.2,"speed":0.034,"climb":-0.012,"eps":0.33,"epc":306.67,"ecefx":3841070.52,"ecefy":716112.87,"ecefz":5024495.88,"ecefvx":0.00,"ecefvy":0.03,"ecefvz":-0.02,"ecefpAcc":4.23,"ecefvAcc":0.33,"velN":-0.017,"velE":0.029,"velD":0.012,"geoidSep":43.899,"eph":21.090,"sep":38.380}
{"class":"SKY","device":"/dev/ttyACM0","time":"2024-07-09T11:35:52.248Z","gdop":2.34,"hdop":1.11,"pdop":2.02,"tdop":1.18,"xdop":1.00,"ydop":2.54,"vdop":1.68,"uSat":6}
{"class":"SKY","device":"/dev/ttyACM0","time":"2024-07-09T11:35:52.248Z","gdop":2.34,"hdop":1.11,"pdop":2.02,"tdop":1.18,"xdop":1.00,"ydop":2.54,"vdop":1.68,"uSat":6}
{"class":"TPV","device":"/dev/ttyACM0","mode":3,"time":"2024-07-09T11:35:52.500Z","leapseconds":18,"ept":0.005,"lat":52.316230053,"lon":10.560737922,"altHAE":133.7691,"altMSL":89.8702,"alt":89.8702,"epx":14.966,"epy":38.170,"epv":38.640,"track":119.3404,"magtrack":122.5596,"magvar":3.2,"speed":0.034,"climb":-0.012,"eps":302.93,"epc":306.67,"ecefx":3841070.52,"ecefy":716112.87,"ecefz":5024495.88,"ecefvx":0.00,"ecefvy":0.03,"ecefvz":-0.02,"ecefpAcc":4.23,"ecefvAcc":0.33,"velN":-0.017,"velE":0.029,"velD":0.012,"geoidSep":43.899,"eph":21.090,"sep":38.380}
{"class":"SKY","device":"/dev/ttyACM0","time":"2024-07-09T11:35:52.500Z","gdop":2.34,"hdop":1.11,"pdop":2.02,"tdop":1.18,"xdop":1.00,"ydop":2.54,"vdop":1.68,"nSat":14,"uSat":8,"satellites":[{"PRN":2,"gnssid":0,"svid":2,"az":288.0,"el":83.0,"ss":47.0,"used":true,"health":1},{"PRN":28,"gnssid":0,"svid":28,"az":0.0,"el":-9.0,"ss":0.0,"used":false,"health":1},{"PRN":37,"gnssid":1,"svid":124,"az":0.0,"el":-9.0,"ss":0.0,"used":false,"health":1},{"PRN":12,"gnssid":0,"svid":12,"az":0.0,"el":-9.0,"ss":0.0,"used":false,"health":1},{"PRN":29,"gnssid":0,"svid":29,"az":0.0,"el":-9.0,"ss":0.0,"used":false,"health":1},{"PRN":17,"gnssid":0,"svid":17,"az":314.0,"el":24.0,"ss":46.0,"used":true,"health":1},{"PRN":14,"gnssid":0,"svid":14,"az":279.0,"el":17.0,"ss":40.0,"used":true,"health":1},{"PRN":8,"gnssid":0,"svid":8,"az":176.0,"el":27.0,"ss":40.0,"used":true,"health":1},{"PRN":3,"gnssid":0,"svid":3,"az":239.0,"el":39.0,"ss":44.0,"used":true,"health":1},{"PRN":32,"gnssid":0,"svid":32,"az":60.0,"el":38.0,"ss":48.0,"used":true,"health":1},{"PRN":10,"gnssid":0,"svid":10,"az":0.0,"el":-9.0,"ss":23.0,"used":false,"health":1},{"PRN":21,"gnssid":0,"svid":21,"az":119.0,"el":77.0,"ss":47.0,"used":true,"health":1},{"PRN":22,"gnssid":0,"svid":22,"az":303.0,"el":19.0,"ss":41.0,"used":true,"health":1},{"PRN":19,"gnssid":0,"svid":19,"az":324.0,"el":1.0,"ss":28.0,"used":false,"health":1}]}
{"class":"TPV","device":"/dev/ttyACM0","mode":3,"time":"2024-07-09T11:35:52.748Z","leapseconds":18,"ept":0.005,"lat":52.316229860,"lon":10.560738039,"altHAE":133.7604,"altMSL":89.8615,"alt":89.8615,"epx":14.966,"epy":38.170,"epv":38.640,"track":180.0000,"magtrack":183.2192,"magvar":3.2,"speed":0.006,"climb":-0.008,"eps":0.33,"epc":311.61,"ecefx":3841070.53,"ecefy":716112.88,"ecefz":5024495.86,"ecefvx":0.00,"ecefvy":0.00,"ecefvz":-0.01,"ecefpAcc":4.23,"ecefvAcc":0.33,"velN":-0.006,"velE":0.000,"velD":0.008,"geoidSep":43.899,"eph":21.090,"sep":38.380}
{"class":"SKY","device":"/dev/ttyACM0","time":"2024-07-09T11:35:52.500Z","gdop":2.34,"hdop":1.11,"pdop":2.02,"tdop":1.18,"xdop":1.00,"ydop":2.54,"vdop":1.68,"uSat":6}
{"class":"SKY","device":"/dev/ttyACM0","time":"2024-07-09T11:35:52.500Z","gdop":2.34,"hdop":1.11,"pdop":2.02,"tdop":1.18,"xdop":1.00,"ydop":2.54,"vdop":1.68,"uSat":6}
{"class":"TPV","device":"/dev/ttyACM0","mode":3,"time":"2024-07-09T11:35:52.748Z","leapseconds":18,"ept":0.005,"lat":52.316229860,"lon":10.560738039,"altHAE":133.7604,"altMSL":89.8615,"alt":89.8615,"epx":14.966,"epy":38.170,"epv":38.640,"track":180.0000,"magtrack":183.2192,"magvar":3.2,"speed":0.006,"climb":-0.008,"eps":307.82,"epc":311.61,"ecefx":3841070.53,"ecefy":716112.88,"ecefz":5024495.86,"ecefvx":0.00,"ecefvy":0.00,"ecefvz":-0.01,"ecefpAcc":4.23,"ecefvAcc":0.33,"velN":-0.006,"velE":0.000,"velD":0.008,"geoidSep":43.899,"eph":21.090,"sep":38.380}
{"class":"SKY","device":"/dev/ttyACM0","time":"2024-07-09T11:35:52.748Z","gdop":2.34,"hdop":1.11,"pdop":2.02,"tdop":1.18,"xdop":1.00,"ydop":2.54,"vdop":1.68,"nSat":14,"uSat":8,"satellites":[{"PRN":2,"gnssid":0,"svid":2,"az":288.0,"el":83.0,"ss":47.0,"used":true,"health":1},{"PRN":28,"gnssid":0,"svid":28,"az":0.0,"el":-9.0,"ss":0.0,"used":false,"health":1},{"PRN":37,"gnssid":1,"svid":124,"az":0.0,"el":-9.0,"ss":0.0,"used":false,"health":1},{"PRN":12,"gnssid":0,"svid":12,"az":0.0,"el":-9.0,"ss":0.0,"used":false,"health":1},{"PRN":29,"gnssid":0,"svid":29,"az":0.0,"el":-9.0,"ss":0.0,"used":false,"health":1},{"PRN":17,"gnssid":0,"svid":17,"az":314.0,"el":24.0,"ss":46.0,"used":true,"health":1},{"PRN":14,"gnssid":0,"svid":14,"az":279.0,"el":17.0,"ss":40.0,"used":true,"health":1},{"PRN":8,"gnssid":0,"svid":8,"az":176.0,"el":27.0,"ss":40.0,"used":true,"health":1},{"PRN":3,"gnssid":0,"svid":3,"az":239.0,"el":39.0,"ss":45.0,"used":true,"health":1},{"PRN":32,"gnssid":0,"svid":32,"az":60.0,"el":38.0,"ss":48.0,"used":true,"health":1},{"PRN":10,"gnssid":0,"svid":10,"az":0.0,"el":-9.0,"ss":22.0,"used":false,"health":1},{"PRN":21,"gnssid":0,"svid":21,"az":119.0,"el":77.0,"ss":47.0,"used":true,"health":1},{"PRN":22,"gnssid":0,"svid":22,"az":303.0,"el":19.0,"ss":41.0,"used":true,"health":1},{"PRN":19,"gnssid":0,"svid":19,"az":324.0,"el":1.0,"ss":28.0,"used":false,"health":1}]}
{"class":"TPV","device":"/dev/ttyACM0","mode":3,"time":"2024-07-09T11:35:53.000Z","leapseconds":18,"ept":0.005,"lat":52.316229652,"lon":10.560738130,"altHAE":133.7656,"altMSL":89.8667,"alt":89.8667,"epx":14.966,"epy":38.170,"epv":38.640,"track":291.2945,"magtrack":294.5137,"magvar":3.2,"speed":0.009,"climb":-0.015,"eps":0.33,"epc":306.67,"ecefx":3841070.55,"ecefy":716112.89,"ecefz":5024495.85,"ecefvx":-0.01,"ecefvy":-0.01,"ecefvz":-0.01,"ecefpAcc":4.23,"ecefvAcc":0.33,"velN":0.003,"velE":-0.008,"velD":0.015,"geoidSep":43.899,"eph":21.090,"sep":38.380}
{"class":"SKY","device":"/dev/ttyACM0","time":"2024-07-09T11:35:52.748Z","gdop":2.34,"hdop":1.11,"pdop":2.02,"tdop":1.18,"xdop":1.00,"ydop":2.54,"vdop":1.68,"uSat":6}
{"class":"SKY","device":"/dev/ttyACM0","time":"2024-07-09T11:35:52.748Z","gdop":2.34,"hdop":1.11,"pdop":2.02,"tdop":1.18,"xdop":1.00,"ydop":2.54,"vdop":1.68,"uSat":6}
{"class":"TPV","device":"/dev/ttyACM0","mode":3,"time":"2024-07-09T11:35:53.000Z","leapseconds":18,"ept":0.005,"lat":52.316229652,"lon":10.560738130,"altHAE":133.7656,"altMSL":89.8667,"alt":89.8667,"epx":14.966,"epy":38.170,"epv":38.640,"track":291.2945,"magtrack":294.5137,"magvar":3.2,"speed":0.009,"climb":-0.015,"eps":302.93,"epc":306.67,"ecefx":3841070.55,"ecefy":716112.89,"ecefz":5024495.85,"ecefvx":-0.01,"ecefvy":-0.01,"ecefvz":-0.01,"ecefpAcc":4.23,"ecefvAcc":0.33,"velN":0.003,"velE":-0.008,"velD":0.015,"geoidSep":43.899,"eph":21.090,"sep":38.380}
{"class":"SKY","device":"/dev/ttyACM0","time":"2024-07-09T11:35:53.000Z","gdop":2.34,"hdop":1.11,"pdop":2.02,"tdop":1.18,"xdop":1.00,"ydop":2.54,"vdop":1.68,"nSat":14,"uSat":8,"satellites":[{"PRN":2,"gnssid":0,"svid":2,"az":288.0,"el":83.0,"ss":47.0,"used":true,"health":1},{"PRN":28,"gnssid":0,"svid":28,"az":0.0,"el":-9.0,"ss":0.0,"used":false,"health":1},{"PRN":37,"gnssid":1,"svid":124,"az":0.0,"el":-9.0,"ss":0.0,"used":false,"health":1},{"PRN":12,"gnssid":0,"svid":12,"az":0.0,"el":-9.0,"ss":0.0,"used":false,"health":1},{"PRN":5,"gnssid":0,"svid":5,"az":0.0,"el":-9.0,"ss":0.0,"used":false,"health":1},{"PRN":17,"gnssid":0,"svid":17,"az":314.0,"el":24.0,"ss":46.0,"used":true,"health":1},{"PRN":14,"gnssid":0,"svid":14,"az":279.0,"el":17.0,"ss":39.0,"used":true,"health":1},{"PRN":8,"gnssid":0,"svid":8,"az":176.0,"el":27.0,"ss":40.0,"used":true,"health":1},{"PRN":3,"gnssid":0,"svid":3,"az":239.0,"el":39.0,"ss":45.0,"used":true,"health":1},{"PRN":32,"gnssid":0,"svid":32,"az":60.0,"el":38.0,"ss":48.0,"used":true,"health":1},{"PRN":10,"gnssid":0,"svid":10,"az":0.0,"el":-9.0,"ss":21.0,"used":false,"health":1},{"PRN":21,"gnssid":0,"svid":21,"az":119.0,"el":77.0,"ss":47.0,"used":true,"health":1},{"PRN":22,"gnssid":0,"svid":22,"az":303.0,"el":19.0,"ss":40.0,"used":true,"health":1},{"PRN":19,"gnssid":0,"svid":19,"az":324.0,"el":1.0,"ss":28.0,"used":false,"health":1}]}
{"class":"TPV","device":"/dev/ttyACM0","mode":3,"time":"2024-07-09T11:35:53.248Z","leapseconds":18,"ept":0.005,"lat":52.316229512,"lon":10.560738076,"altHAE":133.7776,"altMSL":89.8787,"alt":89.8787,"epx":14.966,"epy":38.170,"epv":38.640,"track":91.7578,"magtrack":94.9770,"magvar":3.2,"speed":0.033,"climb":-0.024,"eps":0.33,"epc":311.61,"ecefx":3841070.57,"ecefy":716112.89,"ecefz":5024495.85,"ecefvx":-0.02,"ecefvy":0.03,"ecefvz":-0.02,"ecefpAcc":4.22,"ecefvAcc":0.33,"velN":-0.001,"velE":0.033,"velD":0.024,"geoidSep":43.899,"eph":21.090,"sep":38.380}
{"class":"SKY","device":"/dev/ttyACM0","time":"2024-07-09T11:35:53.000Z","gdop":2.34,"hdop":1.11,"pdop":2.02,"tdop":1.18,"xdop":1.00,"ydop":2.54,"vdop":1.68,"uSat":6}
{"class":"SKY","device":"/dev/ttyACM0","time":"2024-07-09T11:35:53.000Z","gdop":2.34,"hdop":1.11,"pdop":2.02,"tdop":1.18,"xdop":1.00,"ydop":2.54,"vdop":1.68,"uSat":6}
{"class":"TPV","device":"/dev/ttyACM0","mode":3,"time":"2024-07-09T11:35:53.248Z","leapseconds":18,"ept":0.005,"lat":52.316229512,"lon":10.560738076,"altHAE":133.7776,"altMSL":89.8787,"alt":89.8787,"epx":14.966,"epy":38.170,"epv":38.640,"track":91.7578,"magtrack":94.9770,"magvar":3.2,"speed":0.033,"climb":-0.024,"eps":307.82,"epc":311.61,"ecefx":3841070.57,"ecefy":716112.89,"ecefz":5024495.85,"ecefvx":-0.02,"ecefvy":0.03,"ecefvz":-0.02,"ecefpAcc":4.22,"ecefvAcc":0.33,"velN":-0.001,"velE":0.033,"velD":0.024,"geoidSep":43.899,"eph":21.090,"sep":38.380}
{"class":"SKY","device":"/dev/ttyACM0","time":"2024-07-09T11:35:53.248Z","gdop":2.34,"hdop":1.11,"pdop":2.02,"tdop":1.18,"xdop":1.00,"ydop":2.54,"vdop":1.68,"nSat":14,"uSat":8,"satellites":[{"PRN":2,"gnssid":0,"svid":2,"az":288.0,"el":83.0,"ss":47.0,"used":true,"health":1},{"PRN":28,"gnssid":0,"svid":28,"az":0.0,"el":-9.0,"ss":0.0,"used":false,"health":1},{"PRN":37,"gnssid":1,"svid":124,"az":0.0,"el":-9.0,"ss":0.0,"used":false,"health":1},{"PRN":12,"gnssid":0,"svid":12,"az":0.0,"el":-9.0,"ss":0.0,"used":false,"health":1},{"PRN":5,"gnssid":0,"svid":5,"az":0.0,"el":-9.0,"ss":0.0,"used":false,"health":1},{"PRN":17,"gnssid":0,"svid":17,"az":314.0,"el":24.0,"ss":46.0,"used":true,"health":1},{"PRN":14,"gnssid":0,"svid":14,"az":279.0,"el":17.0,"ss":40.0,"used":true,"health":1},{"PRN":8,"gnssid":0,"svid":8,"az":176.0,"el":27.0,"ss":40.0,"used":true,"health":1},{"PRN":3,"gnssid":0,"svid":3,"az":239.0,"el":39.0,"ss":45.0,"used":true,"health":1},{"PRN":32,"gnssid":0,"svid":32,"az":60.0,"el":38.0,"ss":48.0,"used":true,"health":1},{"PRN":10,"gnssid":0,"svid":10,"az":0.0,"el":-9.0,"ss":21.0,"used":false,"health":1},{"PRN":21,"gnssid":0,"svid":21,"az":119.0,"el":77.0,"ss":47.0,"used":true,"health":1},{"PRN":22,"gnssid":0,"svid":22,"az":303.0,"el":19.0,"ss":41.0,"used":true,"health":1},{"PRN":19,"gnssid":0,"svid":19,"az":324.0,"el":1.0,"ss":28.0,"used":false,"health":1}]}
{"class":"TPV","device":"/dev/ttyACM0","mode":3,"time":"2024-07-09T11:35:53.500Z","leapseconds":18,"ept":0.005,"lat":52.316229374,"lon":10.560738193,"altHAE":133.7768,"altMSL":89.8779,"alt":89.8779,"epx":14.966,"epy":38.170,"epv":38.640,"track":278.3931,"magtrack":281.6123,"magvar":3.2,"speed":0.020,"climb":-0.002,"eps":0.32,"epc":306.67,"ecefx":3841070.58,"ecefy":716112.90,"ecefz":5024495.84,"ecefvx":0.00,"ecefvy":-0.02,"ecefvz":0.00,"ecefpAcc":4.22,"ecefvAcc":0.32,"velN":0.003,"velE":-0.020,"velD":0.002,"geoidSep":43.899,"eph":21.090,"sep":38.190}
{"class":"SKY","device":"/dev/ttyACM0","time":"2024-07-09T11:35:53.248Z","gdop":2.34,"hdop":1.11,"pdop":2.01,"tdop":1.18,"xdop":1.00,"ydop":2.54,"vdop":1.68,"uSat":6}
{"class":"SKY","device":"/dev/ttyACM0","time":"2024-07-09T11:35:53.248Z","gdop":2.33,"hdop":1.11,"pdop":2.01,"tdop":1.18,"xdop":1.00,"ydop":2.54,"vdop":1.68,"uSat":6}
{"class":"TPV","device":"/dev/ttyACM0","mode":3,"time":"2024-07-09T11:35:53.500Z","leapseconds":18,"ept":0.005,"lat":52.316229374,"lon":10.560738193,"altHAE":133.7768,"altMSL":89.8779,"alt":89.8779,"epx":14.966,"epy":38.170,"epv":38.640,"track":278.3931,"magtrack":281.6123,"magvar":3.2,"speed":0.020,"climb":-0.002,"eps":302.93,"epc":306.67,"ecefx":3841070.58,"ecefy":716112.90,"ecefz":5024495.84,"ecefvx":0.00,"ecefvy":-0.02,"ecefvz":0.00,"ecefpAcc":4.22,"ecefvAcc":0.32,"velN":0.003,"velE":-0.020,"velD":0.002,"geoidSep":43.899,"eph":21.090,"sep":38.190}
{"class":"SKY","device":"/dev/ttyACM0","time":"2024-07-09T11:35:53.500Z","gdop":2.33,"hdop":1.11,"pdop":2.01,"tdop":1.18,"xdop":1.00,"ydop":2.54,"vdop":1.68,"nSat":14,"uSat":8,"satellites":[{"PRN":2,"gnssid":0,"svid":2,"az":288.0,"el":83.0,"ss":47.0,"used":true,"health":1},{"PRN":28,"gnssid":0,"svid":28,"az":0.0,"el":-9.0,"ss":0.0,"used":false,"health":1},{"PRN":37,"gnssid":1,"svid":124,"az":0.0,"el":-9.0,"ss":0.0,"used":false,"health":1},{"PRN":12,"gnssid":0,"svid":12,"az":0.0,"el":-9.0,"ss":0.0,"used":false,"health":1},{"PRN":5,"gnssid":0,"svid":5,"az":0.0,"el":-9.0,"ss":0.0,"used":false,"health":1},{"PRN":17,"gnssid":0,"svid":17,"az":314.0,"el":24.0,"ss":46.0,"used":true,"health":1},{"PRN":14,"gnssid":0,"svid":14,"az":279.0,"el":17.0,"ss":40.0,"used":true,"health":1},{"PRN":8,"gnssid":0,"svid":8,"az":176.0,"el":27.0,"ss":40.0,"used":true,"health":1},{"PRN":3,"gnssid":0,"svid":3,"az":239.0,"el":39.0,"ss":45.0,"used":true,"health":1},{"PRN":32,"gnssid":0,"svid":32,"az":60.0,"el":38.0,"ss":48.0,"used":true,"health":1},{"PRN":10,"gnssid":0,"svid":10,"az":0.0,"el":-9.0,"ss":17.0,"used":false,"health":1},{"PRN":21,"gnssid":0,"svid":21,"az":119.0,"el":77.0,"ss":47.0,"used":true,"health":1},{"PRN":22,"gnssid":0,"svid":22,"az":303.0,"el":19.0,"ss":41.0,"used":true,"health":1},{"PRN":19,"gnssid":0,"svid":19,"az":324.0,"el":1.0,"ss":28.0,"used":false,"health":1}]}
{"class":"TPV","device":"/dev/ttyACM0","mode":3,"time":"2024-07-09T11:35:53.748Z","leapseconds":18,"ept":0.005,"lat":52.316229236,"lon":10.560738311,"altHAE":133.7760,"altMSL":89.8771,"alt":89.8771,"epx":14.966,"epy":38.170,"epv":38.640,"track":0.0000,"magtrack":3.2192,"magvar":3.2,"speed":0.006,"climb":0.008,"eps":0.33,"epc":311.61,"ecefx":3841070.59,"ecefy":716112.91,"ecefz":5024495.83,"ecefvx":0.00,"ecefvy":0.00,"ecefvz":0.01,"ecefpAcc":4.22,"ecefvAcc":0.33,"velN":0.006,"velE":0.000,"velD":-0.008,"geoidSep":43.899,"eph":21.090,"sep":38.190}
{"class":"SKY","device":"/dev/ttyACM0","time":"2024-07-09T11:35:53.500Z","gdop":2.33,"hdop":1.11,"pdop":2.01,"tdop":1.18,"xdop":1.00,"ydop":2.54,"vdop":1.68,"uSat":6}
{"class":"SKY","device":"/dev/ttyACM0","time":"2024-07-09T11:35:53.500Z","gdop":2.33,"hdop":1.11,"pdop":2.01,"tdop":1.18,"xdop":1.00,"ydop":2.54,"vdop":1.68,"uSat":6}
{"class":"TPV","device":"/dev/ttyACM0","mode":3,"time":"2024-07-09T11:35:53.748Z","leapseconds":18,"ept":0.005,"lat":52.316229236,"lon":10.560738311,"altHAE":133.7760,"altMSL":89.8771,"alt":89.8771,"epx":14.966,"epy":38.170,"epv":38.640,"track":0.0000,"magtrack":3.2192,"magvar":3.2,"speed":0.006,"climb":0.008,"eps":307.82,"epc":311.61,"ecefx":3841070.59,"ecefy":716112.91,"ecefz":5024495.83,"ecefvx":0.00,"ecefvy":0.00,"ecefvz":0.01,"ecefpAcc":4.22,"ecefvAcc":0.33,"velN":0.006,"velE":0.000,"velD":-0.008,"geoidSep":43.899,"eph":21.090,"sep":38.190}
{"class":"SKY","device":"/dev/ttyACM0","time":"2024-07-09T11:35:53.748Z","gdop":2.33,"hdop":1.11,"pdop":2.01,"tdop":1.18,"xdop":1.00,"ydop":2.54,"vdop":1.68,"nSat":14,"uSat":8,"satellites":[{"PRN":2,"gnssid":0,"svid":2,"az":288.0,"el":83.0,"ss":47.0,"used":true,"health":1},{"PRN":28,"gnssid":0,"svid":28,"az":0.0,"el":-9.0,"ss":0.0,"used":false,"health":1},{"PRN":37,"gnssid":1,"svid":124,"az":0.0,"el":-9.0,"ss":0.0,"used":false,"health":1},{"PRN":12,"gnssid":0,"svid":12,"az":0.0,"el":-9.0,"ss":0.0,"used":false,"health":1},{"PRN":5,"gnssid":0,"svid":5,"az":0.0,"el":-9.0,"ss":0.0,"used":false,"health":1},{"PRN":17,"gnssid":0,"svid":17,"az":314.0,"el":24.0,"ss":46.0,"used":true,"health":1},{"PRN":14,"gnssid":0,"svid":14,"az":279.0,"el":17.0,"ss":40.0,"used":true,"health":1},{"PRN":8,"gnssid":0,"svid":8,"az":176.0,"el":27.0,"ss":40.0,"used":true,"health":1},{"PRN":3,"gnssid":0,"svid":3,"az":239.0,"el":39.0,"ss":45.0,"used":true,"health":1},{"PRN":32,"gnssid":0,"svid":32,"az":60.0,"el":38.0,"ss":48.0,"used":true,"health":1},{"PRN":10,"gnssid":0,"svid":10,"az":0.0,"el":-9.0,"ss":17.0,"used":false,"health":1},{"PRN":21,"gnssid":0,"svid":21,"az":119.0,"el":77.0,"ss":47.0,"used":true,"health":1},{"PRN":22,"gnssid":0,"svid":22,"az":303.0,"el":19.0,"ss":40.0,"used":true,"health":1},{"PRN":19,"gnssid":0,"svid":19,"az":324.0,"el":1.0,"ss":28.0,"used":false,"health":1}]}
{"class":"TPV","device":"/dev/ttyACM0","mode":3,"time":"2024-07-09T11:35:54.000Z","leapseconds":18,"ept":0.005,"lat":52.316229098,"lon":10.560738428,"altHAE":133.7752,"altMSL":89.8764,"alt":89.8764,"epx":14.966,"epy":38.170,"epv":38.640,"track":68.6301,"magtrack":71.8493,"magvar":3.2,"speed":0.048,"climb":-0.014,"eps":0.32,"epc":306.67,"ecefx":3841070.60,"ecefy":716112.92,"ecefz":5024495.82,"ecefvx":-0.03,"ecefvy":0.04,"ecefvz":0.00,"ecefpAcc":4.21,"ecefvAcc":0.32,"velN":0.018,"velE":0.045,"velD":0.014,"geoidSep":43.899,"eph":21.090,"sep":38.380}
{"class":"SKY","device":"/dev/ttyACM0","time":"2024-07-09T11:35:53.748Z","gdop":2.33,"hdop":1.11,"pdop":2.02,"tdop":1.18,"xdop":1.00,"ydop":2.54,"vdop":1.68,"uSat":6}
{"class":"SKY","device":"/dev/ttyACM0","time":"2024-07-09T11:35:53.748Z","gdop":2.34,"hdop":1.11,"pdop":2.02,"tdop":1.18,"xdop":1.00,"ydop":2.54,"vdop":1.68,"uSat":6}
{"class":"TPV","device":"/dev/ttyACM0","mode":3,"time":"2024-07-09T11:35:54.000Z","leapseconds":18,"ept":0.005,"lat":52.316229098,"lon":10.560738428,"altHAE":133.7752,"altMSL":89.8764,"alt":89.8764,"epx":14.966,"epy":38.170,"epv":38.640,"track":68.6301,"magtrack":71.8493,"magvar":3.2,"speed":0.048,"climb":-0.014,"eps":302.93,"epc":306.67,"ecefx":3841070.60,"ecefy":716112.92,"ecefz":5024495.82,"ecefvx":-0.03,"ecefvy":0.04,"ecefvz":0.00,"ecefpAcc":4.21,"ecefvAcc":0.32,"velN":0.018,"velE":0.045,"velD":0.014,"geoidSep":43.899,"eph":21.090,"sep":38.380}
{"class":"SKY","device":"/dev/ttyACM0","time":"2024-07-09T11:35:54.000Z","gdop":2.34,"hdop":1.11,"pdop":2.02,"tdop":1.18,"xdop":1.00,"ydop":2.54,"vdop":1.68,"nSat":14,"uSat":8,"satellites":[{"PRN":2,"gnssid":0,"svid":2,"az":288.0,"el":83.0,"ss":47.0,"used":true,"health":1},{"PRN":28,"gnssid":0,"svid":28,"az":0.0,"el":-9.0,"ss":0.0,"used":false,"health":1},{"PRN":37,"gnssid":1,"svid":124,"az":0.0,"el":-9.0,"ss":0.0,"used":false,"health":1},{"PRN":12,"gnssid":0,"svid":12,"az":0.0,"el":-9.0,"ss":0.0,"used":false,"health":1},{"PRN":5,"gnssid":0,"svid":5,"az":0.0,"el":-9.0,"ss":0.0,"used":false,"health":1},{"PRN":17,"gnssid":0,"svid":17,"az":314.0,"el":24.0,"ss":46.0,"used":true,"health":1},{"PRN":14,"gnssid":0,"svid":14,"az":279.0,"el":17.0,"ss":40.0,"used":true,"health":1},{"PRN":8,"gnssid":0,"svid":8,"az":176.0,"el":27.0,"ss":40.0,"used":true,"health":1},{"PRN":3,"gnssid":0,"svid":3,"az":239.0,"el":39.0,"ss":45.0,"used":true,"health":1},{"PRN":32,"gnssid":0,"svid":32,"az":60.0,"el":38.0,"ss":48.0,"used":true,"health":1},{"PRN":10,"gnssid":0,"svid":10,"az":0.0,"el":-9.0,"ss":19.0,"used":false,"health":1},{"PRN":21,"gnssid":0,"svid":21,"az":119.0,"el":77.0,"ss":47.0,"used":true,"health":1},{"PRN":22,"gnssid":0,"svid":22,"az":303.0,"el":19.0,"ss":41.0,"used":true,"health":1},{"PRN":19,"gnssid":0,"svid":19,"az":324.0,"el":1.0,"ss":28.0,"used":false,"health":1}]}
{"class":"TPV","device":"/dev/ttyACM0","mode":3,"time":"2024-07-09T11:35:54.248Z","leapseconds":18,"ept":0.005,"lat":52.316229171,"lon":10.560739031,"altHAE":133.7816,"altMSL":89.8827,"alt":89.8827,"epx":14.966,"epy":38.170,"epv":38.640,"track":73.3482,"magtrack":76.5673,"magvar":3.2,"speed":0.212,"climb":-0.009,"eps":0.32,"epc":311.61,"ecefx":3841070.59,"ecefy":716112.96,"ecefz":5024495.83,"ecefvx":-0.09,"ecefvy":0.19,"ecefvz":0.03,"ecefpAcc":4.21,"ecefvAcc":0.32,"velN":0.061,"velE":0.203,"velD":0.009,"geoidSep":43.899,"eph":21.090,"sep":38.190}
{"class":"SKY","device":"/dev/ttyACM0","time":"2024-07-09T11:35:54.000Z","gdop":2.34,"hdop":1.11,"pdop":2.01,"tdop":1.18,"xdop":1.00,"ydop":2.54,"vdop":1.68,"uSat":6}
{"class":"SKY","device":"/dev/ttyACM0","time":"2024-07-09T11:35:54.000Z","gdop":2.34,"hdop":1.11,"pdop":2.01,"tdop":1.18,"xdop":1.00,"ydop":2.54,"vdop":1.68,"uSat":6}
{"class":"TPV","device":"/dev/ttyACM0","mode":3,"time":"2024-07-09T11:35:54.248Z","leapseconds":18,"ept":0.005,"lat":52.316229171,"lon":10.560739031,"altHAE":133.7816,"altMSL":89.8827,"alt":89.8827,"epx":14.966,"epy":38.170,"epv":38.640,"track":73.3482,"magtrack":76.5673,"magvar":3.2,"speed":0.212,"climb":-0.009,"eps":307.82,"epc":311.61,"ecefx":3841070.59,"ecefy":716112.96,"ecefz":5024495.83,"ecefvx":-0.09,"ecefvy":0.19,"ecefvz":0.03,"ecefpAcc":4.21,"ecefvAcc":0.32,"velN":0.061,"velE":0.203,"velD":0.009,"geoidSep":43.899,"eph":21.090,"sep":38.190}
{"class":"SKY","device":"/dev/ttyACM0","time":"2024-07-09T11:35:54.248Z","gdop":2.34,"hdop":1.11,"pdop":2.01,"tdop":1.18,"xdop":1.00,"ydop":2.54,"vdop":1.68,"nSat":14,"uSat":8,"satellites":[{"PRN":2,"gnssid":0,"svid":2,"az":288.0,"el":83.0,"ss":47.0,"used":true,"health":1},{"PRN":28,"gnssid":0,"svid":28,"az":0.0,"el":-9.0,"ss":0.0,"used":false,"health":1},{"PRN":37,"gnssid":1,"svid":124,"az":0.0,"el":-9.0,"ss":0.0,"used":false,"health":1},{"PRN":12,"gnssid":0,"svid":12,"az":0.0,"el":-9.0,"ss":0.0,"used":false,"health":1},{"PRN":5,"gnssid":0,"svid":5,"az":0.0,"el":-9.0,"ss":0.0,"used":false,"health":1},{"PRN":17,"gnssid":0,"svid":17,"az":314.0,"el":24.0,"ss":46.0,"used":true,"health":1},{"PRN":14,"gnssid":0,"svid":14,"az":279.0,"el":17.0,"ss":39.0,"used":true,"health":1},{"PRN":8,"gnssid":0,"svid":8,"az":176.0,"el":27.0,"ss":40.0,"used":true,"health":1},{"PRN":3,"gnssid":0,"svid":3,"az":239.0,"el":39.0,"ss":45.0,"used":true,"health":1},{"PRN":32,"gnssid":0,"svid":32,"az":60.0,"el":38.0,"ss":48.0,"used":true,"health":1},{"PRN":10,"gnssid":0,"svid":10,"az":0.0,"el":-9.0,"ss":22.0,"used":false,"health":1},{"PRN":21,"gnssid":0,"svid":21,"az":119.0,"el":77.0,"ss":47.0,"used":true,"health":1},{"PRN":22,"gnssid":0,"svid":22,"az":303.0,"el":19.0,"ss":40.0,"used":true,"health":1},{"PRN":19,"gnssid":0,"svid":19,"az":324.0,"el":1.0,"ss":28.0,"used":false,"health":1}]}
{"class":"TPV","device":"/dev/ttyACM0","mode":3,"time":"2024-07-09T11:35:54.500Z","leapseconds":18,"ept":0.005,"lat":52.316229277,"lon":10.560740265,"altHAE":133.7726,"altMSL":89.8737,"alt":89.8737,"epx":14.966,"epy":38.170,"epv":38.640,"track":73.8794,"magtrack":77.0986,"magvar":3.2,"speed":0.409,"climb":0.001,"eps":0.32,"epc":306.67,"ecefx":3841070.56,"ecefy":716113.04,"ecefz":5024495.83,"ecefvx":-0.16,"ecefvy":0.37,"ecefvz":0.07,"ecefpAcc":4.21,"ecefvAcc":0.32,"velN":0.114,"velE":0.393,"velD":-0.001,"geoidSep":43.899,"eph":21.090,"sep":38.190}
{"class":"SKY","device":"/dev/ttyACM0","time":"2024-07-09T11:35:54.248Z","gdop":2.34,"hdop":1.11,"pdop":2.01,"tdop":1.18,"xdop":1.00,"ydop":2.54,"vdop":1.68,"uSat":6}
{"class":"SKY","device":"/dev/ttyACM0","time":"2024-07-09T11:35:54.248Z","gdop":2.34,"hdop":1.11,"pdop":2.01,"tdop":1.18,"xdop":1.00,"ydop":2.54,"vdop":1.68,"uSat":6}
{"class":"TPV","device":"/dev/ttyACM0","mode":3,"time":"2024-07-09T11:35:54.500Z","leapseconds":18,"ept":0.005,"lat":52.316229277,"lon":10.560740265,"altHAE":133.7726,"altMSL":89.8737,"alt":89.8737,"epx":14.966,"epy":38.170,"epv":38.640,"track":73.8794,"magtrack":77.0986,"magvar":3.2,"speed":0.409,"climb":0.001,"eps":302.93,"epc":306.67,"ecefx":3841070.56,"ecefy":716113.04,"ecefz":5024495.83,"ecefvx":-0.16,"ecefvy":0.37,"ecefvz":0.07,"ecefpAcc":4.21,"ecefvAcc":0.32,"velN":0.114,"velE":0.393,"velD":-0.001,"geoidSep":43.899,"eph":21.090,"sep":38.190}
{"class":"SKY","device":"/dev/ttyACM0","time":"2024-07-09T11:35:54.500Z","gdop":2.34,"hdop":1.11,"pdop":2.01,"tdop":1.18,"xdop":1.00,"ydop":2.54,"vdop":1.68,"nSat":14,"uSat":8,"satellites":[{"PRN":2,"gnssid":0,"svid":2,"az":288.0,"el":83.0,"ss":48.0,"used":true,"health":1},{"PRN":28,"gnssid":0,"svid":28,"az":0.0,"el":-9.0,"ss":0.0,"used":false,"health":1},{"PRN":39,"gnssid":1,"svid":126,"az":0.0,"el":-9.0,"ss":0.0,"used":false,"health":1},{"PRN":12,"gnssid":0,"svid":12,"az":0.0,"el":-9.0,"ss":0.0,"used":false,"health":1},{"PRN":5,"gnssid":0,"svid":5,"az":0.0,"el":-9.0,"ss":0.0,"used":false,"health":1},{"PRN":17,"gnssid":0,"svid":17,"az":314.0,"el":24.0,"ss":45.0,"used":true,"health":1},{"PRN":14,"gnssid":0,"svid":14,"az":279.0,"el":17.0,"ss":41.0,"used":true,"health":1},{"PRN":8,"gnssid":0,"svid":8,"az":176.0,"el":27.0,"ss":40.0,"used":true,"health":1},{"PRN":3,"gnssid":0,"svid":3,"az":239.0,"el":39.0,"ss":45.0,"used":true,"health":1},{"PRN":32,"gnssid":0,"svid":32,"az":60.0,"el":38.0,"ss":48.0,"used":true,"health":1},{"PRN":10,"gnssid":0,"svid":10,"az":0.0,"el":-9.0,"ss":23.0,"used":false,"health":1},{"PRN":21,"gnssid":0,"svid":21,"az":119.0,"el":77.0,"ss":47.0,"used":true,"health":1},{"PRN":22,"gnssid":0,"svid":22,"az":303.0,"el":19.0,"ss":41.0,"used":true,"health":1},{"PRN":19,"gnssid":0,"svid":19,"az":324.0,"el":1.0,"ss":28.0,"used":false,"health":1}]}
{"class":"TPV","device":"/dev/ttyACM0","mode":3,"time":"2024-07-09T11:35:54.748Z","leapseconds":18,"ept":0.005,"lat":52.316229582,"lon":10.560742301,"altHAE":133.7590,"altMSL":89.8601,"alt":89.8601,"epx":14.966,"epy":38.170,"epv":38.640,"track":79.1474,"magtrack":82.3666,"magvar":3.2,"speed":0.642,"climb":-0.018,"eps":0.33,"epc":311.61,"ecefx":3841070.50,"ecefy":716113.17,"ecefz":5024495.84,"ecefvx":-0.22,"ecefvy":0.60,"ecefvz":0.06,"ecefpAcc":4.20,"ecefvAcc":0.33,"velN":0.121,"velE":0.630,"velD":0.018,"geoidSep":43.899,"eph":21.090,"sep":39.330}
{"class":"SKY","device":"/dev/ttyACM0","time":"2024-07-09T11:35:54.500Z","gdop":2.34,"hdop":1.11,"pdop":2.07,"tdop":1.18,"xdop":1.00,"ydop":2.54,"vdop":1.68,"uSat":6}
{"class":"SKY","device":"/dev/ttyACM0","time":"2024-07-09T11:35:54.500Z","gdop":2.41,"hdop":1.14,"pdop":2.07,"tdop":1.23,"xdop":1.00,"ydop":2.54,"vdop":1.73,"uSat":6}
{"class":"TPV","device":"/dev/ttyACM0","mode":3,"time":"2024-07-09T11:35:54.748Z","leapseconds":18,"ept":0.005,"lat":52.316229582,"lon":10.560742301,"altHAE":133.7590,"altMSL":89.8601,"alt":89.8601,"epx":14.966,"epy":38.170,"epv":38.640,"track":79.1474,"magtrack":82.3666,"magvar":3.2,"speed":0.642,"climb":-0.018,"eps":307.82,"epc":311.61,"ecefx":3841070.50,"ecefy":716113.17,"ecefz":5024495.84,"ecefvx":-0.22,"ecefvy":0.60,"ecefvz":0.06,"ecefpAcc":4.20,"ecefvAcc":0.33,"velN":0.121,"velE":0.630,"velD":0.018,"geoidSep":43.899,"eph":21.090,"sep":39.330}
{"class":"SKY","device":"/dev/ttyACM0","time":"2024-07-09T11:35:54.748Z","gdop":2.41,"hdop":1.14,"pdop":2.07,"tdop":1.23,"xdop":1.00,"ydop":2.54,"vdop":1.73,"nSat":14,"uSat":7,"satellites":[{"PRN":2,"gnssid":0,"svid":2,"az":288.0,"el":83.0,"ss":48.0,"used":true,"health":1},{"PRN":28,"gnssid":0,"svid":28,"az":0.0,"el":-9.0,"ss":0.0,"used":false,"health":1},{"PRN":39,"gnssid":1,"svid":126,"az":0.0,"el":-9.0,"ss":0.0,"used":false,"health":1},{"PRN":12,"gnssid":0,"svid":12,"az":0.0,"el":-9.0,"ss":0.0,"used":false,"health":1},{"PRN":5,"gnssid":0,"svid":5,"az":0.0,"el":-9.0,"ss":0.0,"used":false,"health":1},{"PRN":17,"gnssid":0,"svid":17,"az":314.0,"el":24.0,"ss":45.0,"used":true,"health":1},{"PRN":14,"gnssid":0,"svid":14,"az":279.0,"el":17.0,"ss":40.0,"used":false,"health":1},{"PRN":8,"gnssid":0,"svid":8,"az":176.0,"el":27.0,"ss":38.0,"used":true,"health":1},{"PRN":3,"gnssid":0,"svid":3,"az":239.0,"el":39.0,"ss":45.0,"used":true,"health":1},{"PRN":32,"gnssid":0,"svid":32,"az":60.0,"el":38.0,"ss":48.0,"used":true,"health":1},{"PRN":10,"gnssid":0,"svid":10,"az":0.0,"el":-9.0,"ss":26.0,"used":false,"health":1},{"PRN":21,"gnssid":0,"svid":21,"az":119.0,"el":77.0,"ss":47.0,"used":true,"health":1},{"PRN":22,"gnssid":0,"svid":22,"az":303.0,"el":19.0,"ss":42.0,"used":true,"health":1},{"PRN":19,"gnssid":0,"svid":19,"az":324.0,"el":1.0,"ss":28.0,"used":false,"health":1}]}
{"class":"TPV","device":"/dev/ttyACM0","mode":3,"time":"2024-07-09T11:35:55.000Z","leapseconds":18,"ept":0.005,"lat":52.316229836,"lon":10.560745084,"altHAE":133.7371,"altMSL":89.8382,"alt":89.8382,"epx":14.966,"epy":38.170,"epv":39.790,"track":76.3874,"magtrack":79.6066,"magvar":3.2,"speed":0.815,"climb":-0.009,"eps":0.33,"epc":311.23,"ecefx":3841070.43,"ecefy":716113.35,"ecefz":5024495.84,"ecefvx":-0.30,"ecefvy":0.75,"ecefvz":0.11,"ecefpAcc":4.20,"ecefvAcc":0.33,"velN":0.192,"velE":0.792,"velD":0.009,"geoidSep":43.899,"eph":21.660,"sep":38.380}
{"class":"SKY","device":"/dev/ttyACM0","time":"2024-07-09T11:35:54.748Z","gdop":2.41,"hdop":1.14,"pdop":2.02,"tdop":1.23,"xdop":1.00,"ydop":2.54,"vdop":1.73,"uSat":6}
{"class":"SKY","device":"/dev/ttyACM0","time":"2024-07-09T11:35:54.748Z","gdop":2.34,"hdop":1.11,"pdop":2.02,"tdop":1.18,"xdop":1.00,"ydop":2.54,"vdop":1.68,"uSat":6}
{"class":"TPV","device":"/dev/ttyACM0","mode":3,"time":"2024-07-09T11:35:55.000Z","leapseconds":18,"ept":0.005,"lat":52.316229836,"lon":10.560745084,"altHAE":133.7371,"altMSL":89.8382,"alt":89.8382,"epx":14.966,"epy":38.170,"epv":39.790,"track":76.3874,"magtrack":79.6066,"magvar":3.2,"speed":0.815,"climb":-0.009,"eps":302.93,"epc":311.23,"ecefx":3841070.43,"ecefy":716113.35,"ecefz":5024495.84,"ecefvx":-0.30,"ecefvy":0.75,"ecefvz":0.11,"ecefpAcc":4.20,"ecefvAcc":0.33,"velN":0.192,"velE":0.792,"velD":0.009,"geoidSep":43.899,"eph":21.660,"sep":38.380}
{"class":"SKY","device":"/dev/ttyACM0","time":"2024-07-09T11:35:55.000Z","gdop":2.34,"hdop":1.11,"pdop":2.02,"tdop":1.18,"xdop":1.00,"ydop":2.54,"vdop":1.68,"nSat":14,"uSat":8,"satellites":[{"PRN":2,"gnssid":0,"svid":2,"az":288.0,"el":83.0,"ss":48.0,"used":true,"health":1},{"PRN":28,"gnssid":0,"svid":28,"az":0.0,"el":-9.0,"ss":0.0,"used":false,"health":1},{"PRN":39,"gnssid":1,"svid":126,"az":0.0,"el":-9.0,"ss":0.0,"used":false,"health":1},{"PRN":12,"gnssid":0,"svid":12,"az":0.0,"el":-9.0,"ss":0.0,"used":false,"health":1},{"PRN":5,"gnssid":0,"svid":5,"az":0.0,"el":-9.0,"ss":0.0,"used":false,"health":1},{"PRN":17,"gnssid":0,"svid":17,"az":314.0,"el":24.0,"ss":44.0,"used":true,"health":1},{"PRN":14,"gnssid":0,"svid":14,"az":279.0,"el":17.0,"ss":40.0,"used":true,"health":1},{"PRN":8,"gnssid":0,"svid":8,"az":176.0,"el":27.0,"ss":36.0,"used":true,"health":1},{"PRN":3,"gnssid":0,"svid":3,"az":239.0,"el":39.0,"ss":46.0,"used":true,"health":1},{"PRN":32,"gnssid":0,"svid":32,"az":60.0,"el":38.0,"ss":47.0,"used":true,"health":1},{"PRN":10,"gnssid":0,"svid":10,"az":0.0,"el":-9.0,"ss":27.0,"used":false,"health":1},{"PRN":21,"gnssid":0,"svid":21,"az":119.0,"el":77.0,"ss":47.0,"used":true,"health":1},{"PRN":22,"gnssid":0,"svid":22,"az":303.0,"el":19.0,"ss":43.0,"used":true,"health":1},{"PRN":19,"gnssid":0,"svid":19,"az":324.0,"el":1.0,"ss":0.0,"used":false,"health":1}]}
{"class":"TPV","device":"/dev/ttyACM0","mode":3,"time":"2024-07-09T11:35:55.248Z","leapseconds":18,"ept":0.005,"lat":52.316230319,"lon":10.560748551,"altHAE":133.6956,"altMSL":89.7967,"alt":89.7967,"epx":14.966,"epy":38.170,"epv":38.640,"track":79.0706,"magtrack":82.2898,"magvar":3.2,"speed":0.965,"climb":-0.040,"eps":0.38,"epc":316.25,"ecefx":3841070.32,"ecefy":716113.57,"ecefz":5024495.84,"ecefvx":-0.34,"ecefvy":0.90,"ecefvz":0.08,"ecefpAcc":4.20,"ecefvAcc":0.38,"velN":0.183,"velE":0.947,"velD":0.040,"geoidSep":43.899,"eph":21.090,"sep":38.190}
{"class":"SKY","device":"/dev/ttyACM0","time":"2024-07-09T11:35:55.000Z","gdop":2.34,"hdop":1.11,"pdop":2.01,"tdop":1.18,"xdop":1.00,"ydop":2.54,"vdop":1.68,"uSat":6}
{"class":"SKY","device":"/dev/ttyACM0","time":"2024-07-09T11:35:55.000Z","gdop":2.34,"hdop":1.11,"pdop":2.01,"tdop":1.18,"xdop":1.00,"ydop":2.54,"vdop":1.68,"uSat":6}
{"class":"TPV","device":"/dev/ttyACM0","mode":3,"time":"2024-07-09T11:35:55.248Z","leapseconds":18,"ept":0.005,"lat":52.316230319,"lon":10.560748551,"altHAE":133.6956,"altMSL":89.7967,"alt":89.7967,"epx":14.966,"epy":38.170,"epv":38.640,"track":79.0706,"magtrack":82.2898,"magvar":3.2,"speed":0.965,"climb":-0.040,"eps":307.82,"epc":316.25,"ecefx":3841070.32,"ecefy":716113.57,"ecefz":5024495.84,"ecefvx":-0.34,"ecefvy":0.90,"ecefvz":0.08,"ecefpAcc":4.20,"ecefvAcc":0.38,"velN":0.183,"velE":0.947,"velD":0.040,"geoidSep":43.899,"eph":21.090,"sep":38.190}
{"class":"SKY","device":"/dev/ttyACM0","time":"2024-07-09T11:35:55.248Z","gdop":2.34,"hdop":1.11,"pdop":2.01,"tdop":1.18,"xdop":1.00,"ydop":2.54,"vdop":1.68,"nSat":14,"uSat":8,"satellites":[{"PRN":2,"gnssid":0,"svid":2,"az":288.0,"el":83.0,"ss":48.0,"used":true,"health":1},{"PRN":28,"gnssid":0,"svid":28,"az":0.0,"el":-9.0,"ss":0.0,"used":false,"health":1},{"PRN":39,"gnssid":1,"svid":126,"az":0.0,"el":-9.0,"ss":0.0,"used":false,"health":1},{"PRN":12,"gnssid":0,"svid":12,"az":0.0,"el":-9.0,"ss":0.0,"used":false,"health":1},{"PRN":5,"gnssid":0,"svid":5,"az":0.0,"el":-9.0,"ss":0.0,"used":false,"health":1},{"PRN":17,"gnssid":0,"svid":17,"az":314.0,"el":24.0,"ss":44.0,"used":true,"health":1},{"PRN":14,"gnssid":0,"svid":14,"az":279.0,"el":17.0,"ss":40.0,"used":true,"health":1},{"PRN":8,"gnssid":0,"svid":8,"az":176.0,"el":27.0,"ss":34.0,"used":true,"health":1},{"PRN":3,"gnssid":0,"svid":3,"az":239.0,"el":39.0,"ss":46.0,"used":true,"health":1},{"PRN":32,"gnssid":0,"svid":32,"az":60.0,"el":38.0,"ss":48.0,"used":true,"health":1},{"PRN":10,"gnssid":0,"svid":10,"az":0.0,"el":-9.0,"ss":27.0,"used":false,"health":1},{"PRN":21,"gnssid":0,"svid":21,"az":119.0,"el":77.0,"ss":47.0,"used":true,"health":1},{"PRN":22,"gnssid":0,"svid":22,"az":303.0,"el":19.0,"ss":42.0,"used":true,"health":1},{"PRN":19,"gnssid":0,"svid":19,"az":324.0,"el":1.0,"ss":0.0,"used":false,"health":1}]}
{"class":"TPV","device":"/dev/ttyACM0","mode":3,"time":"2024-07-09T11:35:55.500Z","leapseconds":18,"ept":0.005,"lat":52.316230966,"lon":10.560752018,"altHAE":133.6779,"altMSL":89.7790,"alt":89.7790,"epx":14.966,"epy":38.170,"epv":38.640,"track":74.2377,"magtrack":77.4569,"magvar":3.2,"speed":1.010,"climb":-0.048,"eps":0.40,"epc":306.67,"ecefx":3841070.21,"ecefy":716113.79,"ecefz":5024495.87,"ecefvx":-0.42,"ecefvy":0.91,"ecefvz":0.13,"ecefpAcc":4.20,"ecefvAcc":0.40,"velN":0.274,"velE":0.972,"velD":0.048,"geoidSep":43.899,"eph":21.090,"sep":38.190}
{"class":"SKY","device":"/dev/ttyACM0","time":"2024-07-09T11:35:55.248Z","gdop":2.34,"hdop":1.11,"pdop":2.01,"tdop":1.18,"xdop":1.00,"ydop":2.54,"vdop":1.68,"uSat":6}
{"class":"SKY","device":"/dev/ttyACM0","time":"2024-07-09T11:35:55.248Z","gdop":2.34,"hdop":1.11,"pdop":2.01,"tdop":1.18,"xdop":1.00,"ydop":2.54,"vdop":1.68,"uSat":6}
{"class":"TPV","device":"/dev/ttyACM0","mode":3,"time":"2024-07-09T11:35:55.500Z","leapseconds":18,"ept":0.005,"lat":52.316230966,"lon":10.560752018,"altHAE":133.6779,"altMSL":89.7790,"alt":89.7790,"epx":14.966,"epy":38.170,"epv":38.640,"track":74.2377,"magtrack":77.4569,"magvar":3.2,"speed":1.010,"climb":-0.048,"eps":302.93,"epc":306.67,"ecefx":3841070.21,"ecefy":716113.79,"ecefz":5024495.87,"ecefvx":-0.42,"ecefvy":0.91,"ecefvz":0.13,"ecefpAcc":4.20,"ecefvAcc":0.40,"velN":0.274,"velE":0.972,"velD":0.048,"geoidSep":43.899,"eph":21.090,"sep":38.190}
{"class":"SKY","device":"/dev/ttyACM0","time":"2024-07-09T11:35:55.500Z","gdop":2.34,"hdop":1.11,"pdop":2.01,"tdop":1.18,"xdop":1.00,"ydop":2.54,"vdop":1.68,"nSat":14,"uSat":8,"satellites":[{"PRN":2,"gnssid":0,"svid":2,"az":288.0,"el":83.0,"ss":48.0,"used":true,"health":1},{"PRN":28,"gnssid":0,"svid":28,"az":0.0,"el":-9.0,"ss":0.0,"used":false,"health":1},{"PRN":39,"gnssid":1,"svid":126,"az":0.0,"el":-9.0,"ss":0.0,"used":false,"health":1},{"PRN":12,"gnssid":0,"svid":12,"az":0.0,"el":-9.0,"ss":0.0,"used":false,"health":1},{"PRN":5,"gnssid":0,"svid":5,"az":0.0,"el":-9.0,"ss":0.0,"used":false,"health":1},{"PRN":17,"gnssid":0,"svid":17,"az":314.0,"el":24.0,"ss":45.0,"used":true,"health":1},{"PRN":14,"gnssid":0,"svid":14,"az":279.0,"el":17.0,"ss":40.0,"used":true,"health":1},{"PRN":8,"gnssid":0,"svid":8,"az":176.0,"el":27.0,"ss":32.0,"used":true,"health":1},{"PRN":3,"gnssid":0,"svid":3,"az":239.0,"el":39.0,"ss":46.0,"used":true,"health":1},{"PRN":32,"gnssid":0,"svid":32,"az":60.0,"el":38.0,"ss":48.0,"used":true,"health":1},{"PRN":10,"gnssid":0,"svid":10,"az":0.0,"el":-9.0,"ss":27.0,"used":false,"health":1},{"PRN":21,"gnssid":0,"svid":21,"az":119.0,"el":77.0,"ss":47.0,"used":true,"health":1},{"PRN":22,"gnssid":0,"svid":22,"az":303.0,"el":19.0,"ss":42.0,"used":true,"health":1},{"PRN":19,"gnssid":0,"svid":19,"az":324.0,"el":1.0,"ss":0.0,"used":false,"health":1}]}
{"class":"TPV","device":"/dev/ttyACM0","mode":3,"time":"2024-07-09T11:35:55.748Z","leapseconds":18,"ept":0.005,"lat":52.316231740,"lon":10.560755683,"altHAE":133.6493,"altMSL":89.7504,"alt":89.7504,"epx":14.966,"epy":38.170,"epv":38.640,"track":73.2904,"magtrack":76.5096,"magvar":3.2,"speed":1.063,"climb":-0.059,"eps":0.36,"epc":311.61,"ecefx":3841070.08,"ecefy":716114.02,"ecefz":5024495.90,"ecefvx":-0.46,"ecefvy":0.95,"ecefvz":0.14,"ecefpAcc":4.20,"ecefvAcc":0.36,"velN":0.306,"velE":1.018,"velD":0.059,"geoidSep":43.899,"eph":21.090,"sep":38.190}
{"class":"SKY","device":"/dev/ttyACM0","time":"2024-07-09T11:35:55.500Z","gdop":2.34,"hdop":1.11,"pdop":2.01,"tdop":1.18,"xdop":1.00,"ydop":2.54,"vdop":1.68,"uSat":6}
{"class":"SKY","device":"/dev/ttyACM0","time":"2024-07-09T11:35:55.500Z","gdop":2.34,"hdop":1.11,"pdop":2.01,"tdop":1.18,"xdop":1.00,"ydop":2.54,"vdop":1.68,"uSat":6}
{"class":"TPV","device":"/dev/ttyACM0","mode":3,"time":"2024-07-09T11:35:55.748Z","leapseconds":18,"ept":0.005,"lat":52.316231740,"lon":10.560755683,"altHAE":133.6493,"altMSL":89.7504,"alt":89.7504,"epx":14.966,"epy":38.170,"epv":38.640,"track":73.2904,"magtrack":76.5096,"magvar":3.2,"speed":1.063,"climb":-0.059,"eps":307.82,"epc":311.61,"ecefx":3841070.08,"ecefy":716114.02,"ecefz":5024495.90,"ecefvx":-0.46,"ecefvy":0.95,"ecefvz":0.14,"ecefpAcc":4.20,"ecefvAcc":0.36,"velN":0.306,"velE":1.018,"velD":0.059,"geoidSep":43.899,"eph":21.090,"sep":38.190}
{"class":"SKY","device":"/dev/ttyACM0","time":"2024-07-09T11:35:55.748Z","gdop":2.34,"hdop":1.11,"pdop":2.01,"tdop":1.18,"xdop":1.00,"ydop":2.54,"vdop":1.68,"nSat":14,"uSat":8,"satellites":[{"PRN":2,"gnssid":0,"svid":2,"az":288.0,"el":83.0,"ss":47.0,"used":true,"health":1},{"PRN":28,"gnssid":0,"svid":28,"az":0.0,"el":-9.0,"ss":0.0,"used":false,"health":1},{"PRN":39,"gnssid":1,"svid":126,"az":0.0,"el":-9.0,"ss":0.0,"used":false,"health":1},{"PRN":12,"gnssid":0,"svid":12,"az":0.0,"el":-9.0,"ss":0.0,"used":false,"health":1},{"PRN":5,"gnssid":0,"svid":5,"az":0.0,"el":-9.0,"ss":0.0,"used":false,"health":1},{"PRN":17,"gnssid":0,"svid":17,"az":314.0,"el":24.0,"ss":44.0,"used":true,"health":1},{"PRN":14,"gnssid":0,"svid":14,"az":279.0,"el":17.0,"ss":41.0,"used":true,"health":1},{"PRN":8,"gnssid":0,"svid":8,"az":176.0,"el":27.0,"ss":37.0,"used":true,"health":1},{"PRN":3,"gnssid":0,"svid":3,"az":239.0,"el":39.0,"ss":47.0,"used":true,"health":1},{"PRN":32,"gnssid":0,"svid":32,"az":60.0,"el":38.0,"ss":48.0,"used":true,"health":1},{"PRN":10,"gnssid":0,"svid":10,"az":0.0,"el":-9.0,"ss":27.0,"used":false,"health":1},{"PRN":21,"gnssid":0,"svid":21,"az":119.0,"el":77.0,"ss":47.0,"used":true,"health":1},{"PRN":22,"gnssid":0,"svid":22,"az":303.0,"el":19.0,"ss":42.0,"used":true,"health":1},{"PRN":19,"gnssid":0,"svid":19,"az":324.0,"el":1.0,"ss":0.0,"used":false,"health":1}]}
{"class":"TPV","device":"/dev/ttyACM0","mode":3,"time":"2024-07-09T11:35:56.000Z","leapseconds":18,"ept":0.005,"lat":52.316232680,"lon":10.560759519,"altHAE":133.6316,"altMSL":89.7328,"alt":89.7328,"epx":14.966,"epy":38.170,"epv":38.640,"track":70.5125,"magtrack":73.7317,"magvar":3.2,"speed":1.135,"climb":-0.065,"eps":0.41,"epc":306.67,"ecefx":3841069.94,"ecefy":716114.26,"ecefz":5024495.95,"ecefvx":-0.53,"ecefvy":0.99,"ecefvz":0.18,"ecefpAcc":4.19,"ecefvAcc":0.41,"velN":0.379,"velE":1.070,"velD":0.065,"geoidSep":43.899,"eph":21.090,"sep":38.380}
{"class":"SKY","device":"/dev/ttyACM0","time":"2024-07-09T11:35:55.748Z","gdop":2.34,"hdop":1.11,"pdop":2.02,"tdop":1.18,"xdop":1.00,"ydop":2.54,"vdop":1.68,"uSat":6}
{"class":"SKY","device":"/dev/ttyACM0","time":"2024-07-09T11:35:55.748Z","gdop":2.34,"hdop":1.11,"pdop":2.02,"tdop":1.18,"xdop":1.00,"ydop":2.54,"vdop":1.68,"uSat":6}
{"class":"TPV","device":"/dev/ttyACM0","mode":3,"time":"2024-07-09T11:35:56.000Z","leapseconds":18,"ept":0.005,"lat":52.316232680,"lon":10.560759519,"altHAE":133.6316,"altMSL":89.7328,"alt":89.7328,"epx":14.966,"epy":38.170,"epv":38.640,"track":70.5125,"magtrack":73.7317,"magvar":3.2,"speed":1.135,"climb":-0.065,"eps":302.93,"epc":306.67,"ecefx":3841069.94,"ecefy":716114.26,"ecefz":5024495.95,"ecefvx":-0.53,"ecefvy":0.99,"ecefvz":0.18,"ecefpAcc":4.19,"ecefvAcc":0.41,"velN":0.379,"velE":1.070,"velD":0.065,"geoidSep":43.899,"eph":21.090,"sep":38.380}
{"class":"SKY","device":"/dev/ttyACM0","time":"2024-07-09T11:35:56.000Z","gdop":2.34,"hdop":1.11,"pdop":2.02,"tdop":1.18,"xdop":1.00,"ydop":2.54,"vdop":1.68,"nSat":14,"uSat":8,"satellites":[{"PRN":2,"gnssid":0,"svid":2,"az":288.0,"el":83.0,"ss":48.0,"used":true,"health":1},{"PRN":28,"gnssid":0,"svid":28,"az":0.0,"el":-9.0,"ss":0.0,"used":false,"health":1},{"PRN":39,"gnssid":1,"svid":126,"az":0.0,"el":-9.0,"ss":0.0,"used":false,"health":1},{"PRN":12,"gnssid":0,"svid":12,"az":0.0,"el":-9.0,"ss":0.0,"used":false,"health":1},{"PRN":5,"gnssid":0,"svid":5,"az":0.0,"el":-9.0,"ss":0.0,"used":false,"health":1},{"PRN":17,"gnssid":0,"svid":17,"az":314.0,"el":24.0,"ss":44.0,"used":true,"health":1},{"PRN":14,"gnssid":0,"svid":14,"az":279.0,"el":17.0,"ss":40.0,"used":true,"health":1},{"PRN":8,"gnssid":0,"svid":8,"az":176.0,"el":27.0,"ss":37.0,"used":true,"health":1},{"PRN":3,"gnssid":0,"svid":3,"az":239.0,"el":39.0,"ss":46.0,"used":true,"health":1},{"PRN":32,"gnssid":0,"svid":32,"az":60.0,"el":38.0,"ss":48.0,"used":true,"health":1},{"PRN":10,"gnssid":0,"svid":10,"az":0.0,"el":-9.0,"ss":27.0,"used":false,"health":1},{"PRN":21,"gnssid":0,"svid":21,"az":119.0,"el":77.0,"ss":48.0,"used":true,"health":1},{"PRN":22,"gnssid":0,"svid":22,"az":303.0,"el":19.0,"ss":43.0,"used":true,"health":1},{"PRN":19,"gnssid":0,"svid":19,"az":324.0,"el":1.0,"ss":0.0,"used":false,"health":1}]}
{"class":"TPV","device":"/dev/ttyACM0","mode":3,"time":"2024-07-09T11:35:56.248Z","leapseconds":18,"ept":0.005,"lat":52.316233689,"lon":10.560763210,"altHAE":133.6208,"altMSL":89.7219,"alt":89.7219,"epx":14.966,"epy":38.170,"epv":38.640,"track":67.3008,"magtrack":70.5200,"magvar":3.2,"speed":1.075,"climb":-0.042,"eps":0.42,"epc":311.61,"ecefx":3841069.80,"ecefy":716114.49,"ecefz":5024496.01,"ecefvx":-0.53,"ecefvy":0.91,"ecefvz":0.22,"ecefpAcc":4.19,"ecefvAcc":0.42,"velN":0.415,"velE":0.992,"velD":0.042,"geoidSep":43.899,"eph":21.090,"sep":58.520}
{"class":"SKY","device":"/dev/ttyACM0","time":"2024-07-09T11:35:56.000Z","gdop":2.34,"hdop":1.11,"pdop":3.08,"tdop":1.18,"xdop":1.00,"ydop":2.54,"vdop":1.68,"uSat":6}
{"class":"SKY","device":"/dev/ttyACM0","time":"2024-07-09T11:35:56.000Z","gdop":3.67,"hdop":1.82,"pdop":3.08,"tdop":1.99,"xdop":1.00,"ydop":2.54,"vdop":2.49,"uSat":6}
{"class":"TPV","device":"/dev/ttyACM0","mode":3,"time":"2024-07-09T11:35:56.248Z","leapseconds":18,"ept":0.005,"lat":52.316233689,"lon":10.560763210,"altHAE":133.6208,"altMSL":89.7219,"alt":89.7219,"epx":14.966,"epy":38.170,"epv":38.640,"track":67.3008,"magtrack":70.5200,"magvar":3.2,"speed":1.075,"climb":-0.042,"eps":307.82,"epc":311.61,"ecefx":3841069.80,"ecefy":716114.49,"ecefz":5024496.01,"ecefvx":-0.53,"ecefvy":0.91,"ecefvz":0.22,"ecefpAcc":4.19,"ecefvAcc":0.42,"velN":0.415,"velE":0.992,"velD":0.042,"geoidSep":43.899,"eph":21.090,"sep":58.520}
{"class":"SKY","device":"/dev/ttyACM0","time":"2024-07-09T11:35:56.248Z","gdop":3.67,"hdop":1.82,"pdop":3.08,"tdop":1.99,"xdop":1.00,"ydop":2.54,"vdop":2.49,"nSat":14,"uSat":7,"satellites":[{"PRN":2,"gnssid":0,"svid":2,"az":288.0,"el":83.0,"ss":47.0,"used":true,"health":1},{"PRN":28,"gnssid":0,"svid":28,"az":0.0,"el":-9.0,"ss":0.0,"used":false,"health":1},{"PRN":39,"gnssid":1,"svid":126,"az":0.0,"el":-9.0,"ss":0.0,"used":false,"health":1},{"PRN":12,"gnssid":0,"svid":12,"az":0.0,"el":-9.0,"ss":0.0,"used":false,"health":1},{"PRN":5,"gnssid":0,"svid":5,"az":0.0,"el":-9.0,"ss":0.0,"used":false,"health":1},{"PRN":17,"gnssid":0,"svid":17,"az":314.0,"el":24.0,"ss":44.0,"used":true,"health":1},{"PRN":14,"gnssid":0,"svid":14,"az":279.0,"el":17.0,"ss":40.0,"used":true,"health":1},{"PRN":8,"gnssid":0,"svid":8,"az":176.0,"el":27.0,"ss":35.0,"used":false,"health":1},{"PRN":3,"gnssid":0,"svid":3,"az":239.0,"el":39.0,"ss":45.0,"used":true,"health":1},{"PRN":32,"gnssid":0,"svid":32,"az":60.0,"el":38.0,"ss":48.0,"used":true,"health":1},{"PRN":10,"gnssid":0,"svid":10,"az":0.0,"el":-9.0,"ss":27.0,"used":false,"health":1},{"PRN":21,"gnssid":0,"svid":21,"az":119.0,"el":77.0,"ss":48.0,"used":true,"health":1},{"PRN":22,"gnssid":0,"svid":22,"az":303.0,"el":19.0,"ss":44.0,"used":true,"health":1},{"PRN":19,"gnssid":0,"svid":19,"az":324.0,"el":1.0,"ss":0.0,"used":false,"health":1}]}
{"class":"TPV","device":"/dev/ttyACM0","mode":3,"time":"2024-07-09T11:35:56.500Z","leapseconds":18,"ept":0.005,"lat":52.316234839,"lon":10.560767127,"altHAE":133.5851,"altMSL":89.6862,"alt":89.6862,"epx":14.966,"epy":38.170,"epv":57.270,"track":68.1034,"magtrack":71.3226,"magvar":3.2,"speed":1.199,"climb":-0.080,"eps":0.42,"epc":380.59,"ecefx":3841069.63,"ecefy":716114.73,"ecefz":5024496.06,"ecefvx":-0.60,"ecefvy":1.02,"ecefvz":0.21,"ecefpAcc":4.19,"ecefvAcc":0.42,"velN":0.447,"velE":1.113,"velD":0.080,"geoidSep":43.899,"eph":34.580,"sep":38.190}
{"class":"SKY","device":"/dev/ttyACM0","time":"2024-07-09T11:35:56.248Z","gdop":3.67,"hdop":1.82,"pdop":2.01,"tdop":1.99,"xdop":1.00,"ydop":2.54,"vdop":2.49,"uSat":6}
{"class":"SKY","device":"/dev/ttyACM0","time":"2024-07-09T11:35:56.248Z","gdop":2.33,"hdop":1.11,"pdop":2.01,"tdop":1.18,"xdop":1.00,"ydop":2.54,"vdop":1.68,"uSat":6}
{"class":"TPV","device":"/dev/ttyACM0","mode":3,"time":"2024-07-09T11:35:56.500Z","leapseconds":18,"ept":0.005,"lat":52.316234839,"lon":10.560767127,"altHAE":133.5851,"altMSL":89.6862,"alt":89.6862,"epx":14.966,"epy":38.170,"epv":57.270,"track":68.1034,"magtrack":71.3226,"magvar":3.2,"speed":1.199,"climb":-0.080,"eps":302.93,"epc":380.59,"ecefx":3841069.63,"ecefy":716114.73,"ecefz":5024496.06,"ecefvx":-0.60,"ecefvy":1.02,"ecefvz":0.21,"ecefpAcc":4.19,"ecefvAcc":0.42,"velN":0.447,"velE":1.113,"velD":0.080,"geoidSep":43.899,"eph":34.580,"sep":38.190}
{"class":"SKY","device":"/dev/ttyACM0","time":"2024-07-09T11:35:56.500Z","gdop":2.33,"hdop":1.11,"pdop":2.01,"tdop":1.18,"xdop":1.00,"ydop":2.54,"vdop":1.68,"nSat":14,"uSat":8,"satellites":[{"PRN":2,"gnssid":0,"svid":2,"az":288.0,"el":83.0,"ss":47.0,"used":true,"health":1},{"PRN":28,"gnssid":0,"svid":28,"az":0.0,"el":-9.0,"ss":0.0,"used":false,"health":1},{"PRN":39,"gnssid":1,"svid":126,"az":0.0,"el":-9.0,"ss":0.0,"used":false,"health":1},{"PRN":12,"gnssid":0,"svid":12,"az":0.0,"el":-9.0,"ss":0.0,"used":false,"health":1},{"PRN":5,"gnssid":0,"svid":5,"az":0.0,"el":-9.0,"ss":0.0,"used":false,"health":1},{"PRN":17,"gnssid":0,"svid":17,"az":314.0,"el":24.0,"ss":44.0,"used":true,"health":1},{"PRN":14,"gnssid":0,"svid":14,"az":279.0,"el":17.0,"ss":41.0,"used":true,"health":1},{"PRN":8,"gnssid":0,"svid":8,"az":176.0,"el":27.0,"ss":34.0,"used":true,"health":1},{"PRN":3,"gnssid":0,"svid":3,"az":239.0,"el":39.0,"ss":44.0,"used":true,"health":1},{"PRN":32,"gnssid":0,"svid":32,"az":60.0,"el":38.0,"ss":49.0,"used":true,"health":1},{"PRN":10,"gnssid":0,"svid":10,"az":0.0,"el":-9.0,"ss":26.0,"used":false,"health":1},{"PRN":21,"gnssid":0,"svid":21,"az":119.0,"el":77.0,"ss":48.0,"used":true,"health":1},{"PRN":22,"gnssid":0,"svid":22,"az":303.0,"el":19.0,"ss":44.0,"used":true,"health":1},{"PRN":19,"gnssid":0,"svid":19,"az":324.0,"el":1.0,"ss":0.0,"used":false,"health":1}]}
{"class":"TPV","device":"/dev/ttyACM0","mode":3,"time":"2024-07-09T11:35:56.748Z","leapseconds":18,"ept":0.005,"lat":52.316236512,"lon":10.560770926,"altHAE":133.6055,"altMSL":89.7067,"alt":89.7067,"epx":14.966,"epy":38.170,"epv":38.640,"track":58.6894,"magtrack":61.9085,"magvar":3.2,"speed":1.263,"climb":-0.052,"eps":0.43,"epc":386.73,"ecefx":3841069.45,"ecefy":716114.96,"ecefz":5024496.19,"ecefvx":-0.74,"ecefvy":0.96,"ecefvz":0.36,"ecefpAcc":4.19,"ecefvAcc":0.43,"velN":0.657,"velE":1.079,"velD":0.052,"geoidSep":43.899,"eph":21.090,"sep":38.380}
{"class":"SKY","device":"/dev/ttyACM0","time":"2024-07-09T11:35:56.500Z","gdop":2.33,"hdop":1.11,"pdop":2.02,"tdop":1.18,"xdop":1.00,"ydop":2.54,"vdop":1.68,"uSat":6}
{"class":"SKY","device":"/dev/ttyACM0","time":"2024-07-09T11:35:56.500Z","gdop":2.34,"hdop":1.11,"pdop":2.02,"tdop":1.18,"xdop":1.00,"ydop":2.54,"vdop":1.68,"uSat":6}
{"class":"TPV","device":"/dev/ttyACM0","mode":3,"time":"2024-07-09T11:35:56.748Z","leapseconds":18,"ept":0.005,"lat":52.316236512,"lon":10.560770926,"altHAE":133.6055,"altMSL":89.7067,"alt":89.7067,"epx":14.966,"epy":38.170,"epv":38.640,"track":58.6894,"magtrack":61.9085,"magvar":3.2,"speed":1.263,"climb":-0.052,"eps":307.82,"epc":386.73,"ecefx":3841069.45,"ecefy":716114.96,"ecefz":5024496.19,"ecefvx":-0.74,"ecefvy":0.96,"ecefvz":0.36,"ecefpAcc":4.19,"ecefvAcc":0.43,"velN":0.657,"velE":1.079,"velD":0.052,"geoidSep":43.899,"eph":21.090,"sep":38.380}
{"class":"SKY","device":"/dev/ttyACM0","time":"2024-07-09T11:35:56.748Z","gdop":2.34,"hdop":1.11,"pdop":2.02,"tdop":1.18,"xdop":1.00,"ydop":2.54,"vdop":1.68,"nSat":14,"uSat":8,"satellites":[{"PRN":2,"gnssid":0,"svid":2,"az":288.0,"el":83.0,"ss":48.0,"used":true,"health":1},{"PRN":28,"gnssid":0,"svid":28,"az":0.0,"el":-9.0,"ss":0.0,"used":false,"health":1},{"PRN":39,"gnssid":1,"svid":126,"az":0.0,"el":-9.0,"ss":0.0,"used":false,"health":1},{"PRN":12,"gnssid":0,"svid":12,"az":0.0,"el":-9.0,"ss":0.0,"used":false,"health":1},{"PRN":5,"gnssid":0,"svid":5,"az":0.0,"el":-9.0,"ss":0.0,"used":false,"health":1},{"PRN":17,"gnssid":0,"svid":17,"az":314.0,"el":24.0,"ss":45.0,"used":true,"health":1},{"PRN":14,"gnssid":0,"svid":14,"az":279.0,"el":17.0,"ss":41.0,"used":true,"health":1},{"PRN":8,"gnssid":0,"svid":8,"az":176.0,"el":27.0,"ss":36.0,"used":true,"health":1},{"PRN":3,"gnssid":0,"svid":3,"az":239.0,"el":39.0,"ss":44.0,"used":true,"health":1},{"PRN":32,"gnssid":0,"svid":32,"az":60.0,"el":38.0,"ss":48.0,"used":true,"health":1},{"PRN":10,"gnssid":0,"svid":10,"az":0.0,"el":-9.0,"ss":26.0,"used":false,"health":1},{"PRN":21,"gnssid":0,"svid":21,"az":119.0,"el":77.0,"ss":48.0,"used":true,"health":1},{"PRN":22,"gnssid":0,"svid":22,"az":303.0,"el":19.0,"ss":44.0,"used":true,"health":1},{"PRN":19,"gnssid":0,"svid":19,"az":324.0,"el":1.0,"ss":0.0,"used":false,"health":1}]}
{"class":"TPV","device":"/dev/ttyACM0","mode":3,"time":"2024-07-09T11:35:57.000Z","leapseconds":18,"ept":0.005,"lat":52.316238215,"lon":10.560774780,"altHAE":133.5982,"altMSL":89.6993,"alt":89.6993,"epx":14.966,"epy":38.170,"epv":38.640,"track":59.1858,"magtrack":62.4050,"magvar":3.2,"speed":1.239,"climb":-0.035,"eps":0.42,"epc":306.67,"ecefx":3841069.25,"ecefy":716115.19,"ecefz":5024496.30,"ecefvx":-0.71,"ecefvy":0.95,"ecefvz":0.36,"ecefpAcc":4.19,"ecefvAcc":0.42,"velN":0.635,"velE":1.064,"velD":0.035,"geoidSep":43.899,"eph":21.090,"sep":58.520}
{"class":"SKY","device":"/dev/ttyACM0","time":"2024-07-09T11:35:56.748Z","gdop":2.34,"hdop":1.11,"pdop":3.08,"tdop":1.18,"xdop":1.00,"ydop":2.54,"vdop":1.68,"uSat":6}
{"class":"SKY","device":"/dev/ttyACM0","time":"2024-07-09T11:35:56.748Z","gdop":3.67,"hdop":1.82,"pdop":3.08,"tdop":1.99,"xdop":1.00,"ydop":2.54,"vdop":2.49,"uSat":6}
{"class":"TPV","device":"/dev/ttyACM0","mode":3,"time":"2024-07-09T11:35:57.000Z","leapseconds":18,"ept":0.005,"lat":52.316238215,"lon":10.560774780,"altHAE":133.5982,"altMSL":89.6993,"alt":89.6993,"epx":14.966,"epy":38.170,"epv":38.640,"track":59.1858,"magtrack":62.4050,"magvar":3.2,"speed":1.239,"climb":-0.035,"eps":302.93,"epc":306.67,"ecefx":3841069.25,"ecefy":716115.19,"ecefz":5024496.30,"ecefvx":-0.71,"ecefvy":0.95,"ecefvz":0.36,"ecefpAcc":4.19,"ecefvAcc":0.42,"velN":0.635,"velE":1.064,"velD":0.035,"geoidSep":43.899,"eph":21.090,"sep":58.520}
{"class":"SKY","device":"/dev/ttyACM0","time":"2024-07-09T11:35:57.000Z","gdop":3.67,"hdop":1.82,"pdop":3.08,"tdop":1.99,"xdop":1.00,"ydop":2.54,"vdop":2.49,"nSat":14,"uSat":7,"satellites":[{"PRN":2,"gnssid":0,"svid":2,"az":288.0,"el":83.0,"ss":48.0,"used":true,"health":1},{"PRN":28,"gnssid":0,"svid":28,"az":0.0,"el":-9.0,"ss":0.0,"used":false,"health":1},{"PRN":39,"gnssid":1,"svid":126,"az":0.0,"el":-9.0,"ss":0.0,"used":false,"health":1},{"PRN":12,"gnssid":0,"svid":12,"az":0.0,"el":-9.0,"ss":0.0,"used":false,"health":1},{"PRN":5,"gnssid":0,"svid":5,"az":0.0,"el":-9.0,"ss":0.0,"used":false,"health":1},{"PRN":17,"gnssid":0,"svid":17,"az":314.0,"el":24.0,"ss":46.0,"used":true,"health":1},{"PRN":14,"gnssid":0,"svid":14,"az":279.0,"el":17.0,"ss":42.0,"used":true,"health":1},{"PRN":8,"gnssid":0,"svid":8,"az":176.0,"el":27.0,"ss":32.0,"used":false,"health":1},{"PRN":3,"gnssid":0,"svid":3,"az":239.0,"el":39.0,"ss":45.0,"used":true,"health":1},{"PRN":32,"gnssid":0,"svid":32,"az":60.0,"el":38.0,"ss":48.0,"used":true,"health":1},{"PRN":10,"gnssid":0,"svid":10,"az":0.0,"el":-9.0,"ss":27.0,"used":false,"health":1},{"PRN":21,"gnssid":0,"svid":21,"az":119.0,"el":77.0,"ss":48.0,"used":true,"health":1},{"PRN":22,"gnssid":0,"svid":22,"az":303.0,"el":19.0,"ss":44.0,"used":true,"health":1},{"PRN":19,"gnssid":0,"svid":19,"az":324.0,"el":1.0,"ss":0.0,"used":false,"health":1}]}
