{"class":"VERSION","release":"3.25","rev":"3.25","proto_major":3,"proto_minor":15}
{"class":"DEVICES","devices":[{"class":"DEVICE","path":"/dev/ttyACM0","driver":"u-blox","subtype":"SW 5.00    May 11 2006 14:40:17,HW 00040001","subtype1":"M4T1.2  May 11 2006 14:40:17","activated":"2024-07-09T10:18:47.993Z","flags":1,"native":1,"bps":57600,"parity":"N","stopbits":1,"cycle":1.00,"mincycle":0.02}]}
{"class":"WATCH","enable":true,"json":true,"nmea":false,"raw":0,"scaled":false,"timing":false,"split24":false,"pps":false}
{"class":"TPV","device":"/dev/ttyACM0","mode":3,"time":"2024-07-09T10:17:00.251Z","leapseconds":18,"ept":0.005,"lat":52.315663353,"lon":10.561614035,"altHAE":131.9734,"altMSL":88.0744,"alt":88.0744,"epx":12.114,"epy":24.818,"epv":43.240,"track":7.8698,"magtrack":11.0892,"magvar":3.2,"speed":1.941,"climb":0.157,"eps":0.51,"epc":344.09,"ecefx":3841107.55,"ecefy":716180.55,"ecefz":5024455.91,"ecefvx":-1.45,"ecefvy":0.00,"ecefvz":1.30,"ecefpAcc":6.00,"ecefvAcc":0.51,"velN":1.923,"velE":0.266,"velD":-0.157,"geoidSep":43.899,"eph":24.130,"sep":68.780}
{"class":"SKY","device":"/dev/ttyACM0","time":"2024-07-09T10:16:59.999Z","gdop":2.62,"hdop":1.27,"pdop":3.62,"tdop":1.31,"xdop":0.81,"ydop":1.65,"vdop":1.88,"uSat":6}
{"class":"SKY","device":"/dev/ttyACM0","time":"2024-07-09T10:16:59.999Z","gdop":4.31,"hdop":1.95,"pdop":3.62,"tdop":2.35,"xdop":0.81,"ydop":1.65,"vdop":3.05,"uSat":6}
{"class":"TPV","device":"/dev/ttyACM0","mode":3,"time":"2024-07-09T10:17:00.251Z","leapseconds":18,"ept":0.005,"lat":52.315663353,"lon":10.561614035,"altHAE":131.9734,"altMSL":88.0744,"alt":88.0744,"epx":12.114,"epy":24.818,"epv":43.240,"track":7.8698,"magtrack":11.0892,"magvar":3.2,"speed":1.941,"climb":0.157,"eps":196.97,"epc":344.09,"ecefx":3841107.55,"ecefy":716180.55,"ecefz":5024455.91,"ecefvx":-1.45,"ecefvy":0.00,"ecefvz":1.30,"ecefpAcc":6.00,"ecefvAcc":0.51,"velN":1.923,"velE":0.266,"velD":-0.157,"geoidSep":43.899,"eph":24.130,"sep":68.780}
{"class":"SKY","device":"/dev/ttyACM0","time":"2024-07-09T10:17:00.251Z","gdop":4.31,"hdop":1.95,"pdop":3.62,"tdop":2.35,"xdop":0.81,"ydop":1.65,"vdop":3.05,"nSat":13,"uSat":6,"satellites":[{"PRN":2,"gnssid":0,"svid":2,"az":282.0,"el":49.0,"ss":50.0,"used":true,"health":1},{"PRN":22,"gnssid":0,"svid":22,"az":332.0,"el":10.0,"ss":39.0,"used":false,"health":1},{"PRN":27,"gnssid":0,"svid":27,"az":155.0,"el":34.0,"ss":30.0,"used":false,"health":1},{"PRN":23,"gnssid":0,"svid":23,"az":51.0,"el":11.0,"ss":37.0,"used":true,"health":1},{"PRN":24,"gnssid":0,"svid":24,"az":29.0,"el":3.0,"ss":23.0,"used":false,"health":1},{"PRN":37,"gnssid":1,"svid":124,"az":0.0,"el":-9.0,"ss":0.0,"used":false,"health":1},{"PRN":14,"gnssid":0,"svid":14,"az":314.0,"el":21.0,"ss":42.0,"used":false,"health":1},{"PRN":8,"gnssid":0,"svid":8,"az":187.0,"el":64.0,"ss":44.0,"used":true,"health":1},{"PRN":10,"gnssid":0,"svid":10,"az":58.0,"el":45.0,"ss":48.0,"used":true,"health":1},{"PRN":3,"gnssid":0,"svid":3,"az":223.0,"el":6.0,"ss":0.0,"used":false,"health":1},{"PRN":32,"gnssid":0,"svid":32,"az":104.0,"el":37.0,"ss":45.0,"used":true,"health":1},{"PRN":21,"gnssid":0,"svid":21,"az":286.0,"el":68.0,"ss":48.0,"used":true,"health":1},{"PRN":20,"gnssid":0,"svid":20,"az":0.0,"el":-9.0,"ss":0.0,"used":false,"health":1}]}
{"class":"TPV","device":"/dev/ttyACM0","mode":3,"time":"2024-07-09T10:17:00.499Z","leapseconds":18,"ept":0.005,"lat":52.315667263,"lon":10.561614436,"altHAE":132.0290,"altMSL":88.1300,"alt":88.1300,"epx":12.114,"epy":24.818,"epv":70.150,"track":6.9561,"magtrack":10.1755,"magvar":3.2,"speed":1.906,"climb":0.156,"eps":0.50,"epc":457.22,"ecefx":3841107.24,"ecefy":716180.52,"ecefz":5024456.22,"ecefvx":-1.42,"ecefvy":-0.03,"ecefvz":1.28,"ecefpAcc":6.00,"ecefvAcc":0.50,"velN":1.892,"velE":0.231,"velD":-0.156,"geoidSep":43.899,"eph":37.050,"sep":68.780}
{"class":"SKY","device":"/dev/ttyACM0","time":"2024-07-09T10:17:00.251Z","gdop":4.31,"hdop":1.95,"pdop":3.62,"tdop":2.35,"xdop":0.81,"ydop":1.65,"vdop":3.05,"uSat":6}
{"class":"SKY","device":"/dev/ttyACM0","time":"2024-07-09T10:17:00.251Z","gdop":4.31,"hdop":1.95,"pdop":3.62,"tdop":2.35,"xdop":0.81,"ydop":1.65,"vdop":3.05,"uSat":6}
{"class":"TPV","device":"/dev/ttyACM0","mode":3,"time":"2024-07-09T10:17:00.499Z","leapseconds":18,"ept":0.005,"lat":52.315667263,"lon":10.561614436,"altHAE":132.0290,"altMSL":88.1300,"alt":88.1300,"epx":12.114,"epy":24.818,"epv":70.150,"track":6.9561,"magtrack":10.1755,"magvar":3.2,"speed":1.906,"climb":0.156,"eps":200.15,"epc":457.22,"ecefx":3841107.24,"ecefy":716180.52,"ecefz":5024456.22,"ecefvx":-1.42,"ecefvy":-0.03,"ecefvz":1.28,"ecefpAcc":6.00,"ecefvAcc":0.50,"velN":1.892,"velE":0.231,"velD":-0.156,"geoidSep":43.899,"eph":37.050,"sep":68.780}
{"class":"SKY","device":"/dev/ttyACM0","time":"2024-07-09T10:17:00.499Z","gdop":4.31,"hdop":1.95,"pdop":3.62,"tdop":2.35,"xdop":0.81,"ydop":1.65,"vdop":3.05,"nSat":13,"uSat":6,"satellites":[{"PRN":2,"gnssid":0,"svid":2,"az":282.0,"el":49.0,"ss":50.0,"used":true,"health":1},{"PRN":22,"gnssid":0,"svid":22,"az":332.0,"el":10.0,"ss":38.0,"used":false,"health":1},{"PRN":27,"gnssid":0,"svid":27,"az":155.0,"el":34.0,"ss":30.0,"used":false,"health":1},{"PRN":23,"gnssid":0,"svid":23,"az":51.0,"el":11.0,"ss":39.0,"used":true,"health":1},{"PRN":24,"gnssid":0,"svid":24,"az":29.0,"el":3.0,"ss":23.0,"used":false,"health":1},{"PRN":37,"gnssid":1,"svid":124,"az":0.0,"el":-9.0,"ss":0.0,"used":false,"health":1},{"PRN":14,"gnssid":0,"svid":14,"az":314.0,"el":21.0,"ss":42.0,"used":false,"health":1},{"PRN":8,"gnssid":0,"svid":8,"az":187.0,"el":64.0,"ss":44.0,"used":true,"health":1},{"PRN":10,"gnssid":0,"svid":10,"az":58.0,"el":45.0,"ss":49.0,"used":true,"health":1},{"PRN":3,"gnssid":0,"svid":3,"az":223.0,"el":6.0,"ss":0.0,"used":false,"health":1},{"PRN":32,"gnssid":0,"svid":32,"az":104.0,"el":37.0,"ss":46.0,"used":true,"health":1},{"PRN":21,"gnssid":0,"svid":21,"az":286.0,"el":68.0,"ss":48.0,"used":true,"health":1},{"PRN":20,"gnssid":0,"svid":20,"az":0.0,"el":-9.0,"ss":0.0,"used":false,"health":1}]}
{"class":"TPV","device":"/dev/ttyACM0","mode":3,"time":"2024-07-09T10:17:00.751Z","leapseconds":18,"ept":0.005,"lat":52.315670856,"lon":10.561615037,"altHAE":132.2762,"altMSL":88.3772,"alt":88.3772,"epx":12.114,"epy":24.818,"epv":70.150,"track":6.5520,"magtrack":9.7715,"magvar":3.2,"speed":1.840,"climb":0.167,"eps":0.50,"epc":556.75,"ecefx":3841107.07,"ecefy":716180.53,"ecefz":5024456.66,"ecefvx":-1.36,"ecefvy":-0.04,"ecefvz":1.25,"ecefpAcc":6.68,"ecefvAcc":0.50,"velN":1.828,"velE":0.210,"velD":-0.167,"geoidSep":43.899,"eph":37.050,"sep":40.850}
{"class":"SKY","device":"/dev/ttyACM0","time":"2024-07-09T10:17:00.499Z","gdop":4.31,"hdop":1.95,"pdop":2.15,"tdop":2.35,"xdop":0.81,"ydop":1.65,"vdop":3.05,"uSat":6}
{"class":"SKY","device":"/dev/ttyACM0","time":"2024-07-09T10:17:00.499Z","gdop":2.47,"hdop":1.19,"pdop":2.15,"tdop":1.23,"xdop":0.81,"ydop":1.65,"vdop":1.79,"uSat":6}
{"class":"TPV","device":"/dev/ttyACM0","mode":3,"time":"2024-07-09T10:17:00.751Z","leapseconds":18,"ept":0.005,"lat":52.315670856,"lon":10.561615037,"altHAE":132.2762,"altMSL":88.3772,"alt":88.3772,"epx":12.114,"epy":24.818,"epv":70.150,"track":6.5520,"magtrack":9.7715,"magvar":3.2,"speed":1.840,"climb":0.167,"eps":196.97,"epc":556.75,"ecefx":3841107.07,"ecefy":716180.53,"ecefz":5024456.66,"ecefvx":-1.36,"ecefvy":-0.04,"ecefvz":1.25,"ecefpAcc":6.68,"ecefvAcc":0.50,"velN":1.828,"velE":0.210,"velD":-0.167,"geoidSep":43.899,"eph":37.050,"sep":40.850}
{"class":"SKY","device":"/dev/ttyACM0","time":"2024-07-09T10:17:00.751Z","gdop":2.47,"hdop":1.19,"pdop":2.15,"tdop":1.23,"xdop":0.81,"ydop":1.65,"vdop":1.79,"nSat":13,"uSat":8,"satellites":[{"PRN":2,"gnssid":0,"svid":2,"az":282.0,"el":49.0,"ss":50.0,"used":true,"health":1},{"PRN":22,"gnssid":0,"svid":22,"az":332.0,"el":10.0,"ss":35.0,"used":true,"health":1},{"PRN":27,"gnssid":0,"svid":27,"az":155.0,"el":34.0,"ss":36.0,"used":true,"health":1},{"PRN":23,"gnssid":0,"svid":23,"az":51.0,"el":11.0,"ss":40.0,"used":true,"health":1},{"PRN":24,"gnssid":0,"svid":24,"az":29.0,"el":3.0,"ss":24.0,"used":false,"health":1},{"PRN":37,"gnssid":1,"svid":124,"az":0.0,"el":-9.0,"ss":0.0,"used":false,"health":1},{"PRN":14,"gnssid":0,"svid":14,"az":314.0,"el":21.0,"ss":43.0,"used":false,"health":1},{"PRN":8,"gnssid":0,"svid":8,"az":187.0,"el":64.0,"ss":41.0,"used":true,"health":1},{"PRN":10,"gnssid":0,"svid":10,"az":58.0,"el":45.0,"ss":49.0,"used":true,"health":1},{"PRN":3,"gnssid":0,"svid":3,"az":223.0,"el":6.0,"ss":0.0,"used":false,"health":1},{"PRN":32,"gnssid":0,"svid":32,"az":104.0,"el":37.0,"ss":45.0,"used":true,"health":1},{"PRN":21,"gnssid":0,"svid":21,"az":286.0,"el":68.0,"ss":48.0,"used":true,"health":1},{"PRN":20,"gnssid":0,"svid":20,"az":0.0,"el":-9.0,"ss":0.0,"used":false,"health":1}]}
{"class":"TPV","device":"/dev/ttyACM0","mode":3,"time":"2024-07-09T10:17:00.999Z","leapseconds":18,"ept":0.005,"lat":52.315675129,"lon":10.561616239,"altHAE":132.3511,"altMSL":88.4521,"alt":88.4521,"epx":12.114,"epy":24.818,"epv":41.170,"track":6.8890,"magtrack":10.1084,"magvar":3.2,"speed":1.848,"climb":0.163,"eps":0.51,"epc":448.87,"ecefx":3841106.73,"ecefy":716180.55,"ecefz":5024457.01,"ecefvx":-1.37,"ecefvy":-0.03,"ecefvz":1.25,"ecefpAcc":6.00,"ecefvAcc":0.51,"velN":1.834,"velE":0.222,"velD":-0.163,"geoidSep":43.899,"eph":22.610,"sep":42.180}
{"class":"SKY","device":"/dev/ttyACM0","time":"2024-07-09T10:17:00.751Z","gdop":2.47,"hdop":1.19,"pdop":2.22,"tdop":1.23,"xdop":0.81,"ydop":1.65,"vdop":1.79,"uSat":6}
{"class":"SKY","device":"/dev/ttyACM0","time":"2024-07-09T10:17:00.751Z","gdop":2.57,"hdop":1.17,"pdop":2.22,"tdop":1.29,"xdop":0.81,"ydop":1.65,"vdop":1.89,"uSat":6}
{"class":"TPV","device":"/dev/ttyACM0","mode":3,"time":"2024-07-09T10:17:00.999Z","leapseconds":18,"ept":0.005,"lat":52.315675129,"lon":10.561616239,"altHAE":132.3511,"altMSL":88.4521,"alt":88.4521,"epx":12.114,"epy":24.818,"epv":41.170,"track":6.8890,"magtrack":10.1084,"magvar":3.2,"speed":1.848,"climb":0.163,"eps":200.15,"epc":448.87,"ecefx":3841106.73,"ecefy":716180.55,"ecefz":5024457.01,"ecefvx":-1.37,"ecefvy":-0.03,"ecefvz":1.25,"ecefpAcc":6.00,"ecefvAcc":0.51,"velN":1.834,"velE":0.222,"velD":-0.163,"geoidSep":43.899,"eph":22.610,"sep":42.180}
{"class":"SKY","device":"/dev/ttyACM0","time":"2024-07-09T10:17:00.999Z","gdop":2.57,"hdop":1.17,"pdop":2.22,"tdop":1.29,"xdop":0.81,"ydop":1.65,"vdop":1.89,"nSat":13,"uSat":8,"satellites":[{"PRN":2,"gnssid":0,"svid":2,"az":282.0,"el":49.0,"ss":50.0,"used":true,"health":1},{"PRN":22,"gnssid":0,"svid":22,"az":332.0,"el":10.0,"ss":35.0,"used":false,"health":1},{"PRN":27,"gnssid":0,"svid":27,"az":155.0,"el":34.0,"ss":38.0,"used":true,"health":1},{"PRN":23,"gnssid":0,"svid":23,"az":51.0,"el":11.0,"ss":40.0,"used":true,"health":1},{"PRN":24,"gnssid":0,"svid":24,"az":29.0,"el":3.0,"ss":24.0,"used":false,"health":1},{"PRN":37,"gnssid":1,"svid":124,"az":0.0,"el":-9.0,"ss":0.0,"used":false,"health":1},{"PRN":14,"gnssid":0,"svid":14,"az":314.0,"el":21.0,"ss":43.0,"used":true,"health":1},{"PRN":8,"gnssid":0,"svid":8,"az":187.0,"el":64.0,"ss":40.0,"used":true,"health":1},{"PRN":10,"gnssid":0,"svid":10,"az":58.0,"el":45.0,"ss":49.0,"used":true,"health":1},{"PRN":3,"gnssid":0,"svid":3,"az":223.0,"el":6.0,"ss":0.0,"used":false,"health":1},{"PRN":32,"gnssid":0,"svid":32,"az":104.0,"el":37.0,"ss":45.0,"used":true,"health":1},{"PRN":21,"gnssid":0,"svid":21,"az":286.0,"el":68.0,"ss":48.0,"used":true,"health":1},{"PRN":20,"gnssid":0,"svid":20,"az":0.0,"el":-9.0,"ss":0.0,"used":false,"health":1}]}
{"class":"TPV","device":"/dev/ttyACM0","mode":3,"time":"2024-07-09T10:17:01.251Z","leapseconds":18,"ept":0.005,"lat":52.315679045,"lon":10.561617153,"altHAE":132.3684,"altMSL":88.4694,"alt":88.4694,"epx":12.114,"epy":24.818,"epv":43.470,"track":7.1946,"magtrack":10.4140,"magvar":3.2,"speed":1.833,"climb":0.162,"eps":0.51,"epc":335.87,"ecefx":3841106.39,"ecefy":716180.55,"ecefz":5024457.29,"ecefvx":-1.36,"ecefvy":-0.02,"ecefvz":1.24,"ecefpAcc":5.99,"ecefvAcc":0.51,"velN":1.819,"velE":0.230,"velD":-0.162,"geoidSep":43.899,"eph":22.230,"sep":42.180}
{"class":"SKY","device":"/dev/ttyACM0","time":"2024-07-09T10:17:00.999Z","gdop":2.57,"hdop":1.17,"pdop":2.22,"tdop":1.29,"xdop":0.81,"ydop":1.65,"vdop":1.89,"uSat":6}
{"class":"SKY","device":"/dev/ttyACM0","time":"2024-07-09T10:17:00.999Z","gdop":2.57,"hdop":1.17,"pdop":2.22,"tdop":1.29,"xdop":0.81,"ydop":1.65,"vdop":1.89,"uSat":6}
{"class":"TPV","device":"/dev/ttyACM0","mode":3,"time":"2024-07-09T10:17:01.251Z","leapseconds":18,"ept":0.005,"lat":52.315679045,"lon":10.561617153,"altHAE":132.3684,"altMSL":88.4694,"alt":88.4694,"epx":12.114,"epy":24.818,"epv":43.470,"track":7.1946,"magtrack":10.4140,"magvar":3.2,"speed":1.833,"climb":0.162,"eps":196.97,"epc":335.87,"ecefx":3841106.39,"ecefy":716180.55,"ecefz":5024457.29,"ecefvx":-1.36,"ecefvy":-0.02,"ecefvz":1.24,"ecefpAcc":5.99,"ecefvAcc":0.51,"velN":1.819,"velE":0.230,"velD":-0.162,"geoidSep":43.899,"eph":22.230,"sep":42.180}
{"class":"SKY","device":"/dev/ttyACM0","time":"2024-07-09T10:17:01.251Z","gdop":2.57,"hdop":1.17,"pdop":2.22,"tdop":1.29,"xdop":0.81,"ydop":1.65,"vdop":1.89,"nSat":13,"uSat":8,"satellites":[{"PRN":2,"gnssid":0,"svid":2,"az":282.0,"el":49.0,"ss":49.0,"used":true,"health":1},{"PRN":22,"gnssid":0,"svid":22,"az":332.0,"el":10.0,"ss":33.0,"used":false,"health":1},{"PRN":27,"gnssid":0,"svid":27,"az":155.0,"el":34.0,"ss":37.0,"used":true,"health":1},{"PRN":23,"gnssid":0,"svid":23,"az":51.0,"el":11.0,"ss":40.0,"used":true,"health":1},{"PRN":24,"gnssid":0,"svid":24,"az":29.0,"el":3.0,"ss":23.0,"used":false,"health":1},{"PRN":37,"gnssid":1,"svid":124,"az":0.0,"el":-9.0,"ss":0.0,"used":false,"health":1},{"PRN":14,"gnssid":0,"svid":14,"az":314.0,"el":21.0,"ss":43.0,"used":true,"health":1},{"PRN":8,"gnssid":0,"svid":8,"az":187.0,"el":64.0,"ss":40.0,"used":true,"health":1},{"PRN":10,"gnssid":0,"svid":10,"az":58.0,"el":45.0,"ss":50.0,"used":true,"health":1},{"PRN":3,"gnssid":0,"svid":3,"az":223.0,"el":6.0,"ss":0.0,"used":false,"health":1},{"PRN":32,"gnssid":0,"svid":32,"az":104.0,"el":37.0,"ss":45.0,"used":true,"health":1},{"PRN":21,"gnssid":0,"svid":21,"az":286.0,"el":68.0,"ss":47.0,"used":true,"health":1},{"PRN":20,"gnssid":0,"svid":20,"az":0.0,"el":-9.0,"ss":0.0,"used":false,"health":1}]}
{"class":"TPV","device":"/dev/ttyACM0","mode":3,"time":"2024-07-09T10:17:01.499Z","leapseconds":18,"ept":0.005,"lat":52.315682956,"lon":10.561618365,"altHAE":132.4745,"altMSL":88.5755,"alt":88.5755,"epx":12.114,"epy":24.818,"epv":43.470,"track":7.7940,"magtrack":11.0134,"magvar":3.2,"speed":1.811,"climb":0.168,"eps":0.52,"epc":350.56,"ecefx":3841106.10,"ecefy":716180.58,"ecefz":5024457.64,"ecefvx":-1.34,"ecefvy":0.00,"ecefvz":1.23,"ecefpAcc":6.03,"ecefvAcc":0.52,"velN":1.794,"velE":0.246,"velD":-0.168,"geoidSep":43.899,"eph":22.230,"sep":60.990}
{"class":"SKY","device":"/dev/ttyACM0","time":"2024-07-09T10:17:01.251Z","gdop":2.57,"hdop":1.17,"pdop":3.21,"tdop":1.29,"xdop":0.81,"ydop":1.65,"vdop":1.89,"uSat":6}
{"class":"SKY","device":"/dev/ttyACM0","time":"2024-07-09T10:17:01.251Z","gdop":3.78,"hdop":1.85,"pdop":3.21,"tdop":2.00,"xdop":0.81,"ydop":1.65,"vdop":2.63,"uSat":6}
{"class":"TPV","device":"/dev/ttyACM0","mode":3,"time":"2024-07-09T10:17:01.499Z","leapseconds":18,"ept":0.005,"lat":52.315682956,"lon":10.561618365,"altHAE":132.4745,"altMSL":88.5755,"alt":88.5755,"epx":12.114,"epy":24.818,"epv":43.470,"track":7.7940,"magtrack":11.0134,"magvar":3.2,"speed":1.811,"climb":0.168,"eps":200.15,"epc":350.56,"ecefx":3841106.10,"ecefy":716180.58,"ecefz":5024457.64,"ecefvx":-1.34,"ecefvy":0.00,"ecefvz":1.23,"ecefpAcc":6.03,"ecefvAcc":0.52,"velN":1.794,"velE":0.246,"velD":-0.168,"geoidSep":43.899,"eph":22.230,"sep":60.990}
{"class":"SKY","device":"/dev/ttyACM0","time":"2024-07-09T10:17:01.499Z","gdop":3.78,"hdop":1.85,"pdop":3.21,"tdop":2.00,"xdop":0.81,"ydop":1.65,"vdop":2.63,"nSat":13,"uSat":6,"satellites":[{"PRN":2,"gnssid":0,"svid":2,"az":282.0,"el":49.0,"ss":49.0,"used":true,"health":1},{"PRN":22,"gnssid":0,"svid":22,"az":332.0,"el":10.0,"ss":34.0,"used":true,"health":1},{"PRN":27,"gnssid":0,"svid":27,"az":155.0,"el":34.0,"ss":36.0,"used":false,"health":1},{"PRN":23,"gnssid":0,"svid":23,"az":51.0,"el":11.0,"ss":40.0,"used":false,"health":1},{"PRN":24,"gnssid":0,"svid":24,"az":29.0,"el":3.0,"ss":23.0,"used":false,"health":1},{"PRN":37,"gnssid":1,"svid":124,"az":0.0,"el":-9.0,"ss":0.0,"used":false,"health":1},{"PRN":14,"gnssid":0,"svid":14,"az":314.0,"el":21.0,"ss":42.0,"used":false,"health":1},{"PRN":8,"gnssid":0,"svid":8,"az":187.0,"el":64.0,"ss":43.0,"used":true,"health":1},{"PRN":10,"gnssid":0,"svid":10,"az":58.0,"el":45.0,"ss":51.0,"used":true,"health":1},{"PRN":3,"gnssid":0,"svid":3,"az":223.0,"el":6.0,"ss":0.0,"used":false,"health":1},{"PRN":32,"gnssid":0,"svid":32,"az":104.0,"el":37.0,"ss":47.0,"used":true,"health":1},{"PRN":21,"gnssid":0,"svid":21,"az":286.0,"el":68.0,"ss":47.0,"used":true,"health":1},{"PRN":20,"gnssid":0,"svid":20,"az":0.0,"el":-9.0,"ss":0.0,"used":false,"health":1}]}
{"class":"TPV","device":"/dev/ttyACM0","mode":3,"time":"2024-07-09T10:17:01.751Z","leapseconds":18,"ept":0.005,"lat":52.315687263,"lon":10.561619557,"altHAE":132.4707,"altMSL":88.5717,"alt":88.5717,"epx":12.114,"epy":24.818,"epv":60.490,"track":8.7570,"magtrack":11.9764,"magvar":3.2,"speed":1.819,"climb":0.165,"eps":0.54,"epc":412.54,"ecefx":3841105.71,"ecefy":716180.59,"ecefz":5024457.93,"ecefvx":-1.35,"ecefvy":0.03,"ecefvz":1.23,"ecefpAcc":6.01,"ecefvAcc":0.54,"velN":1.798,"velE":0.277,"velD":-0.165,"geoidSep":43.899,"eph":35.150,"sep":64.220}
{"class":"SKY","device":"/dev/ttyACM0","time":"2024-07-09T10:17:01.499Z","gdop":3.78,"hdop":1.85,"pdop":3.38,"tdop":2.00,"xdop":0.81,"ydop":1.65,"vdop":2.63,"uSat":6}
{"class":"SKY","device":"/dev/ttyACM0","time":"2024-07-09T10:17:01.499Z","gdop":4.01,"hdop":1.83,"pdop":3.38,"tdop":2.15,"xdop":0.81,"ydop":1.65,"vdop":2.84,"uSat":6}
{"class":"TPV","device":"/dev/ttyACM0","mode":3,"time":"2024-07-09T10:17:01.751Z","leapseconds":18,"ept":0.005,"lat":52.315687263,"lon":10.561619557,"altHAE":132.4707,"altMSL":88.5717,"alt":88.5717,"epx":12.114,"epy":24.818,"epv":60.490,"track":8.7570,"magtrack":11.9764,"magvar":3.2,"speed":1.819,"climb":0.165,"eps":196.97,"epc":412.54,"ecefx":3841105.71,"ecefy":716180.59,"ecefz":5024457.93,"ecefvx":-1.35,"ecefvy":0.03,"ecefvz":1.23,"ecefpAcc":6.01,"ecefvAcc":0.54,"velN":1.798,"velE":0.277,"velD":-0.165,"geoidSep":43.899,"eph":35.150,"sep":64.220}
{"class":"SKY","device":"/dev/ttyACM0","time":"2024-07-09T10:17:01.751Z","gdop":4.01,"hdop":1.83,"pdop":3.38,"tdop":2.15,"xdop":0.81,"ydop":1.65,"vdop":2.84,"nSat":13,"uSat":6,"satellites":[{"PRN":2,"gnssid":0,"svid":2,"az":282.0,"el":49.0,"ss":49.0,"used":true,"health":1},{"PRN":22,"gnssid":0,"svid":22,"az":332.0,"el":10.0,"ss":35.0,"used":false,"health":1},{"PRN":27,"gnssid":0,"svid":27,"az":155.0,"el":34.0,"ss":39.0,"used":false,"health":1},{"PRN":23,"gnssid":0,"svid":23,"az":51.0,"el":11.0,"ss":40.0,"used":false,"health":1},{"PRN":24,"gnssid":0,"svid":24,"az":29.0,"el":3.0,"ss":23.0,"used":false,"health":1},{"PRN":37,"gnssid":1,"svid":124,"az":0.0,"el":-9.0,"ss":0.0,"used":false,"health":1},{"PRN":14,"gnssid":0,"svid":14,"az":314.0,"el":21.0,"ss":42.0,"used":true,"health":1},{"PRN":8,"gnssid":0,"svid":8,"az":187.0,"el":64.0,"ss":44.0,"used":true,"health":1},{"PRN":10,"gnssid":0,"svid":10,"az":58.0,"el":45.0,"ss":51.0,"used":true,"health":1},{"PRN":3,"gnssid":0,"svid":3,"az":223.0,"el":6.0,"ss":0.0,"used":false,"health":1},{"PRN":32,"gnssid":0,"svid":32,"az":104.0,"el":37.0,"ss":46.0,"used":true,"health":1},{"PRN":21,"gnssid":0,"svid":21,"az":286.0,"el":68.0,"ss":47.0,"used":true,"health":1},{"PRN":20,"gnssid":0,"svid":20,"az":0.0,"el":-9.0,"ss":0.0,"used":false,"health":1}]}
{"class":"TPV","device":"/dev/ttyACM0","mode":3,"time":"2024-07-09T10:17:01.999Z","leapseconds":18,"ept":0.005,"lat":52.315691555,"lon":10.561621128,"altHAE":132.5061,"altMSL":88.6071,"alt":88.6071,"epx":12.114,"epy":24.818,"epv":65.320,"track":8.7570,"magtrack":11.9764,"magvar":3.2,"speed":1.819,"climb":0.165,"eps":0.54,"epc":507.30,"ecefx":3841105.34,"ecefy":716180.63,"ecefz":5024458.25,"ecefvx":-1.35,"ecefvy":0.03,"ecefvz":1.23,"ecefpAcc":6.02,"ecefvAcc":0.54,"velN":1.798,"velE":0.277,"velD":-0.165,"geoidSep":43.899,"eph":34.770,"sep":84.740}
{"class":"SKY","device":"/dev/ttyACM0","time":"2024-07-09T10:17:01.751Z","gdop":4.01,"hdop":1.83,"pdop":4.46,"tdop":2.15,"xdop":0.81,"ydop":1.65,"vdop":2.84,"uSat":6}
{"class":"SKY","device":"/dev/ttyACM0","time":"2024-07-09T10:17:01.751Z","gdop":5.52,"hdop":1.56,"pdop":4.46,"tdop":3.25,"xdop":0.81,"ydop":1.65,"vdop":4.18,"uSat":6}
{"class":"TPV","device":"/dev/ttyACM0","mode":3,"time":"2024-07-09T10:17:01.999Z","leapseconds":18,"ept":0.005,"lat":52.315691555,"lon":10.561621128,"altHAE":132.5061,"altMSL":88.6071,"alt":88.6071,"epx":12.114,"epy":24.818,"epv":65.320,"track":8.7570,"magtrack":11.9764,"magvar":3.2,"speed":1.819,"climb":0.165,"eps":200.15,"epc":507.30,"ecefx":3841105.34,"ecefy":716180.63,"ecefz":5024458.25,"ecefvx":-1.35,"ecefvy":0.03,"ecefvz":1.23,"ecefpAcc":6.02,"ecefvAcc":0.54,"velN":1.798,"velE":0.277,"velD":-0.165,"geoidSep":43.899,"eph":34.770,"sep":84.740}
{"class":"SKY","device":"/dev/ttyACM0","time":"2024-07-09T10:17:01.999Z","gdop":5.52,"hdop":1.56,"pdop":4.46,"tdop":3.25,"xdop":0.81,"ydop":1.65,"vdop":4.18,"nSat":13,"uSat":6,"satellites":[{"PRN":2,"gnssid":0,"svid":2,"az":282.0,"el":49.0,"ss":49.0,"used":true,"health":1},{"PRN":22,"gnssid":0,"svid":22,"az":332.0,"el":10.0,"ss":36.0,"used":false,"health":1},{"PRN":27,"gnssid":0,"svid":27,"az":155.0,"el":34.0,"ss":35.0,"used":true,"health":1},{"PRN":23,"gnssid":0,"svid":23,"az":51.0,"el":11.0,"ss":39.0,"used":false,"health":1},{"PRN":24,"gnssid":0,"svid":24,"az":29.0,"el":3.0,"ss":22.0,"used":false,"health":1},{"PRN":37,"gnssid":1,"svid":124,"az":0.0,"el":-9.0,"ss":0.0,"used":false,"health":1},{"PRN":14,"gnssid":0,"svid":14,"az":314.0,"el":21.0,"ss":42.0,"used":false,"health":1},{"PRN":8,"gnssid":0,"svid":8,"az":187.0,"el":64.0,"ss":46.0,"used":true,"health":1},{"PRN":10,"gnssid":0,"svid":10,"az":58.0,"el":45.0,"ss":51.0,"used":true,"health":1},{"PRN":3,"gnssid":0,"svid":3,"az":223.0,"el":6.0,"ss":0.0,"used":false,"health":1},{"PRN":32,"gnssid":0,"svid":32,"az":104.0,"el":37.0,"ss":48.0,"used":true,"health":1},{"PRN":21,"gnssid":0,"svid":21,"az":286.0,"el":68.0,"ss":47.0,"used":true,"health":1},{"PRN":20,"gnssid":0,"svid":20,"az":0.0,"el":-9.0,"ss":0.0,"used":false,"health":1}]}
{"class":"TPV","device":"/dev/ttyACM0","mode":3,"time":"2024-07-09T10:17:02.251Z","leapseconds":18,"ept":0.005,"lat":52.315695694,"lon":10.561623025,"altHAE":132.5926,"altMSL":88.6936,"alt":88.6936,"epx":12.114,"epy":24.818,"epv":96.140,"track":9.0882,"magtrack":12.3077,"magvar":3.2,"speed":1.827,"climb":0.161,"eps":0.54,"epc":640.71,"ecefx":3841105.01,"ecefy":716180.70,"ecefz":5024458.60,"ecefvx":-1.36,"ecefvy":0.04,"ecefvz":1.23,"ecefpAcc":6.26,"ecefvAcc":0.54,"velN":1.804,"velE":0.289,"velD":-0.161,"geoidSep":43.899,"eph":29.640,"sep":43.130}
{"class":"SKY","device":"/dev/ttyACM0","time":"2024-07-09T10:17:01.999Z","gdop":5.52,"hdop":1.56,"pdop":2.27,"tdop":3.25,"xdop":0.81,"ydop":1.65,"vdop":4.18,"uSat":6}
{"class":"SKY","device":"/dev/ttyACM0","time":"2024-07-09T10:17:01.999Z","gdop":2.62,"hdop":1.27,"pdop":2.27,"tdop":1.31,"xdop":0.81,"ydop":1.65,"vdop":1.88,"uSat":6}
{"class":"TPV","device":"/dev/ttyACM0","mode":3,"time":"2024-07-09T10:17:02.251Z","leapseconds":18,"ept":0.005,"lat":52.315695694,"lon":10.561623025,"altHAE":132.5926,"altMSL":88.6936,"alt":88.6936,"epx":12.114,"epy":24.818,"epv":96.140,"track":9.0882,"magtrack":12.3077,"magvar":3.2,"speed":1.827,"climb":0.161,"eps":196.97,"epc":640.71,"ecefx":3841105.01,"ecefy":716180.70,"ecefz":5024458.60,"ecefvx":-1.36,"ecefvy":0.04,"ecefvz":1.23,"ecefpAcc":6.26,"ecefvAcc":0.54,"velN":1.804,"velE":0.289,"velD":-0.161,"geoidSep":43.899,"eph":29.640,"sep":43.130}
{"class":"SKY","device":"/dev/ttyACM0","time":"2024-07-09T10:17:02.251Z","gdop":2.62,"hdop":1.27,"pdop":2.27,"tdop":1.31,"xdop":0.81,"ydop":1.65,"vdop":1.88,"nSat":13,"uSat":7,"satellites":[{"PRN":2,"gnssid":0,"svid":2,"az":282.0,"el":49.0,"ss":49.0,"used":true,"health":1},{"PRN":22,"gnssid":0,"svid":22,"az":332.0,"el":10.0,"ss":34.0,"used":true,"health":1},{"PRN":27,"gnssid":0,"svid":27,"az":155.0,"el":34.0,"ss":36.0,"used":true,"health":1},{"PRN":23,"gnssid":0,"svid":23,"az":51.0,"el":11.0,"ss":39.0,"used":false,"health":1},{"PRN":24,"gnssid":0,"svid":24,"az":29.0,"el":3.0,"ss":22.0,"used":false,"health":1},{"PRN":37,"gnssid":1,"svid":124,"az":0.0,"el":-9.0,"ss":0.0,"used":false,"health":1},{"PRN":14,"gnssid":0,"svid":14,"az":314.0,"el":21.0,"ss":42.0,"used":false,"health":1},{"PRN":8,"gnssid":0,"svid":8,"az":187.0,"el":64.0,"ss":47.0,"used":true,"health":1},{"PRN":10,"gnssid":0,"svid":10,"az":58.0,"el":45.0,"ss":51.0,"used":true,"health":1},{"PRN":3,"gnssid":0,"svid":3,"az":223.0,"el":6.0,"ss":0.0,"used":false,"health":1},{"PRN":32,"gnssid":0,"svid":32,"az":104.0,"el":37.0,"ss":45.0,"used":true,"health":1},{"PRN":21,"gnssid":0,"svid":21,"az":286.0,"el":68.0,"ss":47.0,"used":true,"health":1},{"PRN":20,"gnssid":0,"svid":20,"az":0.0,"el":-9.0,"ss":0.0,"used":false,"health":1}]}
{"class":"TPV","device":"/dev/ttyACM0","mode":3,"time":"2024-07-09T10:17:02.499Z","leapseconds":18,"ept":0.005,"lat":52.315699206,"lon":10.561625255,"altHAE":132.7456,"altMSL":88.8467,"alt":88.8467,"epx":12.114,"epy":24.818,"epv":43.240,"track":11.0452,"magtrack":14.2646,"magvar":3.2,"speed":1.757,"climb":0.172,"eps":0.52,"epc":562.02,"ecefx":3841104.77,"ecefy":716180.81,"ecefz":5024458.96,"ecefvx":-1.30,"ecefvy":0.10,"ecefvz":1.19,"ecefpAcc":6.02,"ecefvAcc":0.52,"velN":1.724,"velE":0.337,"velD":-0.172,"geoidSep":43.899,"eph":24.130,"sep":39.140}
{"class":"SKY","device":"/dev/ttyACM0","time":"2024-07-09T10:17:02.251Z","gdop":2.62,"hdop":1.27,"pdop":2.06,"tdop":1.31,"xdop":0.81,"ydop":1.65,"vdop":1.88,"uSat":6}
{"class":"SKY","device":"/dev/ttyACM0","time":"2024-07-09T10:17:02.251Z","gdop":2.35,"hdop":1.14,"pdop":2.06,"tdop":1.14,"xdop":0.81,"ydop":1.65,"vdop":1.71,"uSat":6}
{"class":"TPV","device":"/dev/ttyACM0","mode":3,"time":"2024-07-09T10:17:02.499Z","leapseconds":18,"ept":0.005,"lat":52.315699206,"lon":10.561625255,"altHAE":132.7456,"altMSL":88.8467,"alt":88.8467,"epx":12.114,"epy":24.818,"epv":43.240,"track":11.0452,"magtrack":14.2646,"magvar":3.2,"speed":1.757,"climb":0.172,"eps":200.15,"epc":562.02,"ecefx":3841104.77,"ecefy":716180.81,"ecefz":5024458.96,"ecefvx":-1.30,"ecefvy":0.10,"ecefvz":1.19,"ecefpAcc":6.02,"ecefvAcc":0.52,"velN":1.724,"velE":0.337,"velD":-0.172,"geoidSep":43.899,"eph":24.130,"sep":39.140}
{"class":"SKY","device":"/dev/ttyACM0","time":"2024-07-09T10:17:02.499Z","gdop":2.35,"hdop":1.14,"pdop":2.06,"tdop":1.14,"xdop":0.81,"ydop":1.65,"vdop":1.71,"nSat":13,"uSat":9,"satellites":[{"PRN":2,"gnssid":0,"svid":2,"az":282.0,"el":49.0,"ss":48.0,"used":true,"health":1},{"PRN":22,"gnssid":0,"svid":22,"az":332.0,"el":10.0,"ss":32.0,"used":true,"health":1},{"PRN":27,"gnssid":0,"svid":27,"az":155.0,"el":34.0,"ss":41.0,"used":true,"health":1},{"PRN":23,"gnssid":0,"svid":23,"az":51.0,"el":11.0,"ss":38.0,"used":true,"health":1},{"PRN":24,"gnssid":0,"svid":24,"az":29.0,"el":3.0,"ss":23.0,"used":false,"health":1},{"PRN":37,"gnssid":1,"svid":124,"az":0.0,"el":-9.0,"ss":0.0,"used":false,"health":1},{"PRN":14,"gnssid":0,"svid":14,"az":314.0,"el":21.0,"ss":43.0,"used":true,"health":1},{"PRN":8,"gnssid":0,"svid":8,"az":187.0,"el":64.0,"ss":48.0,"used":true,"health":1},{"PRN":10,"gnssid":0,"svid":10,"az":58.0,"el":45.0,"ss":50.0,"used":true,"health":1},{"PRN":3,"gnssid":0,"svid":3,"az":223.0,"el":6.0,"ss":0.0,"used":false,"health":1},{"PRN":32,"gnssid":0,"svid":32,"az":104.0,"el":37.0,"ss":45.0,"used":true,"health":1},{"PRN":21,"gnssid":0,"svid":21,"az":286.0,"el":68.0,"ss":47.0,"used":true,"health":1},{"PRN":20,"gnssid":0,"svid":20,"az":0.0,"el":-9.0,"ss":0.0,"used":false,"health":1}]}
{"class":"TPV","device":"/dev/ttyACM0","mode":3,"time":"2024-07-09T10:17:02.751Z","leapseconds":18,"ept":0.005,"lat":52.315704617,"lon":10.561627491,"altHAE":132.7228,"altMSL":88.8239,"alt":88.8239,"epx":12.114,"epy":24.818,"epv":39.330,"track":11.8946,"magtrack":15.1140,"magvar":3.2,"speed":1.838,"climb":0.165,"eps":0.49,"epc":327.66,"ecefx":3841104.26,"ecefy":716180.87,"ecefz":5024459.31,"ecefvx":-1.37,"ecefvy":0.13,"ecefvz":1.23,"ecefpAcc":6.01,"ecefvAcc":0.49,"velN":1.799,"velE":0.379,"velD":-0.165,"geoidSep":43.899,"eph":21.660,"sep":42.180}
{"class":"SKY","device":"/dev/ttyACM0","time":"2024-07-09T10:17:02.499Z","gdop":2.35,"hdop":1.14,"pdop":2.22,"tdop":1.14,"xdop":0.81,"ydop":1.65,"vdop":1.71,"uSat":6}
{"class":"SKY","device":"/dev/ttyACM0","time":"2024-07-09T10:17:02.499Z","gdop":2.57,"hdop":1.17,"pdop":2.22,"tdop":1.29,"xdop":0.81,"ydop":1.65,"vdop":1.89,"uSat":6}
{"class":"TPV","device":"/dev/ttyACM0","mode":3,"time":"2024-07-09T10:17:02.751Z","leapseconds":18,"ept":0.005,"lat":52.315704617,"lon":10.561627491,"altHAE":132.7228,"altMSL":88.8239,"alt":88.8239,"epx":12.114,"epy":24.818,"epv":39.330,"track":11.8946,"magtrack":15.1140,"magvar":3.2,"speed":1.838,"climb":0.165,"eps":196.97,"epc":327.66,"ecefx":3841104.26,"ecefy":716180.87,"ecefz":5024459.31,"ecefvx":-1.37,"ecefvy":0.13,"ecefvz":1.23,"ecefpAcc":6.01,"ecefvAcc":0.49,"velN":1.799,"velE":0.379,"velD":-0.165,"geoidSep":43.899,"eph":21.660,"sep":42.180}
{"class":"SKY","device":"/dev/ttyACM0","time":"2024-07-09T10:17:02.751Z","gdop":2.57,"hdop":1.17,"pdop":2.22,"tdop":1.29,"xdop":0.81,"ydop":1.65,"vdop":1.89,"nSat":13,"uSat":8,"satellites":[{"PRN":2,"gnssid":0,"svid":2,"az":282.0,"el":49.0,"ss":48.0,"used":true,"health":1},{"PRN":22,"gnssid":0,"svid":22,"az":332.0,"el":10.0,"ss":33.0,"used":false,"health":1},{"PRN":27,"gnssid":0,"svid":27,"az":155.0,"el":34.0,"ss":41.0,"used":true,"health":1},{"PRN":23,"gnssid":0,"svid":23,"az":51.0,"el":11.0,"ss":38.0,"used":true,"health":1},{"PRN":24,"gnssid":0,"svid":24,"az":29.0,"el":3.0,"ss":22.0,"used":false,"health":1},{"PRN":37,"gnssid":1,"svid":124,"az":0.0,"el":-9.0,"ss":0.0,"used":false,"health":1},{"PRN":14,"gnssid":0,"svid":14,"az":314.0,"el":21.0,"ss":43.0,"used":true,"health":1},{"PRN":8,"gnssid":0,"svid":8,"az":187.0,"el":64.0,"ss":46.0,"used":true,"health":1},{"PRN":10,"gnssid":0,"svid":10,"az":58.0,"el":45.0,"ss":50.0,"used":true,"health":1},{"PRN":3,"gnssid":0,"svid":3,"az":223.0,"el":6.0,"ss":0.0,"used":false,"health":1},{"PRN":32,"gnssid":0,"svid":32,"az":104.0,"el":37.0,"ss":43.0,"used":true,"health":1},{"PRN":21,"gnssid":0,"svid":21,"az":286.0,"el":68.0,"ss":46.0,"used":true,"health":1},{"PRN":20,"gnssid":0,"svid":20,"az":0.0,"el":-9.0,"ss":0.0,"used":false,"health":1}]}
{"class":"TPV","device":"/dev/ttyACM0","mode":3,"time":"2024-07-09T10:17:02.999Z","leapseconds":18,"ept":0.005,"lat":52.315709362,"lon":10.561629854,"altHAE":132.7067,"altMSL":88.8078,"alt":88.8078,"epx":12.114,"epy":24.818,"epv":43.470,"track":13.9489,"magtrack":17.1683,"magvar":3.2,"speed":1.888,"climb":0.164,"eps":0.49,"epc":333.87,"ecefx":3841103.81,"ecefy":716180.95,"ecefz":5024459.62,"ecefvx":-1.41,"ecefvy":0.20,"ecefvz":1.25,"ecefpAcc":6.01,"ecefvAcc":0.49,"velN":1.832,"velE":0.455,"velD":-0.164,"geoidSep":43.899,"eph":22.230,"sep":64.220}
{"class":"SKY","device":"/dev/ttyACM0","time":"2024-07-09T10:17:02.751Z","gdop":2.57,"hdop":1.17,"pdop":3.38,"tdop":1.29,"xdop":0.81,"ydop":1.65,"vdop":1.89,"uSat":6}
{"class":"SKY","device":"/dev/ttyACM0","time":"2024-07-09T10:17:02.751Z","gdop":4.01,"hdop":1.83,"pdop":3.38,"tdop":2.15,"xdop":0.81,"ydop":1.65,"vdop":2.84,"uSat":6}
{"class":"TPV","device":"/dev/ttyACM0","mode":3,"time":"2024-07-09T10:17:02.999Z","leapseconds":18,"ept":0.005,"lat":52.315709362,"lon":10.561629854,"altHAE":132.7067,"altMSL":88.8078,"alt":88.8078,"epx":12.114,"epy":24.818,"epv":43.470,"track":13.9489,"magtrack":17.1683,"magvar":3.2,"speed":1.888,"climb":0.164,"eps":200.15,"epc":333.87,"ecefx":3841103.81,"ecefy":716180.95,"ecefz":5024459.62,"ecefvx":-1.41,"ecefvy":0.20,"ecefvz":1.25,"ecefpAcc":6.01,"ecefvAcc":0.49,"velN":1.832,"velE":0.455,"velD":-0.164,"geoidSep":43.899,"eph":22.230,"sep":64.220}
{"class":"SKY","device":"/dev/ttyACM0","time":"2024-07-09T10:17:02.999Z","gdop":4.01,"hdop":1.83,"pdop":3.38,"tdop":2.15,"xdop":0.81,"ydop":1.65,"vdop":2.84,"nSat":13,"uSat":6,"satellites":[{"PRN":2,"gnssid":0,"svid":2,"az":282.0,"el":49.0,"ss":48.0,"used":true,"health":1},{"PRN":22,"gnssid":0,"svid":22,"az":332.0,"el":10.0,"ss":33.0,"used":false,"health":1},{"PRN":27,"gnssid":0,"svid":27,"az":155.0,"el":34.0,"ss":34.0,"used":false,"health":1},{"PRN":23,"gnssid":0,"svid":23,"az":51.0,"el":11.0,"ss":37.0,"used":false,"health":1},{"PRN":24,"gnssid":0,"svid":24,"az":29.0,"el":3.0,"ss":22.0,"used":false,"health":1},{"PRN":37,"gnssid":1,"svid":124,"az":0.0,"el":-9.0,"ss":0.0,"used":false,"health":1},{"PRN":14,"gnssid":0,"svid":14,"az":314.0,"el":21.0,"ss":42.0,"used":true,"health":1},{"PRN":8,"gnssid":0,"svid":8,"az":187.0,"el":64.0,"ss":46.0,"used":true,"health":1},{"PRN":10,"gnssid":0,"svid":10,"az":58.0,"el":45.0,"ss":50.0,"used":true,"health":1},{"PRN":3,"gnssid":0,"svid":3,"az":223.0,"el":6.0,"ss":0.0,"used":false,"health":1},{"PRN":32,"gnssid":0,"svid":32,"az":104.0,"el":37.0,"ss":40.0,"used":true,"health":1},{"PRN":21,"gnssid":0,"svid":21,"az":286.0,"el":68.0,"ss":47.0,"used":true,"health":1},{"PRN":20,"gnssid":0,"svid":20,"az":0.0,"el":-9.0,"ss":0.0,"used":false,"health":1}]}
{"class":"TPV","device":"/dev/ttyACM0","mode":3,"time":"2024-07-09T10:17:03.251Z","leapseconds":18,"ept":0.005,"lat":52.315714503,"lon":10.561632651,"altHAE":133.0229,"altMSL":89.1240,"alt":89.1240,"epx":12.114,"epy":24.818,"epv":65.320,"track":13.3879,"magtrack":16.6073,"magvar":3.2,"speed":1.962,"climb":0.181,"eps":0.48,"epc":431.71,"ecefx":3841103.52,"ecefy":716181.09,"ecefz":5024460.22,"ecefvx":-1.46,"ecefvy":0.19,"ecefvz":1.31,"ecefpAcc":7.30,"ecefvAcc":0.48,"velN":1.909,"velE":0.454,"velD":-0.181,"geoidSep":43.899,"eph":34.770,"sep":59.090}
{"class":"SKY","device":"/dev/ttyACM0","time":"2024-07-09T10:17:02.999Z","gdop":4.01,"hdop":1.83,"pdop":3.11,"tdop":2.15,"xdop":0.81,"ydop":1.65,"vdop":2.84,"uSat":6}
{"class":"SKY","device":"/dev/ttyACM0","time":"2024-07-09T10:17:02.999Z","gdop":3.64,"hdop":1.82,"pdop":3.11,"tdop":1.90,"xdop":0.81,"ydop":1.65,"vdop":2.52,"uSat":6}
{"class":"TPV","device":"/dev/ttyACM0","mode":3,"time":"2024-07-09T10:17:03.251Z","leapseconds":18,"ept":0.005,"lat":52.315714503,"lon":10.561632651,"altHAE":133.0229,"altMSL":89.1240,"alt":89.1240,"epx":12.114,"epy":24.818,"epv":65.320,"track":13.3879,"magtrack":16.6073,"magvar":3.2,"speed":1.962,"climb":0.181,"eps":196.97,"epc":431.71,"ecefx":3841103.52,"ecefy":716181.09,"ecefz":5024460.22,"ecefvx":-1.46,"ecefvy":0.19,"ecefvz":1.31,"ecefpAcc":7.30,"ecefvAcc":0.48,"velN":1.909,"velE":0.454,"velD":-0.181,"geoidSep":43.899,"eph":34.770,"sep":59.090}
{"class":"SKY","device":"/dev/ttyACM0","time":"2024-07-09T10:17:03.251Z","gdop":3.64,"hdop":1.82,"pdop":3.11,"tdop":1.90,"xdop":0.81,"ydop":1.65,"vdop":2.52,"nSat":13,"uSat":7,"satellites":[{"PRN":2,"gnssid":0,"svid":2,"az":282.0,"el":49.0,"ss":49.0,"used":true,"health":1},{"PRN":22,"gnssid":0,"svid":22,"az":332.0,"el":10.0,"ss":36.0,"used":true,"health":1},{"PRN":27,"gnssid":0,"svid":27,"az":155.0,"el":34.0,"ss":34.0,"used":false,"health":1},{"PRN":23,"gnssid":0,"svid":23,"az":51.0,"el":11.0,"ss":36.0,"used":false,"health":1},{"PRN":24,"gnssid":0,"svid":24,"az":29.0,"el":3.0,"ss":23.0,"used":false,"health":1},{"PRN":37,"gnssid":1,"svid":124,"az":0.0,"el":-9.0,"ss":0.0,"used":false,"health":1},{"PRN":14,"gnssid":0,"svid":14,"az":314.0,"el":21.0,"ss":42.0,"used":true,"health":1},{"PRN":8,"gnssid":0,"svid":8,"az":187.0,"el":64.0,"ss":48.0,"used":true,"health":1},{"PRN":10,"gnssid":0,"svid":10,"az":58.0,"el":45.0,"ss":50.0,"used":true,"health":1},{"PRN":3,"gnssid":0,"svid":3,"az":223.0,"el":6.0,"ss":0.0,"used":false,"health":1},{"PRN":32,"gnssid":0,"svid":32,"az":104.0,"el":37.0,"ss":39.0,"used":true,"health":1},{"PRN":21,"gnssid":0,"svid":21,"az":286.0,"el":68.0,"ss":48.0,"used":true,"health":1},{"PRN":20,"gnssid":0,"svid":20,"az":0.0,"el":-9.0,"ss":0.0,"used":false,"health":1}]}
{"class":"TPV","device":"/dev/ttyACM0","mode":3,"time":"2024-07-09T10:17:03.499Z","leapseconds":18,"ept":0.005,"lat":52.315719760,"lon":10.561634977,"altHAE":133.0133,"altMSL":89.1144,"alt":89.1144,"epx":12.114,"epy":24.818,"epv":57.960,"track":14.9384,"magtrack":18.1578,"magvar":3.2,"speed":2.034,"climb":0.175,"eps":0.48,"epc":497.10,"ecefx":3841103.03,"ecefy":716181.16,"ecefz":5024460.57,"ecefvx":-1.52,"ecefvy":0.25,"ecefvz":1.34,"ecefpAcc":6.01,"ecefvAcc":0.48,"velN":1.965,"velE":0.524,"velD":-0.175,"geoidSep":43.899,"eph":34.580,"sep":47.310}
{"class":"SKY","device":"/dev/ttyACM0","time":"2024-07-09T10:17:03.251Z","gdop":3.64,"hdop":1.82,"pdop":2.49,"tdop":1.90,"xdop":0.81,"ydop":1.65,"vdop":2.52,"uSat":6}
{"class":"SKY","device":"/dev/ttyACM0","time":"2024-07-09T10:17:03.251Z","gdop":2.91,"hdop":1.26,"pdop":2.49,"tdop":1.51,"xdop":0.81,"ydop":1.65,"vdop":2.14,"uSat":6}
{"class":"TPV","device":"/dev/ttyACM0","mode":3,"time":"2024-07-09T10:17:03.499Z","leapseconds":18,"ept":0.005,"lat":52.315719760,"lon":10.561634977,"altHAE":133.0133,"altMSL":89.1144,"alt":89.1144,"epx":12.114,"epy":24.818,"epv":57.960,"track":14.9384,"magtrack":18.1578,"magvar":3.2,"speed":2.034,"climb":0.175,"eps":200.15,"epc":497.10,"ecefx":3841103.03,"ecefy":716181.16,"ecefz":5024460.57,"ecefvx":-1.52,"ecefvy":0.25,"ecefvz":1.34,"ecefpAcc":6.01,"ecefvAcc":0.48,"velN":1.965,"velE":0.524,"velD":-0.175,"geoidSep":43.899,"eph":34.580,"sep":47.310}
{"class":"SKY","device":"/dev/ttyACM0","time":"2024-07-09T10:17:03.499Z","gdop":2.91,"hdop":1.26,"pdop":2.49,"tdop":1.51,"xdop":0.81,"ydop":1.65,"vdop":2.14,"nSat":13,"uSat":7,"satellites":[{"PRN":2,"gnssid":0,"svid":2,"az":282.0,"el":49.0,"ss":49.0,"used":true,"health":1},{"PRN":22,"gnssid":0,"svid":22,"az":332.0,"el":10.0,"ss":34.0,"used":false,"health":1},{"PRN":27,"gnssid":0,"svid":27,"az":155.0,"el":34.0,"ss":34.0,"used":true,"health":1},{"PRN":23,"gnssid":0,"svid":23,"az":51.0,"el":11.0,"ss":35.0,"used":false,"health":1},{"PRN":24,"gnssid":0,"svid":24,"az":29.0,"el":3.0,"ss":22.0,"used":false,"health":1},{"PRN":39,"gnssid":1,"svid":126,"az":0.0,"el":-9.0,"ss":0.0,"used":false,"health":1},{"PRN":14,"gnssid":0,"svid":14,"az":314.0,"el":21.0,"ss":43.0,"used":true,"health":1},{"PRN":8,"gnssid":0,"svid":8,"az":187.0,"el":64.0,"ss":47.0,"used":true,"health":1},{"PRN":10,"gnssid":0,"svid":10,"az":58.0,"el":45.0,"ss":50.0,"used":true,"health":1},{"PRN":3,"gnssid":0,"svid":3,"az":223.0,"el":6.0,"ss":0.0,"used":false,"health":1},{"PRN":32,"gnssid":0,"svid":32,"az":104.0,"el":37.0,"ss":40.0,"used":true,"health":1},{"PRN":21,"gnssid":0,"svid":21,"az":286.0,"el":68.0,"ss":48.0,"used":true,"health":1},{"PRN":20,"gnssid":0,"svid":20,"az":0.0,"el":-9.0,"ss":0.0,"used":false,"health":1}]}
{"class":"TPV","device":"/dev/ttyACM0","mode":3,"time":"2024-07-09T10:17:03.751Z","leapseconds":18,"ept":0.005,"lat":52.315725020,"lon":10.561637880,"altHAE":133.0161,"altMSL":89.1172,"alt":89.1172,"epx":12.114,"epy":24.818,"epv":49.220,"track":16.7105,"magtrack":19.9299,"magvar":3.2,"speed":2.095,"climb":0.169,"eps":0.48,"epc":425.32,"ecefx":3841102.54,"ecefy":716181.27,"ecefz":5024460.93,"ecefvx":-1.57,"ecefvy":0.32,"ecefvz":1.36,"ecefpAcc":6.01,"ecefvAcc":0.48,"velN":2.006,"velE":0.602,"velD":-0.169,"geoidSep":43.899,"eph":23.940,"sep":47.310}
{"class":"SKY","device":"/dev/ttyACM0","time":"2024-07-09T10:17:03.499Z","gdop":2.91,"hdop":1.26,"pdop":2.49,"tdop":1.51,"xdop":0.81,"ydop":1.65,"vdop":2.14,"uSat":6}
{"class":"SKY","device":"/dev/ttyACM0","time":"2024-07-09T10:17:03.499Z","gdop":2.91,"hdop":1.26,"pdop":2.49,"tdop":1.51,"xdop":0.81,"ydop":1.65,"vdop":2.14,"uSat":6}
{"class":"TPV","device":"/dev/ttyACM0","mode":3,"time":"2024-07-09T10:17:03.751Z","leapseconds":18,"ept":0.005,"lat":52.315725020,"lon":10.561637880,"altHAE":133.0161,"altMSL":89.1172,"alt":89.1172,"epx":12.114,"epy":24.818,"epv":49.220,"track":16.7105,"magtrack":19.9299,"magvar":3.2,"speed":2.095,"climb":0.169,"eps":196.97,"epc":425.32,"ecefx":3841102.54,"ecefy":716181.27,"ecefz":5024460.93,"ecefvx":-1.57,"ecefvy":0.32,"ecefvz":1.36,"ecefpAcc":6.01,"ecefvAcc":0.48,"velN":2.006,"velE":0.602,"velD":-0.169,"geoidSep":43.899,"eph":23.940,"sep":47.310}
{"class":"SKY","device":"/dev/ttyACM0","time":"2024-07-09T10:17:03.751Z","gdop":2.91,"hdop":1.26,"pdop":2.49,"tdop":1.51,"xdop":0.81,"ydop":1.65,"vdop":2.14,"nSat":13,"uSat":7,"satellites":[{"PRN":2,"gnssid":0,"svid":2,"az":282.0,"el":49.0,"ss":49.0,"used":true,"health":1},{"PRN":22,"gnssid":0,"svid":22,"az":332.0,"el":10.0,"ss":35.0,"used":false,"health":1},{"PRN":27,"gnssid":0,"svid":27,"az":155.0,"el":34.0,"ss":40.0,"used":true,"health":1},{"PRN":23,"gnssid":0,"svid":23,"az":51.0,"el":11.0,"ss":35.0,"used":false,"health":1},{"PRN":24,"gnssid":0,"svid":24,"az":29.0,"el":3.0,"ss":22.0,"used":false,"health":1},{"PRN":39,"gnssid":1,"svid":126,"az":0.0,"el":-9.0,"ss":0.0,"used":false,"health":1},{"PRN":14,"gnssid":0,"svid":14,"az":314.0,"el":21.0,"ss":43.0,"used":true,"health":1},{"PRN":8,"gnssid":0,"svid":8,"az":187.0,"el":64.0,"ss":47.0,"used":true,"health":1},{"PRN":10,"gnssid":0,"svid":10,"az":58.0,"el":45.0,"ss":50.0,"used":true,"health":1},{"PRN":3,"gnssid":0,"svid":3,"az":223.0,"el":6.0,"ss":0.0,"used":false,"health":1},{"PRN":32,"gnssid":0,"svid":32,"az":104.0,"el":37.0,"ss":43.0,"used":true,"health":1},{"PRN":21,"gnssid":0,"svid":21,"az":286.0,"el":68.0,"ss":48.0,"used":true,"health":1},{"PRN":20,"gnssid":0,"svid":20,"az":0.0,"el":-9.0,"ss":0.0,"used":false,"health":1}]}
{"class":"TPV","device":"/dev/ttyACM0","mode":3,"time":"2024-07-09T10:17:03.999Z","leapseconds":18,"ept":0.005,"lat":52.315730032,"lon":10.561641135,"altHAE":133.0402,"altMSL":89.1413,"alt":89.1413,"epx":12.114,"epy":24.818,"epv":49.220,"track":18.4909,"magtrack":21.7103,"magvar":3.2,"speed":2.128,"climb":0.172,"eps":0.48,"epc":396.93,"ecefx":3841102.08,"ecefy":716181.41,"ecefz":5024461.29,"ecefvx":-1.59,"ecefvy":0.39,"ecefvz":1.37,"ecefpAcc":6.01,"ecefvAcc":0.48,"velN":2.018,"velE":0.675,"velD":-0.172,"geoidSep":43.899,"eph":23.940,"sep":53.010}
{"class":"SKY","device":"/dev/ttyACM0","time":"2024-07-09T10:17:03.751Z","gdop":2.91,"hdop":1.26,"pdop":2.79,"tdop":1.51,"xdop":0.81,"ydop":1.65,"vdop":2.14,"uSat":6}
{"class":"SKY","device":"/dev/ttyACM0","time":"2024-07-09T10:17:03.751Z","gdop":3.32,"hdop":1.38,"pdop":2.79,"tdop":1.79,"xdop":0.81,"ydop":1.65,"vdop":2.43,"uSat":6}
{"class":"TPV","device":"/dev/ttyACM0","mode":3,"time":"2024-07-09T10:17:03.999Z","leapseconds":18,"ept":0.005,"lat":52.315730032,"lon":10.561641135,"altHAE":133.0402,"altMSL":89.1413,"alt":89.1413,"epx":12.114,"epy":24.818,"epv":49.220,"track":18.4909,"magtrack":21.7103,"magvar":3.2,"speed":2.128,"climb":0.172,"eps":200.15,"epc":396.93,"ecefx":3841102.08,"ecefy":716181.41,"ecefz":5024461.29,"ecefvx":-1.59,"ecefvy":0.39,"ecefvz":1.37,"ecefpAcc":6.01,"ecefvAcc":0.48,"velN":2.018,"velE":0.675,"velD":-0.172,"geoidSep":43.899,"eph":23.940,"sep":53.010}
{"class":"SKY","device":"/dev/ttyACM0","time":"2024-07-09T10:17:03.999Z","gdop":3.32,"hdop":1.38,"pdop":2.79,"tdop":1.79,"xdop":0.81,"ydop":1.65,"vdop":2.43,"nSat":13,"uSat":7,"satellites":[{"PRN":2,"gnssid":0,"svid":2,"az":282.0,"el":49.0,"ss":49.0,"used":true,"health":1},{"PRN":22,"gnssid":0,"svid":22,"az":332.0,"el":10.0,"ss":38.0,"used":false,"health":1},{"PRN":27,"gnssid":0,"svid":27,"az":155.0,"el":34.0,"ss":38.0,"used":true,"health":1},{"PRN":23,"gnssid":0,"svid":23,"az":51.0,"el":11.0,"ss":34.0,"used":true,"health":1},{"PRN":24,"gnssid":0,"svid":24,"az":29.0,"el":3.0,"ss":20.0,"used":false,"health":1},{"PRN":39,"gnssid":1,"svid":126,"az":0.0,"el":-9.0,"ss":0.0,"used":false,"health":1},{"PRN":14,"gnssid":0,"svid":14,"az":314.0,"el":21.0,"ss":42.0,"used":false,"health":1},{"PRN":8,"gnssid":0,"svid":8,"az":187.0,"el":64.0,"ss":48.0,"used":true,"health":1},{"PRN":10,"gnssid":0,"svid":10,"az":58.0,"el":45.0,"ss":50.0,"used":true,"health":1},{"PRN":3,"gnssid":0,"svid":3,"az":223.0,"el":6.0,"ss":0.0,"used":false,"health":1},{"PRN":32,"gnssid":0,"svid":32,"az":104.0,"el":37.0,"ss":43.0,"used":true,"health":1},{"PRN":21,"gnssid":0,"svid":21,"az":286.0,"el":68.0,"ss":48.0,"used":true,"health":1},{"PRN":20,"gnssid":0,"svid":20,"az":0.0,"el":-9.0,"ss":0.0,"used":false,"health":1}]}
{"class":"TPV","device":"/dev/ttyACM0","mode":3,"time":"2024-07-09T10:17:04.251Z","leapseconds":18,"ept":0.005,"lat":52.315734634,"lon":10.561645193,"altHAE":133.2385,"altMSL":89.3396,"alt":89.3396,"epx":12.114,"epy":24.818,"epv":55.890,"track":20.9580,"magtrack":24.1774,"magvar":3.2,"speed":2.177,"climb":0.173,"eps":0.47,"epc":417.10,"ecefx":3841101.75,"ecefy":716181.63,"ecefz":5024461.76,"ecefvx":-1.62,"ecefvy":0.49,"ecefvz":1.38,"ecefpAcc":6.47,"ecefvAcc":0.47,"velN":2.033,"velE":0.779,"velD":-0.173,"geoidSep":43.899,"eph":26.220,"sep":43.130}
{"class":"SKY","device":"/dev/ttyACM0","time":"2024-07-09T10:17:03.999Z","gdop":3.32,"hdop":1.38,"pdop":2.27,"tdop":1.79,"xdop":0.81,"ydop":1.65,"vdop":2.43,"uSat":6}
{"class":"SKY","device":"/dev/ttyACM0","time":"2024-07-09T10:17:03.999Z","gdop":2.62,"hdop":1.27,"pdop":2.27,"tdop":1.31,"xdop":0.81,"ydop":1.65,"vdop":1.88,"uSat":6}
{"class":"TPV","device":"/dev/ttyACM0","mode":3,"time":"2024-07-09T10:17:04.251Z","leapseconds":18,"ept":0.005,"lat":52.315734634,"lon":10.561645193,"altHAE":133.2385,"altMSL":89.3396,"alt":89.3396,"epx":12.114,"epy":24.818,"epv":55.890,"track":20.9580,"magtrack":24.1774,"magvar":3.2,"speed":2.177,"climb":0.173,"eps":196.97,"epc":417.10,"ecefx":3841101.75,"ecefy":716181.63,"ecefz":5024461.76,"ecefvx":-1.62,"ecefvy":0.49,"ecefvz":1.38,"ecefpAcc":6.47,"ecefvAcc":0.47,"velN":2.033,"velE":0.779,"velD":-0.173,"geoidSep":43.899,"eph":26.220,"sep":43.130}
{"class":"SKY","device":"/dev/ttyACM0","time":"2024-07-09T10:17:04.251Z","gdop":2.62,"hdop":1.27,"pdop":2.27,"tdop":1.31,"xdop":0.81,"ydop":1.65,"vdop":1.88,"nSat":13,"uSat":7,"satellites":[{"PRN":2,"gnssid":0,"svid":2,"az":282.0,"el":49.0,"ss":49.0,"used":true,"health":1},{"PRN":22,"gnssid":0,"svid":22,"az":332.0,"el":10.0,"ss":37.0,"used":true,"health":1},{"PRN":27,"gnssid":0,"svid":27,"az":155.0,"el":34.0,"ss":40.0,"used":true,"health":1},{"PRN":23,"gnssid":0,"svid":23,"az":51.0,"el":11.0,"ss":34.0,"used":false,"health":1},{"PRN":24,"gnssid":0,"svid":24,"az":29.0,"el":3.0,"ss":20.0,"used":false,"health":1},{"PRN":39,"gnssid":1,"svid":126,"az":0.0,"el":-9.0,"ss":0.0,"used":false,"health":1},{"PRN":14,"gnssid":0,"svid":14,"az":314.0,"el":21.0,"ss":42.0,"used":false,"health":1},{"PRN":8,"gnssid":0,"svid":8,"az":187.0,"el":64.0,"ss":48.0,"used":true,"health":1},{"PRN":10,"gnssid":0,"svid":10,"az":58.0,"el":45.0,"ss":50.0,"used":true,"health":1},{"PRN":3,"gnssid":0,"svid":3,"az":223.0,"el":6.0,"ss":0.0,"used":false,"health":1},{"PRN":32,"gnssid":0,"svid":32,"az":104.0,"el":37.0,"ss":43.0,"used":true,"health":1},{"PRN":21,"gnssid":0,"svid":21,"az":286.0,"el":68.0,"ss":47.0,"used":true,"health":1},{"PRN":20,"gnssid":0,"svid":20,"az":0.0,"el":-9.0,"ss":0.0,"used":false,"health":1}]}
{"class":"TPV","device":"/dev/ttyACM0","mode":3,"time":"2024-07-09T10:17:04.499Z","leapseconds":18,"ept":0.005,"lat":52.315739985,"lon":10.561649303,"altHAE":133.2461,"altMSL":89.3473,"alt":89.3473,"epx":12.114,"epy":24.818,"epv":43.240,"track":24.3951,"magtrack":27.6145,"magvar":3.2,"speed":2.264,"climb":0.176,"eps":0.46,"epc":399.72,"ecefx":3841101.24,"ecefy":716181.82,"ecefz":5024462.13,"ecefvx":-1.67,"ecefvy":0.64,"ecefvz":1.40,"ecefpAcc":6.00,"ecefvAcc":0.46,"velN":2.062,"velE":0.935,"velD":-0.176,"geoidSep":43.899,"eph":24.130,"sep":47.310}
{"class":"SKY","device":"/dev/ttyACM0","time":"2024-07-09T10:17:04.251Z","gdop":2.62,"hdop":1.27,"pdop":2.49,"tdop":1.31,"xdop":0.81,"ydop":1.65,"vdop":1.88,"uSat":6}
{"class":"SKY","device":"/dev/ttyACM0","time":"2024-07-09T10:17:04.251Z","gdop":2.91,"hdop":1.26,"pdop":2.49,"tdop":1.51,"xdop":0.81,"ydop":1.65,"vdop":2.14,"uSat":6}
{"class":"TPV","device":"/dev/ttyACM0","mode":3,"time":"2024-07-09T10:17:04.499Z","leapseconds":18,"ept":0.005,"lat":52.315739985,"lon":10.561649303,"altHAE":133.2461,"altMSL":89.3473,"alt":89.3473,"epx":12.114,"epy":24.818,"epv":43.240,"track":24.3951,"magtrack":27.6145,"magvar":3.2,"speed":2.264,"climb":0.176,"eps":200.15,"epc":399.72,"ecefx":3841101.24,"ecefy":716181.82,"ecefz":5024462.13,"ecefvx":-1.67,"ecefvy":0.64,"ecefvz":1.40,"ecefpAcc":6.00,"ecefvAcc":0.46,"velN":2.062,"velE":0.935,"velD":-0.176,"geoidSep":43.899,"eph":24.130,"sep":47.310}
{"class":"SKY","device":"/dev/ttyACM0","time":"2024-07-09T10:17:04.499Z","gdop":2.91,"hdop":1.26,"pdop":2.49,"tdop":1.51,"xdop":0.81,"ydop":1.65,"vdop":2.14,"nSat":13,"uSat":7,"satellites":[{"PRN":2,"gnssid":0,"svid":2,"az":282.0,"el":49.0,"ss":49.0,"used":true,"health":1},{"PRN":22,"gnssid":0,"svid":22,"az":332.0,"el":10.0,"ss":36.0,"used":false,"health":1},{"PRN":27,"gnssid":0,"svid":27,"az":155.0,"el":34.0,"ss":40.0,"used":true,"health":1},{"PRN":23,"gnssid":0,"svid":23,"az":51.0,"el":11.0,"ss":35.0,"used":false,"health":1},{"PRN":24,"gnssid":0,"svid":24,"az":29.0,"el":3.0,"ss":19.0,"used":false,"health":1},{"PRN":39,"gnssid":1,"svid":126,"az":0.0,"el":-9.0,"ss":0.0,"used":false,"health":1},{"PRN":14,"gnssid":0,"svid":14,"az":314.0,"el":21.0,"ss":42.0,"used":true,"health":1},{"PRN":8,"gnssid":0,"svid":8,"az":187.0,"el":64.0,"ss":49.0,"used":true,"health":1},{"PRN":10,"gnssid":0,"svid":10,"az":58.0,"el":45.0,"ss":50.0,"used":true,"health":1},{"PRN":3,"gnssid":0,"svid":3,"az":223.0,"el":6.0,"ss":0.0,"used":false,"health":1},{"PRN":32,"gnssid":0,"svid":32,"az":104.0,"el":37.0,"ss":44.0,"used":true,"health":1},{"PRN":21,"gnssid":0,"svid":21,"az":286.0,"el":68.0,"ss":47.0,"used":true,"health":1},{"PRN":20,"gnssid":0,"svid":20,"az":0.0,"el":-9.0,"ss":0.0,"used":false,"health":1}]}
{"class":"TPV","device":"/dev/ttyACM0","mode":3,"time":"2024-07-09T10:17:04.751Z","leapseconds":18,"ept":0.005,"lat":52.315745633,"lon":10.561654123,"altHAE":133.2282,"altMSL":89.3293,"alt":89.3293,"epx":12.114,"epy":24.818,"epv":49.220,"track":27.4028,"magtrack":30.6222,"magvar":3.2,"speed":2.380,"climb":0.175,"eps":0.44,"epc":366.90,"ecefx":3841100.68,"ecefy":716182.05,"ecefz":5024462.50,"ecefvx":-1.74,"ecefvy":0.79,"ecefvz":1.43,"ecefpAcc":6.00,"ecefvAcc":0.44,"velN":2.113,"velE":1.096,"velD":-0.175,"geoidSep":43.899,"eph":23.940,"sep":47.310}
{"class":"SKY","device":"/dev/ttyACM0","time":"2024-07-09T10:17:04.499Z","gdop":2.91,"hdop":1.26,"pdop":2.49,"tdop":1.51,"xdop":0.81,"ydop":1.65,"vdop":2.14,"uSat":6}
{"class":"SKY","device":"/dev/ttyACM0","time":"2024-07-09T10:17:04.499Z","gdop":2.91,"hdop":1.26,"pdop":2.49,"tdop":1.51,"xdop":0.81,"ydop":1.65,"vdop":2.14,"uSat":6}
{"class":"TPV","device":"/dev/ttyACM0","mode":3,"time":"2024-07-09T10:17:04.751Z","leapseconds":18,"ept":0.005,"lat":52.315745633,"lon":10.561654123,"altHAE":133.2282,"altMSL":89.3293,"alt":89.3293,"epx":12.114,"epy":24.818,"epv":49.220,"track":27.4028,"magtrack":30.6222,"magvar":3.2,"speed":2.380,"climb":0.175,"eps":196.97,"epc":366.90,"ecefx":3841100.68,"ecefy":716182.05,"ecefz":5024462.50,"ecefvx":-1.74,"ecefvy":0.79,"ecefvz":1.43,"ecefpAcc":6.00,"ecefvAcc":0.44,"velN":2.113,"velE":1.096,"velD":-0.175,"geoidSep":43.899,"eph":23.940,"sep":47.310}
{"class":"SKY","device":"/dev/ttyACM0","time":"2024-07-09T10:17:04.751Z","gdop":2.91,"hdop":1.26,"pdop":2.49,"tdop":1.51,"xdop":0.81,"ydop":1.65,"vdop":2.14,"nSat":13,"uSat":7,"satellites":[{"PRN":2,"gnssid":0,"svid":2,"az":282.0,"el":49.0,"ss":50.0,"used":true,"health":1},{"PRN":22,"gnssid":0,"svid":22,"az":332.0,"el":10.0,"ss":34.0,"used":false,"health":1},{"PRN":27,"gnssid":0,"svid":27,"az":155.0,"el":34.0,"ss":39.0,"used":true,"health":1},{"PRN":23,"gnssid":0,"svid":23,"az":51.0,"el":11.0,"ss":35.0,"used":false,"health":1},{"PRN":24,"gnssid":0,"svid":24,"az":29.0,"el":3.0,"ss":19.0,"used":false,"health":1},{"PRN":39,"gnssid":1,"svid":126,"az":0.0,"el":-9.0,"ss":0.0,"used":false,"health":1},{"PRN":14,"gnssid":0,"svid":14,"az":314.0,"el":21.0,"ss":43.0,"used":true,"health":1},{"PRN":8,"gnssid":0,"svid":8,"az":187.0,"el":64.0,"ss":48.0,"used":true,"health":1},{"PRN":10,"gnssid":0,"svid":10,"az":58.0,"el":45.0,"ss":49.0,"used":true,"health":1},{"PRN":3,"gnssid":0,"svid":3,"az":223.0,"el":6.0,"ss":0.0,"used":false,"health":1},{"PRN":32,"gnssid":0,"svid":32,"az":104.0,"el":37.0,"ss":46.0,"used":true,"health":1},{"PRN":21,"gnssid":0,"svid":21,"az":286.0,"el":68.0,"ss":48.0,"used":true,"health":1},{"PRN":20,"gnssid":0,"svid":20,"az":0.0,"el":-9.0,"ss":0.0,"used":false,"health":1}]}
{"class":"TPV","device":"/dev/ttyACM0","mode":3,"time":"2024-07-09T10:17:04.999Z","leapseconds":18,"ept":0.005,"lat":52.315751312,"lon":10.561659403,"altHAE":133.2076,"altMSL":89.3087,"alt":89.3087,"epx":12.114,"epy":24.818,"epv":49.220,"track":29.5795,"magtrack":32.7989,"magvar":3.2,"speed":2.508,"climb":0.173,"eps":0.44,"epc":396.93,"ecefx":3841100.11,"ecefy":716182.31,"ecefz":5024462.87,"ecefvx":-1.82,"ecefvy":0.92,"ecefvz":1.47,"ecefpAcc":6.00,"ecefvAcc":0.44,"velN":2.181,"velE":1.238,"velD":-0.173,"geoidSep":43.899,"eph":23.940,"sep":64.220}
{"class":"SKY","device":"/dev/ttyACM0","time":"2024-07-09T10:17:04.751Z","gdop":2.91,"hdop":1.26,"pdop":3.38,"tdop":1.51,"xdop":0.81,"ydop":1.65,"vdop":2.14,"uSat":6}
{"class":"SKY","device":"/dev/ttyACM0","time":"2024-07-09T10:17:04.751Z","gdop":4.01,"hdop":1.83,"pdop":3.38,"tdop":2.15,"xdop":0.81,"ydop":1.65,"vdop":2.84,"uSat":6}
{"class":"TPV","device":"/dev/ttyACM0","mode":3,"time":"2024-07-09T10:17:04.999Z","leapseconds":18,"ept":0.005,"lat":52.315751312,"lon":10.561659403,"altHAE":133.2076,"altMSL":89.3087,"alt":89.3087,"epx":12.114,"epy":24.818,"epv":49.220,"track":29.5795,"magtrack":32.7989,"magvar":3.2,"speed":2.508,"climb":0.173,"eps":200.15,"epc":396.93,"ecefx":3841100.11,"ecefy":716182.31,"ecefz":5024462.87,"ecefvx":-1.82,"ecefvy":0.92,"ecefvz":1.47,"ecefpAcc":6.00,"ecefvAcc":0.44,"velN":2.181,"velE":1.238,"velD":-0.173,"geoidSep":43.899,"eph":23.940,"sep":64.220}
{"class":"SKY","device":"/dev/ttyACM0","time":"2024-07-09T10:17:04.999Z","gdop":4.01,"hdop":1.83,"pdop":3.38,"tdop":2.15,"xdop":0.81,"ydop":1.65,"vdop":2.84,"nSat":13,"uSat":6,"satellites":[{"PRN":2,"gnssid":0,"svid":2,"az":282.0,"el":49.0,"ss":49.0,"used":true,"health":1},{"PRN":22,"gnssid":0,"svid":22,"az":332.0,"el":10.0,"ss":34.0,"used":false,"health":1},{"PRN":27,"gnssid":0,"svid":27,"az":155.0,"el":34.0,"ss":31.0,"used":false,"health":1},{"PRN":23,"gnssid":0,"svid":23,"az":51.0,"el":11.0,"ss":36.0,"used":false,"health":1},{"PRN":24,"gnssid":0,"svid":24,"az":29.0,"el":3.0,"ss":19.0,"used":false,"health":1},{"PRN":39,"gnssid":1,"svid":126,"az":0.0,"el":-9.0,"ss":0.0,"used":false,"health":1},{"PRN":14,"gnssid":0,"svid":14,"az":314.0,"el":21.0,"ss":43.0,"used":true,"health":1},{"PRN":8,"gnssid":0,"svid":8,"az":187.0,"el":64.0,"ss":49.0,"used":true,"health":1},{"PRN":10,"gnssid":0,"svid":10,"az":58.0,"el":45.0,"ss":48.0,"used":true,"health":1},{"PRN":3,"gnssid":0,"svid":3,"az":223.0,"el":6.0,"ss":0.0,"used":false,"health":1},{"PRN":32,"gnssid":0,"svid":32,"az":104.0,"el":37.0,"ss":48.0,"used":true,"health":1},{"PRN":21,"gnssid":0,"svid":21,"az":286.0,"el":68.0,"ss":47.0,"used":true,"health":1},{"PRN":20,"gnssid":0,"svid":20,"az":0.0,"el":-9.0,"ss":0.0,"used":false,"health":1}]}
{"class":"TPV","device":"/dev/ttyACM0","mode":3,"time":"2024-07-09T10:17:05.251Z","leapseconds":18,"ept":0.005,"lat":52.315757237,"lon":10.561665736,"altHAE":133.1279,"altMSL":89.2291,"alt":89.2291,"epx":12.114,"epy":24.818,"epv":65.320,"track":32.4734,"magtrack":35.6929,"magvar":3.2,"speed":2.644,"climb":0.159,"eps":0.43,"epc":454.52,"ecefx":3841099.47,"ecefy":716182.63,"ecefz":5024463.21,"ecefvx":-1.90,"ecefvy":1.09,"ecefvz":1.49,"ecefpAcc":6.00,"ecefvAcc":0.43,"velN":2.231,"velE":1.420,"velD":-0.159,"geoidSep":43.899,"eph":34.770,"sep":59.090}
{"class":"SKY","device":"/dev/ttyACM0","time":"2024-07-09T10:17:04.999Z","gdop":4.01,"hdop":1.83,"pdop":3.11,"tdop":2.15,"xdop":0.81,"ydop":1.65,"vdop":2.84,"uSat":6}
{"class":"SKY","device":"/dev/ttyACM0","time":"2024-07-09T10:17:04.999Z","gdop":3.64,"hdop":1.80,"pdop":3.11,"tdop":1.90,"xdop":0.81,"ydop":1.65,"vdop":2.53,"uSat":6}
{"class":"TPV","device":"/dev/ttyACM0","mode":3,"time":"2024-07-09T10:17:05.251Z","leapseconds":18,"ept":0.005,"lat":52.315757237,"lon":10.561665736,"altHAE":133.1279,"altMSL":89.2291,"alt":89.2291,"epx":12.114,"epy":24.818,"epv":65.320,"track":32.4734,"magtrack":35.6929,"magvar":3.2,"speed":2.644,"climb":0.159,"eps":196.97,"epc":454.52,"ecefx":3841099.47,"ecefy":716182.63,"ecefz":5024463.21,"ecefvx":-1.90,"ecefvy":1.09,"ecefvz":1.49,"ecefpAcc":6.00,"ecefvAcc":0.43,"velN":2.231,"velE":1.420,"velD":-0.159,"geoidSep":43.899,"eph":34.770,"sep":59.090}
{"class":"SKY","device":"/dev/ttyACM0","time":"2024-07-09T10:17:05.251Z","gdop":3.64,"hdop":1.80,"pdop":3.11,"tdop":1.90,"xdop":0.81,"ydop":1.65,"vdop":2.53,"nSat":13,"uSat":7,"satellites":[{"PRN":2,"gnssid":0,"svid":2,"az":282.0,"el":49.0,"ss":49.0,"used":true,"health":1},{"PRN":22,"gnssid":0,"svid":22,"az":332.0,"el":10.0,"ss":31.0,"used":false,"health":1},{"PRN":27,"gnssid":0,"svid":27,"az":155.0,"el":34.0,"ss":31.0,"used":false,"health":1},{"PRN":23,"gnssid":0,"svid":23,"az":51.0,"el":11.0,"ss":36.0,"used":true,"health":1},{"PRN":24,"gnssid":0,"svid":24,"az":29.0,"el":3.0,"ss":19.0,"used":false,"health":1},{"PRN":39,"gnssid":1,"svid":126,"az":0.0,"el":-9.0,"ss":0.0,"used":false,"health":1},{"PRN":14,"gnssid":0,"svid":14,"az":314.0,"el":21.0,"ss":43.0,"used":true,"health":1},{"PRN":8,"gnssid":0,"svid":8,"az":187.0,"el":64.0,"ss":49.0,"used":true,"health":1},{"PRN":10,"gnssid":0,"svid":10,"az":58.0,"el":45.0,"ss":48.0,"used":true,"health":1},{"PRN":3,"gnssid":0,"svid":3,"az":223.0,"el":6.0,"ss":0.0,"used":false,"health":1},{"PRN":32,"gnssid":0,"svid":32,"az":104.0,"el":37.0,"ss":49.0,"used":true,"health":1},{"PRN":21,"gnssid":0,"svid":21,"az":286.0,"el":68.0,"ss":47.0,"used":true,"health":1},{"PRN":20,"gnssid":0,"svid":20,"az":0.0,"el":-9.0,"ss":0.0,"used":false,"health":1}]}
{"class":"TPV","device":"/dev/ttyACM0","mode":3,"time":"2024-07-09T10:17:05.499Z","leapseconds":18,"ept":0.005,"lat":52.315762787,"lon":10.561672629,"altHAE":133.1057,"altMSL":89.2069,"alt":89.2069,"epx":12.114,"epy":24.818,"epv":58.190,"track":35.2488,"magtrack":38.4682,"magvar":3.2,"speed":2.789,"climb":0.161,"eps":0.43,"epc":498.02,"ecefx":3841098.89,"ecefy":716183.00,"ecefz":5024463.57,"ecefvx":-1.97,"ecefvy":1.27,"ecefvz":1.52,"ecefpAcc":6.00,"ecefvAcc":0.43,"velN":2.278,"velE":1.610,"velD":-0.161,"geoidSep":43.899,"eph":34.200,"sep":47.310}
{"class":"SKY","device":"/dev/ttyACM0","time":"2024-07-09T10:17:05.251Z","gdop":3.64,"hdop":1.80,"pdop":2.49,"tdop":1.90,"xdop":0.81,"ydop":1.65,"vdop":2.53,"uSat":6}
{"class":"SKY","device":"/dev/ttyACM0","time":"2024-07-09T10:17:05.251Z","gdop":2.91,"hdop":1.26,"pdop":2.49,"tdop":1.51,"xdop":0.81,"ydop":1.65,"vdop":2.14,"uSat":6}
{"class":"TPV","device":"/dev/ttyACM0","mode":3,"time":"2024-07-09T10:17:05.499Z","leapseconds":18,"ept":0.005,"lat":52.315762787,"lon":10.561672629,"altHAE":133.1057,"altMSL":89.2069,"alt":89.2069,"epx":12.114,"epy":24.818,"epv":58.190,"track":35.2488,"magtrack":38.4682,"magvar":3.2,"speed":2.789,"climb":0.161,"eps":200.15,"epc":498.02,"ecefx":3841098.89,"ecefy":716183.00,"ecefz":5024463.57,"ecefvx":-1.97,"ecefvy":1.27,"ecefvz":1.52,"ecefpAcc":6.00,"ecefvAcc":0.43,"velN":2.278,"velE":1.610,"velD":-0.161,"geoidSep":43.899,"eph":34.200,"sep":47.310}
