{"class":"VERSION","release":"3.25","rev":"3.25","proto_major":3,"proto_minor":15}
{"class":"DEVICES","devices":[{"class":"DEVICE","path":"/dev/ttyACM0","driver":"u-blox","subtype":"SW 5.00    May 11 2006 14:40:17,HW 00040001","subtype1":"M4T1.2  May 11 2006 14:40:17","activated":"2024-07-09T10:16:49.756Z","flags":1,"native":1,"bps":57600,"parity":"N","stopbits":1,"cycle":1.00,"mincycle":0.02}]}
{"class":"WATCH","enable":true,"json":true,"nmea":false,"raw":0,"scaled":false,"timing":false,"split24":false,"pps":false}
{"class":"TPV","device":"/dev/ttyACM0","mode":3,"time":"2024-07-09T10:15:01.999Z","ept":0.005,"lat":52.315750009,"lon":10.563892794,"altHAE":133.9513,"altMSL":90.0545,"alt":90.0545,"epx":12.114,"epy":24.818,"epv":40.020,"track":277.2261,"magtrack":280.4462,"magvar":3.2,"speed":2.925,"climb":0.057,"eps":0.48,"epc":322.74,"ecefx":3841072.75,"ecefy":716332.14,"ecefz":5024463.37,"ecefvx":0.28,"ecefvy":-2.90,"ecefvz":0.27,"ecefpAcc":4.59,"ecefvAcc":0.48,"velN":0.368,"velE":-2.902,"velD":-0.057,"geoidSep":43.897,"eph":21.850,"sep":39.710}
{"class":"SKY","device":"/dev/ttyACM0","time":"2024-07-09T10:15:01.751Z","gdop":2.39,"hdop":1.15,"pdop":2.09,"tdop":1.16,"xdop":0.81,"ydop":1.65,"vdop":1.74,"uSat":6}
{"class":"SKY","device":"/dev/ttyACM0","time":"2024-07-09T10:15:01.751Z","gdop":2.39,"hdop":1.15,"pdop":2.09,"tdop":1.16,"xdop":0.81,"ydop":1.65,"vdop":1.74,"uSat":6}
{"class":"TPV","device":"/dev/ttyACM0","mode":3,"time":"2024-07-09T10:15:01.999Z","ept":0.005,"lat":52.315750009,"lon":10.563892794,"altHAE":133.9513,"altMSL":90.0545,"alt":90.0545,"epx":12.114,"epy":24.818,"epv":40.020,"track":277.2261,"magtrack":280.4462,"magvar":3.2,"speed":2.925,"climb":0.057,"eps":200.15,"epc":322.74,"ecefx":3841072.75,"ecefy":716332.14,"ecefz":5024463.37,"ecefvx":0.28,"ecefvy":-2.90,"ecefvz":0.27,"ecefpAcc":4.59,"ecefvAcc":0.48,"velN":0.368,"velE":-2.902,"velD":-0.057,"geoidSep":43.897,"eph":21.850,"sep":39.710}
{"class":"SKY","device":"/dev/ttyACM0","time":"2024-07-09T10:15:01.999Z","gdop":2.39,"hdop":1.15,"pdop":2.09,"tdop":1.16,"xdop":0.81,"ydop":1.65,"vdop":1.74,"nSat":14,"uSat":9,"satellites":[{"PRN":2,"gnssid":0,"svid":2,"az":282.0,"el":48.0,"ss":48.0,"used":true,"health":1},{"PRN":22,"gnssid":0,"svid":22,"az":332.0,"el":10.0,"ss":41.0,"used":true,"health":1},{"PRN":27,"gnssid":0,"svid":27,"az":154.0,"el":35.0,"ss":46.0,"used":true,"health":1},{"PRN":23,"gnssid":0,"svid":23,"az":51.0,"el":12.0,"ss":41.0,"used":true,"health":1},{"PRN":24,"gnssid":0,"svid":24,"az":30.0,"el":3.0,"ss":30.0,"used":false,"health":1},{"PRN":19,"gnssid":0,"svid":19,"az":0.0,"el":-9.0,"ss":0.0,"used":false,"health":1},{"PRN":14,"gnssid":0,"svid":14,"az":314.0,"el":20.0,"ss":43.0,"used":true,"health":1},{"PRN":8,"gnssid":0,"svid":8,"az":188.0,"el":64.0,"ss":40.0,"used":true,"health":1},{"PRN":10,"gnssid":0,"svid":10,"az":59.0,"el":46.0,"ss":49.0,"used":true,"health":1},{"PRN":3,"gnssid":0,"svid":3,"az":222.0,"el":5.0,"ss":0.0,"used":false,"health":1},{"PRN":32,"gnssid":0,"svid":32,"az":105.0,"el":37.0,"ss":48.0,"used":true,"health":1},{"PRN":21,"gnssid":0,"svid":21,"az":285.0,"el":67.0,"ss":48.0,"used":true,"health":1},{"PRN":16,"gnssid":0,"svid":16,"az":0.0,"el":-9.0,"ss":0.0,"used":false,"health":1},{"PRN":18,"gnssid":0,"svid":18,"az":0.0,"el":-9.0,"ss":0.0,"used":false,"health":1}]}
{"class":"TPV","device":"/dev/ttyACM0","mode":3,"time":"2024-07-09T10:15:02.251Z","ept":0.005,"lat":52.315750818,"lon":10.563882281,"altHAE":133.9323,"altMSL":90.0355,"alt":90.0355,"epx":12.114,"epy":24.818,"epv":40.020,"track":275.8664,"magtrack":279.0865,"magvar":3.2,"speed":2.854,"climb":0.027,"eps":0.47,"epc":317.62,"ecefx":3841072.80,"ecefy":716331.42,"ecefz":5024463.41,"ecefvx":0.31,"ecefvy":-2.83,"ecefvz":0.20,"ecefpAcc":4.60,"ecefvAcc":0.47,"velN":0.292,"velE":-2.839,"velD":-0.027,"geoidSep":43.897,"eph":21.850,"sep":39.710}
{"class":"SKY","device":"/dev/ttyACM0","time":"2024-07-09T10:15:01.999Z","gdop":2.39,"hdop":1.15,"pdop":2.09,"tdop":1.16,"xdop":0.81,"ydop":1.65,"vdop":1.74,"uSat":6}
{"class":"SKY","device":"/dev/ttyACM0","time":"2024-07-09T10:15:01.999Z","gdop":2.39,"hdop":1.15,"pdop":2.09,"tdop":1.16,"xdop":0.81,"ydop":1.65,"vdop":1.74,"uSat":6}
{"class":"TPV","device":"/dev/ttyACM0","mode":3,"time":"2024-07-09T10:15:02.251Z","ept":0.005,"lat":52.315750818,"lon":10.563882281,"altHAE":133.9323,"altMSL":90.0355,"alt":90.0355,"epx":12.114,"epy":24.818,"epv":40.020,"track":275.8664,"magtrack":279.0865,"magvar":3.2,"speed":2.854,"climb":0.027,"eps":196.97,"epc":317.62,"ecefx":3841072.80,"ecefy":716331.42,"ecefz":5024463.41,"ecefvx":0.31,"ecefvy":-2.83,"ecefvz":0.20,"ecefpAcc":4.60,"ecefvAcc":0.47,"velN":0.292,"velE":-2.839,"velD":-0.027,"geoidSep":43.897,"eph":21.850,"sep":39.710}
{"class":"SKY","device":"/dev/ttyACM0","time":"2024-07-09T10:15:02.251Z","gdop":2.39,"hdop":1.15,"pdop":2.09,"tdop":1.16,"xdop":0.81,"ydop":1.65,"vdop":1.74,"nSat":14,"uSat":9,"satellites":[{"PRN":2,"gnssid":0,"svid":2,"az":282.0,"el":48.0,"ss":48.0,"used":true,"health":1},{"PRN":22,"gnssid":0,"svid":22,"az":332.0,"el":10.0,"ss":41.0,"used":true,"health":1},{"PRN":27,"gnssid":0,"svid":27,"az":154.0,"el":35.0,"ss":47.0,"used":true,"health":1},{"PRN":23,"gnssid":0,"svid":23,"az":51.0,"el":12.0,"ss":40.0,"used":true,"health":1},{"PRN":24,"gnssid":0,"svid":24,"az":30.0,"el":3.0,"ss":30.0,"used":false,"health":1},{"PRN":19,"gnssid":0,"svid":19,"az":0.0,"el":-9.0,"ss":0.0,"used":false,"health":1},{"PRN":14,"gnssid":0,"svid":14,"az":314.0,"el":20.0,"ss":43.0,"used":true,"health":1},{"PRN":8,"gnssid":0,"svid":8,"az":188.0,"el":64.0,"ss":44.0,"used":true,"health":1},{"PRN":10,"gnssid":0,"svid":10,"az":59.0,"el":46.0,"ss":49.0,"used":true,"health":1},{"PRN":3,"gnssid":0,"svid":3,"az":222.0,"el":5.0,"ss":0.0,"used":false,"health":1},{"PRN":32,"gnssid":0,"svid":32,"az":105.0,"el":37.0,"ss":48.0,"used":true,"health":1},{"PRN":21,"gnssid":0,"svid":21,"az":285.0,"el":67.0,"ss":48.0,"used":true,"health":1},{"PRN":16,"gnssid":0,"svid":16,"az":0.0,"el":-9.0,"ss":0.0,"used":false,"health":1},{"PRN":18,"gnssid":0,"svid":18,"az":0.0,"el":-9.0,"ss":0.0,"used":false,"health":1}]}
{"class":"TPV","device":"/dev/ttyACM0","mode":3,"time":"2024-07-09T10:15:02.499Z","ept":0.005,"lat":52.315751573,"lon":10.563872173,"altHAE":133.9306,"altMSL":90.0338,"alt":90.0338,"epx":12.114,"epy":24.818,"epv":40.020,"track":276.4391,"magtrack":279.6592,"magvar":3.2,"speed":2.812,"climb":0.022,"eps":0.51,"epc":322.74,"ecefx":3841072.86,"ecefy":716330.73,"ecefz":5024463.46,"ecefvx":0.28,"ecefvy":-2.79,"ecefvz":0.21,"ecefpAcc":4.60,"ecefvAcc":0.51,"velN":0.315,"velE":-2.794,"velD":-0.022,"geoidSep":43.897,"eph":21.850,"sep":41.800}
{"class":"SKY","device":"/dev/ttyACM0","time":"2024-07-09T10:15:02.251Z","gdop":2.39,"hdop":1.15,"pdop":2.20,"tdop":1.16,"xdop":0.81,"ydop":1.65,"vdop":1.74,"uSat":6}
{"class":"SKY","device":"/dev/ttyACM0","time":"2024-07-09T10:15:02.251Z","gdop":2.51,"hdop":1.26,"pdop":2.20,"tdop":1.22,"xdop":0.81,"ydop":1.65,"vdop":1.80,"uSat":6}
{"class":"TPV","device":"/dev/ttyACM0","mode":3,"time":"2024-07-09T10:15:02.499Z","ept":0.005,"lat":52.315751573,"lon":10.563872173,"altHAE":133.9306,"altMSL":90.0338,"alt":90.0338,"epx":12.114,"epy":24.818,"epv":40.020,"track":276.4391,"magtrack":279.6592,"magvar":3.2,"speed":2.812,"climb":0.022,"eps":200.15,"epc":322.74,"ecefx":3841072.86,"ecefy":716330.73,"ecefz":5024463.46,"ecefvx":0.28,"ecefvy":-2.79,"ecefvz":0.21,"ecefpAcc":4.60,"ecefvAcc":0.51,"velN":0.315,"velE":-2.794,"velD":-0.022,"geoidSep":43.897,"eph":21.850,"sep":41.800}
{"class":"SKY","device":"/dev/ttyACM0","time":"2024-07-09T10:15:02.499Z","gdop":2.51,"hdop":1.26,"pdop":2.20,"tdop":1.22,"xdop":0.81,"ydop":1.65,"vdop":1.80,"nSat":14,"uSat":8,"satellites":[{"PRN":2,"gnssid":0,"svid":2,"az":282.0,"el":48.0,"ss":48.0,"used":true,"health":1},{"PRN":22,"gnssid":0,"svid":22,"az":332.0,"el":10.0,"ss":41.0,"used":true,"health":1},{"PRN":27,"gnssid":0,"svid":27,"az":154.0,"el":35.0,"ss":46.0,"used":true,"health":1},{"PRN":23,"gnssid":0,"svid":23,"az":51.0,"el":12.0,"ss":40.0,"used":false,"health":1},{"PRN":24,"gnssid":0,"svid":24,"az":30.0,"el":3.0,"ss":31.0,"used":false,"health":1},{"PRN":19,"gnssid":0,"svid":19,"az":0.0,"el":-9.0,"ss":0.0,"used":false,"health":1},{"PRN":14,"gnssid":0,"svid":14,"az":314.0,"el":20.0,"ss":43.0,"used":true,"health":1},{"PRN":8,"gnssid":0,"svid":8,"az":188.0,"el":64.0,"ss":48.0,"used":true,"health":1},{"PRN":10,"gnssid":0,"svid":10,"az":59.0,"el":46.0,"ss":49.0,"used":true,"health":1},{"PRN":3,"gnssid":0,"svid":3,"az":222.0,"el":5.0,"ss":0.0,"used":false,"health":1},{"PRN":32,"gnssid":0,"svid":32,"az":105.0,"el":37.0,"ss":48.0,"used":true,"health":1},{"PRN":21,"gnssid":0,"svid":21,"az":285.0,"el":67.0,"ss":48.0,"used":true,"health":1},{"PRN":16,"gnssid":0,"svid":16,"az":0.0,"el":-9.0,"ss":0.0,"used":false,"health":1},{"PRN":18,"gnssid":0,"svid":18,"az":0.0,"el":-9.0,"ss":0.0,"used":false,"health":1}]}
{"class":"TPV","device":"/dev/ttyACM0","mode":3,"time":"2024-07-09T10:15:02.751Z","ept":0.005,"lat":52.315752438,"lon":10.563862065,"altHAE":133.9448,"altMSL":90.0479,"alt":90.0479,"epx":12.114,"epy":24.818,"epv":41.400,"track":276.2702,"magtrack":279.4903,"magvar":3.2,"speed":2.752,"climb":0.021,"eps":0.55,"epc":323.09,"ecefx":3841072.92,"ecefy":716330.04,"ecefz":5024463.53,"ecefvx":0.28,"ecefvy":-2.73,"ecefvz":0.20,"ecefpAcc":4.60,"ecefvAcc":0.55,"velN":0.301,"velE":-2.735,"velD":-0.021,"geoidSep":43.897,"eph":23.940,"sep":57.000}
{"class":"SKY","device":"/dev/ttyACM0","time":"2024-07-09T10:15:02.499Z","gdop":2.51,"hdop":1.26,"pdop":3.00,"tdop":1.22,"xdop":0.81,"ydop":1.65,"vdop":1.80,"uSat":6}
{"class":"SKY","device":"/dev/ttyACM0","time":"2024-07-09T10:15:02.499Z","gdop":3.50,"hdop":1.78,"pdop":3.00,"tdop":1.80,"xdop":0.81,"ydop":1.65,"vdop":2.41,"uSat":6}
{"class":"TPV","device":"/dev/ttyACM0","mode":3,"time":"2024-07-09T10:15:02.751Z","ept":0.005,"lat":52.315752438,"lon":10.563862065,"altHAE":133.9448,"altMSL":90.0479,"alt":90.0479,"epx":12.114,"epy":24.818,"epv":41.400,"track":276.2702,"magtrack":279.4903,"magvar":3.2,"speed":2.752,"climb":0.021,"eps":196.97,"epc":323.09,"ecefx":3841072.92,"ecefy":716330.04,"ecefz":5024463.53,"ecefvx":0.28,"ecefvy":-2.73,"ecefvz":0.20,"ecefpAcc":4.60,"ecefvAcc":0.55,"velN":0.301,"velE":-2.735,"velD":-0.021,"geoidSep":43.897,"eph":23.940,"sep":57.000}
{"class":"SKY","device":"/dev/ttyACM0","time":"2024-07-09T10:15:02.751Z","gdop":3.50,"hdop":1.78,"pdop":3.00,"tdop":1.80,"xdop":0.81,"ydop":1.65,"vdop":2.41,"nSat":14,"uSat":8,"satellites":[{"PRN":2,"gnssid":0,"svid":2,"az":282.0,"el":48.0,"ss":48.0,"used":true,"health":1},{"PRN":22,"gnssid":0,"svid":22,"az":332.0,"el":10.0,"ss":42.0,"used":true,"health":1},{"PRN":27,"gnssid":0,"svid":27,"az":154.0,"el":35.0,"ss":43.0,"used":false,"health":1},{"PRN":23,"gnssid":0,"svid":23,"az":51.0,"el":12.0,"ss":40.0,"used":true,"health":1},{"PRN":24,"gnssid":0,"svid":24,"az":30.0,"el":3.0,"ss":31.0,"used":false,"health":1},{"PRN":19,"gnssid":0,"svid":19,"az":0.0,"el":-9.0,"ss":0.0,"used":false,"health":1},{"PRN":14,"gnssid":0,"svid":14,"az":314.0,"el":20.0,"ss":43.0,"used":true,"health":1},{"PRN":8,"gnssid":0,"svid":8,"az":188.0,"el":64.0,"ss":49.0,"used":true,"health":1},{"PRN":10,"gnssid":0,"svid":10,"az":59.0,"el":46.0,"ss":49.0,"used":true,"health":1},{"PRN":3,"gnssid":0,"svid":3,"az":222.0,"el":5.0,"ss":0.0,"used":false,"health":1},{"PRN":32,"gnssid":0,"svid":32,"az":105.0,"el":37.0,"ss":47.0,"used":true,"health":1},{"PRN":21,"gnssid":0,"svid":21,"az":285.0,"el":67.0,"ss":48.0,"used":true,"health":1},{"PRN":16,"gnssid":0,"svid":16,"az":0.0,"el":-9.0,"ss":0.0,"used":false,"health":1},{"PRN":18,"gnssid":0,"svid":18,"az":0.0,"el":-9.0,"ss":0.0,"used":false,"health":1}]}
{"class":"TPV","device":"/dev/ttyACM0","mode":3,"time":"2024-07-09T10:15:02.999Z","ept":0.005,"lat":52.315753181,"lon":10.563852272,"altHAE":133.9314,"altMSL":90.0345,"alt":90.0345,"epx":12.114,"epy":24.818,"epv":55.430,"track":276.0593,"magtrack":279.2794,"magvar":3.2,"speed":2.652,"climb":0.024,"eps":0.57,"epc":390.44,"ecefx":3841072.97,"ecefy":716329.37,"ecefz":5024463.57,"ecefvx":0.28,"ecefvy":-2.63,"ecefvz":0.19,"ecefpAcc":4.61,"ecefvAcc":0.57,"velN":0.280,"velE":-2.637,"velD":-0.024,"geoidSep":43.897,"eph":33.820,"sep":39.710}
{"class":"SKY","device":"/dev/ttyACM0","time":"2024-07-09T10:15:02.751Z","gdop":3.50,"hdop":1.78,"pdop":2.09,"tdop":1.80,"xdop":0.81,"ydop":1.65,"vdop":2.41,"uSat":6}
{"class":"SKY","device":"/dev/ttyACM0","time":"2024-07-09T10:15:02.751Z","gdop":2.39,"hdop":1.15,"pdop":2.09,"tdop":1.16,"xdop":0.81,"ydop":1.65,"vdop":1.74,"uSat":6}
{"class":"TPV","device":"/dev/ttyACM0","mode":3,"time":"2024-07-09T10:15:02.999Z","ept":0.005,"lat":52.315753181,"lon":10.563852272,"altHAE":133.9314,"altMSL":90.0345,"alt":90.0345,"epx":12.114,"epy":24.818,"epv":55.430,"track":276.0593,"magtrack":279.2794,"magvar":3.2,"speed":2.652,"climb":0.024,"eps":200.15,"epc":390.44,"ecefx":3841072.97,"ecefy":716329.37,"ecefz":5024463.57,"ecefvx":0.28,"ecefvy":-2.63,"ecefvz":0.19,"ecefpAcc":4.61,"ecefvAcc":0.57,"velN":0.280,"velE":-2.637,"velD":-0.024,"geoidSep":43.897,"eph":33.820,"sep":39.710}
{"class":"SKY","device":"/dev/ttyACM0","time":"2024-07-09T10:15:02.999Z","gdop":2.39,"hdop":1.15,"pdop":2.09,"tdop":1.16,"xdop":0.81,"ydop":1.65,"vdop":1.74,"nSat":14,"uSat":9,"satellites":[{"PRN":2,"gnssid":0,"svid":2,"az":282.0,"el":48.0,"ss":48.0,"used":true,"health":1},{"PRN":22,"gnssid":0,"svid":22,"az":332.0,"el":10.0,"ss":42.0,"used":true,"health":1},{"PRN":27,"gnssid":0,"svid":27,"az":154.0,"el":35.0,"ss":42.0,"used":true,"health":1},{"PRN":23,"gnssid":0,"svid":23,"az":51.0,"el":12.0,"ss":41.0,"used":true,"health":1},{"PRN":24,"gnssid":0,"svid":24,"az":30.0,"el":3.0,"ss":33.0,"used":false,"health":1},{"PRN":19,"gnssid":0,"svid":19,"az":0.0,"el":-9.0,"ss":0.0,"used":false,"health":1},{"PRN":14,"gnssid":0,"svid":14,"az":314.0,"el":20.0,"ss":43.0,"used":true,"health":1},{"PRN":8,"gnssid":0,"svid":8,"az":188.0,"el":64.0,"ss":50.0,"used":true,"health":1},{"PRN":10,"gnssid":0,"svid":10,"az":59.0,"el":46.0,"ss":49.0,"used":true,"health":1},{"PRN":3,"gnssid":0,"svid":3,"az":222.0,"el":5.0,"ss":0.0,"used":false,"health":1},{"PRN":32,"gnssid":0,"svid":32,"az":105.0,"el":37.0,"ss":48.0,"used":true,"health":1},{"PRN":21,"gnssid":0,"svid":21,"az":285.0,"el":67.0,"ss":48.0,"used":true,"health":1},{"PRN":16,"gnssid":0,"svid":16,"az":0.0,"el":-9.0,"ss":0.0,"used":false,"health":1},{"PRN":18,"gnssid":0,"svid":18,"az":0.0,"el":-9.0,"ss":0.0,"used":false,"health":1}]}
{"class":"TPV","device":"/dev/ttyACM0","mode":3,"time":"2024-07-09T10:15:03.251Z","ept":0.005,"lat":52.315753913,"lon":10.563843029,"altHAE":133.9443,"altMSL":90.0475,"alt":90.0475,"epx":12.114,"epy":24.818,"epv":40.020,"track":276.6116,"magtrack":279.8316,"magvar":3.2,"speed":2.510,"climb":0.029,"eps":0.56,"epc":378.77,"ecefx":3841073.03,"ecefy":716328.74,"ecefz":5024463.63,"ecefvx":0.25,"ecefvy":-2.49,"ecefvz":0.20,"ecefpAcc":4.61,"ecefvAcc":0.56,"velN":0.289,"velE":-2.494,"velD":-0.029,"geoidSep":43.897,"eph":21.850,"sep":39.710}
{"class":"SKY","device":"/dev/ttyACM0","time":"2024-07-09T10:15:02.999Z","gdop":2.39,"hdop":1.15,"pdop":2.09,"tdop":1.16,"xdop":0.81,"ydop":1.65,"vdop":1.74,"uSat":6}
{"class":"SKY","device":"/dev/ttyACM0","time":"2024-07-09T10:15:02.999Z","gdop":2.39,"hdop":1.15,"pdop":2.09,"tdop":1.16,"xdop":0.81,"ydop":1.65,"vdop":1.74,"uSat":6}
{"class":"TPV","device":"/dev/ttyACM0","mode":3,"time":"2024-07-09T10:15:03.251Z","ept":0.005,"lat":52.315753913,"lon":10.563843029,"altHAE":133.9443,"altMSL":90.0475,"alt":90.0475,"epx":12.114,"epy":24.818,"epv":40.020,"track":276.6116,"magtrack":279.8316,"magvar":3.2,"speed":2.510,"climb":0.029,"eps":196.97,"epc":378.77,"ecefx":3841073.03,"ecefy":716328.74,"ecefz":5024463.63,"ecefvx":0.25,"ecefvy":-2.49,"ecefvz":0.20,"ecefpAcc":4.61,"ecefvAcc":0.56,"velN":0.289,"velE":-2.494,"velD":-0.029,"geoidSep":43.897,"eph":21.850,"sep":39.710}
{"class":"SKY","device":"/dev/ttyACM0","time":"2024-07-09T10:15:03.251Z","gdop":2.39,"hdop":1.15,"pdop":2.09,"tdop":1.16,"xdop":0.81,"ydop":1.65,"vdop":1.74,"nSat":14,"uSat":9,"satellites":[{"PRN":2,"gnssid":0,"svid":2,"az":282.0,"el":48.0,"ss":48.0,"used":true,"health":1},{"PRN":22,"gnssid":0,"svid":22,"az":332.0,"el":10.0,"ss":41.0,"used":true,"health":1},{"PRN":27,"gnssid":0,"svid":27,"az":154.0,"el":35.0,"ss":43.0,"used":true,"health":1},{"PRN":23,"gnssid":0,"svid":23,"az":51.0,"el":12.0,"ss":41.0,"used":true,"health":1},{"PRN":24,"gnssid":0,"svid":24,"az":30.0,"el":3.0,"ss":30.0,"used":false,"health":1},{"PRN":19,"gnssid":0,"svid":19,"az":0.0,"el":-9.0,"ss":0.0,"used":false,"health":1},{"PRN":14,"gnssid":0,"svid":14,"az":314.0,"el":20.0,"ss":43.0,"used":true,"health":1},{"PRN":8,"gnssid":0,"svid":8,"az":188.0,"el":64.0,"ss":49.0,"used":true,"health":1},{"PRN":10,"gnssid":0,"svid":10,"az":59.0,"el":46.0,"ss":49.0,"used":true,"health":1},{"PRN":3,"gnssid":0,"svid":3,"az":222.0,"el":5.0,"ss":0.0,"used":false,"health":1},{"PRN":32,"gnssid":0,"svid":32,"az":105.0,"el":37.0,"ss":48.0,"used":true,"health":1},{"PRN":21,"gnssid":0,"svid":21,"az":285.0,"el":67.0,"ss":48.0,"used":true,"health":1},{"PRN":16,"gnssid":0,"svid":16,"az":0.0,"el":-9.0,"ss":0.0,"used":false,"health":1},{"PRN":18,"gnssid":0,"svid":18,"az":0.0,"el":-9.0,"ss":0.0,"used":false,"health":1}]}
{"class":"TPV","device":"/dev/ttyACM0","mode":3,"time":"2024-07-09T10:15:03.499Z","ept":0.005,"lat":52.315754690,"lon":10.563834273,"altHAE":133.9407,"altMSL":90.0438,"alt":90.0438,"epx":12.114,"epy":24.818,"epv":40.020,"track":277.9114,"magtrack":281.1315,"magvar":3.2,"speed":2.389,"climb":0.037,"eps":0.56,"epc":322.74,"ecefx":3841073.07,"ecefy":716328.14,"ecefz":5024463.68,"ecefvx":0.20,"ecefvy":-2.37,"ecefvz":0.23,"ecefpAcc":4.62,"ecefvAcc":0.56,"velN":0.329,"velE":-2.366,"velD":-0.037,"geoidSep":43.897,"eph":21.850,"sep":42.940}
{"class":"SKY","device":"/dev/ttyACM0","time":"2024-07-09T10:15:03.251Z","gdop":2.39,"hdop":1.15,"pdop":2.26,"tdop":1.16,"xdop":0.81,"ydop":1.65,"vdop":1.74,"uSat":6}
{"class":"SKY","device":"/dev/ttyACM0","time":"2024-07-09T10:15:03.251Z","gdop":2.62,"hdop":1.18,"pdop":2.26,"tdop":1.32,"xdop":0.81,"ydop":1.65,"vdop":1.93,"uSat":6}
{"class":"TPV","device":"/dev/ttyACM0","mode":3,"time":"2024-07-09T10:15:03.499Z","ept":0.005,"lat":52.315754690,"lon":10.563834273,"altHAE":133.9407,"altMSL":90.0438,"alt":90.0438,"epx":12.114,"epy":24.818,"epv":40.020,"track":277.9114,"magtrack":281.1315,"magvar":3.2,"speed":2.389,"climb":0.037,"eps":200.15,"epc":322.74,"ecefx":3841073.07,"ecefy":716328.14,"ecefz":5024463.68,"ecefvx":0.20,"ecefvy":-2.37,"ecefvz":0.23,"ecefpAcc":4.62,"ecefvAcc":0.56,"velN":0.329,"velE":-2.366,"velD":-0.037,"geoidSep":43.897,"eph":21.850,"sep":42.940}
{"class":"SKY","device":"/dev/ttyACM0","time":"2024-07-09T10:15:03.499Z","gdop":2.62,"hdop":1.18,"pdop":2.26,"tdop":1.32,"xdop":0.81,"ydop":1.65,"vdop":1.93,"nSat":14,"uSat":8,"satellites":[{"PRN":2,"gnssid":0,"svid":2,"az":282.0,"el":48.0,"ss":48.0,"used":true,"health":1},{"PRN":22,"gnssid":0,"svid":22,"az":332.0,"el":10.0,"ss":41.0,"used":false,"health":1},{"PRN":27,"gnssid":0,"svid":27,"az":154.0,"el":35.0,"ss":40.0,"used":true,"health":1},{"PRN":23,"gnssid":0,"svid":23,"az":51.0,"el":12.0,"ss":41.0,"used":true,"health":1},{"PRN":24,"gnssid":0,"svid":24,"az":30.0,"el":3.0,"ss":30.0,"used":false,"health":1},{"PRN":19,"gnssid":0,"svid":19,"az":0.0,"el":-9.0,"ss":0.0,"used":false,"health":1},{"PRN":14,"gnssid":0,"svid":14,"az":314.0,"el":20.0,"ss":43.0,"used":true,"health":1},{"PRN":8,"gnssid":0,"svid":8,"az":188.0,"el":64.0,"ss":50.0,"used":true,"health":1},{"PRN":10,"gnssid":0,"svid":10,"az":59.0,"el":46.0,"ss":49.0,"used":true,"health":1},{"PRN":3,"gnssid":0,"svid":3,"az":222.0,"el":5.0,"ss":0.0,"used":false,"health":1},{"PRN":32,"gnssid":0,"svid":32,"az":105.0,"el":37.0,"ss":48.0,"used":true,"health":1},{"PRN":21,"gnssid":0,"svid":21,"az":285.0,"el":67.0,"ss":48.0,"used":true,"health":1},{"PRN":16,"gnssid":0,"svid":16,"az":0.0,"el":-9.0,"ss":0.0,"used":false,"health":1},{"PRN":18,"gnssid":0,"svid":18,"az":0.0,"el":-9.0,"ss":0.0,"used":false,"health":1}]}
{"class":"TPV","device":"/dev/ttyACM0","mode":3,"time":"2024-07-09T10:15:03.751Z","ept":0.005,"lat":52.315755304,"lon":10.563826327,"altHAE":133.9637,"altMSL":90.0668,"alt":90.0668,"epx":12.114,"epy":24.818,"epv":44.390,"track":276.1787,"magtrack":279.3988,"magvar":3.2,"speed":2.028,"climb":0.034,"eps":0.69,"epc":334.96,"ecefx":3841073.13,"ecefy":716327.60,"ecefz":5024463.74,"ecefvx":0.22,"ecefvy":-2.01,"ecefvz":0.16,"ecefpAcc":4.62,"ecefvAcc":0.69,"velN":0.218,"velE":-2.016,"velD":-0.034,"geoidSep":43.897,"eph":22.420,"sep":39.710}
{"class":"SKY","device":"/dev/ttyACM0","time":"2024-07-09T10:15:03.499Z","gdop":2.62,"hdop":1.18,"pdop":2.09,"tdop":1.32,"xdop":0.81,"ydop":1.65,"vdop":1.93,"uSat":6}
{"class":"SKY","device":"/dev/ttyACM0","time":"2024-07-09T10:15:03.499Z","gdop":2.39,"hdop":1.15,"pdop":2.09,"tdop":1.16,"xdop":0.81,"ydop":1.65,"vdop":1.74,"uSat":6}
{"class":"TPV","device":"/dev/ttyACM0","mode":3,"time":"2024-07-09T10:15:03.751Z","ept":0.005,"lat":52.315755304,"lon":10.563826327,"altHAE":133.9637,"altMSL":90.0668,"alt":90.0668,"epx":12.114,"epy":24.818,"epv":44.390,"track":276.1787,"magtrack":279.3988,"magvar":3.2,"speed":2.028,"climb":0.034,"eps":196.97,"epc":334.96,"ecefx":3841073.13,"ecefy":716327.60,"ecefz":5024463.74,"ecefvx":0.22,"ecefvy":-2.01,"ecefvz":0.16,"ecefpAcc":4.62,"ecefvAcc":0.69,"velN":0.218,"velE":-2.016,"velD":-0.034,"geoidSep":43.897,"eph":22.420,"sep":39.710}
{"class":"SKY","device":"/dev/ttyACM0","time":"2024-07-09T10:15:03.751Z","gdop":2.39,"hdop":1.15,"pdop":2.09,"tdop":1.16,"xdop":0.81,"ydop":1.65,"vdop":1.74,"nSat":14,"uSat":9,"satellites":[{"PRN":2,"gnssid":0,"svid":2,"az":282.0,"el":48.0,"ss":48.0,"used":true,"health":1},{"PRN":22,"gnssid":0,"svid":22,"az":332.0,"el":10.0,"ss":41.0,"used":true,"health":1},{"PRN":27,"gnssid":0,"svid":27,"az":154.0,"el":35.0,"ss":42.0,"used":true,"health":1},{"PRN":23,"gnssid":0,"svid":23,"az":51.0,"el":12.0,"ss":41.0,"used":true,"health":1},{"PRN":24,"gnssid":0,"svid":24,"az":30.0,"el":3.0,"ss":30.0,"used":false,"health":1},{"PRN":19,"gnssid":0,"svid":19,"az":0.0,"el":-9.0,"ss":0.0,"used":false,"health":1},{"PRN":14,"gnssid":0,"svid":14,"az":314.0,"el":20.0,"ss":43.0,"used":true,"health":1},{"PRN":8,"gnssid":0,"svid":8,"az":188.0,"el":64.0,"ss":49.0,"used":true,"health":1},{"PRN":10,"gnssid":0,"svid":10,"az":59.0,"el":46.0,"ss":50.0,"used":true,"health":1},{"PRN":3,"gnssid":0,"svid":3,"az":222.0,"el":5.0,"ss":0.0,"used":false,"health":1},{"PRN":32,"gnssid":0,"svid":32,"az":105.0,"el":37.0,"ss":48.0,"used":true,"health":1},{"PRN":21,"gnssid":0,"svid":21,"az":285.0,"el":67.0,"ss":48.0,"used":true,"health":1},{"PRN":16,"gnssid":0,"svid":16,"az":0.0,"el":-9.0,"ss":0.0,"used":false,"health":1},{"PRN":18,"gnssid":0,"svid":18,"az":0.0,"el":-9.0,"ss":0.0,"used":false,"health":1}]}
{"class":"TPV","device":"/dev/ttyACM0","mode":3,"time":"2024-07-09T10:15:03.999Z","ept":0.005,"lat":52.315755832,"lon":10.563819498,"altHAE":133.9309,"altMSL":90.0341,"alt":90.0341,"epx":12.114,"epy":24.818,"epv":40.020,"track":274.9085,"magtrack":278.1286,"magvar":3.2,"speed":1.755,"climb":0.010,"eps":0.55,"epc":340.36,"ecefx":3841073.15,"ecefy":716327.13,"ecefz":5024463.75,"ecefvx":0.21,"ecefvy":-1.74,"ecefvz":0.10,"ecefpAcc":4.63,"ecefvAcc":0.55,"velN":0.150,"velE":-1.749,"velD":-0.010,"geoidSep":43.897,"eph":21.850,"sep":42.940}
{"class":"SKY","device":"/dev/ttyACM0","time":"2024-07-09T10:15:03.751Z","gdop":2.39,"hdop":1.15,"pdop":2.26,"tdop":1.16,"xdop":0.81,"ydop":1.65,"vdop":1.74,"uSat":6}
{"class":"SKY","device":"/dev/ttyACM0","time":"2024-07-09T10:15:03.751Z","gdop":2.62,"hdop":1.18,"pdop":2.26,"tdop":1.32,"xdop":0.81,"ydop":1.65,"vdop":1.93,"uSat":6}
{"class":"TPV","device":"/dev/ttyACM0","mode":3,"time":"2024-07-09T10:15:03.999Z","ept":0.005,"lat":52.315755832,"lon":10.563819498,"altHAE":133.9309,"altMSL":90.0341,"alt":90.0341,"epx":12.114,"epy":24.818,"epv":40.020,"track":274.9085,"magtrack":278.1286,"magvar":3.2,"speed":1.755,"climb":0.010,"eps":200.15,"epc":340.36,"ecefx":3841073.15,"ecefy":716327.13,"ecefz":5024463.75,"ecefvx":0.21,"ecefvy":-1.74,"ecefvz":0.10,"ecefpAcc":4.63,"ecefvAcc":0.55,"velN":0.150,"velE":-1.749,"velD":-0.010,"geoidSep":43.897,"eph":21.850,"sep":42.940}
{"class":"SKY","device":"/dev/ttyACM0","time":"2024-07-09T10:15:03.999Z","gdop":2.62,"hdop":1.18,"pdop":2.26,"tdop":1.32,"xdop":0.81,"ydop":1.65,"vdop":1.93,"nSat":14,"uSat":8,"satellites":[{"PRN":2,"gnssid":0,"svid":2,"az":282.0,"el":48.0,"ss":48.0,"used":true,"health":1},{"PRN":22,"gnssid":0,"svid":22,"az":332.0,"el":10.0,"ss":40.0,"used":false,"health":1},{"PRN":27,"gnssid":0,"svid":27,"az":154.0,"el":35.0,"ss":40.0,"used":true,"health":1},{"PRN":23,"gnssid":0,"svid":23,"az":51.0,"el":12.0,"ss":41.0,"used":true,"health":1},{"PRN":24,"gnssid":0,"svid":24,"az":30.0,"el":3.0,"ss":30.0,"used":false,"health":1},{"PRN":19,"gnssid":0,"svid":19,"az":0.0,"el":-9.0,"ss":0.0,"used":false,"health":1},{"PRN":14,"gnssid":0,"svid":14,"az":314.0,"el":20.0,"ss":44.0,"used":true,"health":1},{"PRN":8,"gnssid":0,"svid":8,"az":188.0,"el":64.0,"ss":50.0,"used":true,"health":1},{"PRN":10,"gnssid":0,"svid":10,"az":59.0,"el":46.0,"ss":49.0,"used":true,"health":1},{"PRN":3,"gnssid":0,"svid":3,"az":222.0,"el":5.0,"ss":0.0,"used":false,"health":1},{"PRN":32,"gnssid":0,"svid":32,"az":105.0,"el":37.0,"ss":48.0,"used":true,"health":1},{"PRN":21,"gnssid":0,"svid":21,"az":285.0,"el":67.0,"ss":48.0,"used":true,"health":1},{"PRN":16,"gnssid":0,"svid":16,"az":0.0,"el":-9.0,"ss":0.0,"used":false,"health":1},{"PRN":18,"gnssid":0,"svid":18,"az":0.0,"el":-9.0,"ss":0.0,"used":false,"health":1}]}
{"class":"TPV","device":"/dev/ttyACM0","mode":3,"time":"2024-07-09T10:15:04.251Z","ept":0.005,"lat":52.315756311,"lon":10.563813822,"altHAE":133.9151,"altMSL":90.0182,"alt":90.0182,"epx":12.114,"epy":24.818,"epv":44.390,"track":275.5466,"magtrack":278.7667,"magvar":3.2,"speed":1.430,"climb":-0.006,"eps":0.56,"epc":334.96,"ecefx":3841073.17,"ecefy":716326.74,"ecefz":5024463.77,"ecefvx":0.15,"ecefvy":-1.42,"ecefvz":0.08,"ecefpAcc":4.63,"ecefvAcc":0.56,"velN":0.138,"velE":-1.423,"velD":0.006,"geoidSep":43.897,"eph":22.420,"sep":59.280}
{"class":"SKY","device":"/dev/ttyACM0","time":"2024-07-09T10:15:03.999Z","gdop":2.62,"hdop":1.18,"pdop":3.12,"tdop":1.32,"xdop":0.81,"ydop":1.65,"vdop":1.93,"uSat":6}
{"class":"SKY","device":"/dev/ttyACM0","time":"2024-07-09T10:15:03.999Z","gdop":3.66,"hdop":1.80,"pdop":3.12,"tdop":1.91,"xdop":0.81,"ydop":1.65,"vdop":2.55,"uSat":6}
{"class":"TPV","device":"/dev/ttyACM0","mode":3,"time":"2024-07-09T10:15:04.251Z","ept":0.005,"lat":52.315756311,"lon":10.563813822,"altHAE":133.9151,"altMSL":90.0182,"alt":90.0182,"epx":12.114,"epy":24.818,"epv":44.390,"track":275.5466,"magtrack":278.7667,"magvar":3.2,"speed":1.430,"climb":-0.006,"eps":196.97,"epc":334.96,"ecefx":3841073.17,"ecefy":716326.74,"ecefz":5024463.77,"ecefvx":0.15,"ecefvy":-1.42,"ecefvz":0.08,"ecefpAcc":4.63,"ecefvAcc":0.56,"velN":0.138,"velE":-1.423,"velD":0.006,"geoidSep":43.897,"eph":22.420,"sep":59.280}
{"class":"SKY","device":"/dev/ttyACM0","time":"2024-07-09T10:15:04.251Z","gdop":3.66,"hdop":1.80,"pdop":3.12,"tdop":1.91,"xdop":0.81,"ydop":1.65,"vdop":2.55,"nSat":14,"uSat":7,"satellites":[{"PRN":2,"gnssid":0,"svid":2,"az":282.0,"el":48.0,"ss":48.0,"used":true,"health":1},{"PRN":22,"gnssid":0,"svid":22,"az":332.0,"el":10.0,"ss":40.0,"used":false,"health":1},{"PRN":27,"gnssid":0,"svid":27,"az":154.0,"el":35.0,"ss":36.0,"used":false,"health":1},{"PRN":23,"gnssid":0,"svid":23,"az":51.0,"el":12.0,"ss":40.0,"used":true,"health":1},{"PRN":24,"gnssid":0,"svid":24,"az":30.0,"el":3.0,"ss":30.0,"used":false,"health":1},{"PRN":19,"gnssid":0,"svid":19,"az":0.0,"el":-9.0,"ss":0.0,"used":false,"health":1},{"PRN":14,"gnssid":0,"svid":14,"az":314.0,"el":20.0,"ss":43.0,"used":true,"health":1},{"PRN":8,"gnssid":0,"svid":8,"az":188.0,"el":64.0,"ss":50.0,"used":true,"health":1},{"PRN":10,"gnssid":0,"svid":10,"az":59.0,"el":46.0,"ss":49.0,"used":true,"health":1},{"PRN":3,"gnssid":0,"svid":3,"az":222.0,"el":5.0,"ss":0.0,"used":false,"health":1},{"PRN":32,"gnssid":0,"svid":32,"az":105.0,"el":37.0,"ss":48.0,"used":true,"health":1},{"PRN":21,"gnssid":0,"svid":21,"az":285.0,"el":67.0,"ss":48.0,"used":true,"health":1},{"PRN":16,"gnssid":0,"svid":16,"az":0.0,"el":-9.0,"ss":0.0,"used":false,"health":1},{"PRN":18,"gnssid":0,"svid":18,"az":0.0,"el":-9.0,"ss":0.0,"used":false,"health":1}]}
{"class":"TPV","device":"/dev/ttyACM0","mode":3,"time":"2024-07-09T10:15:04.499Z","ept":0.005,"lat":52.315756819,"lon":10.563808841,"altHAE":133.9346,"altMSL":90.0377,"alt":90.0377,"epx":12.114,"epy":24.818,"epv":58.650,"track":275.8103,"magtrack":279.0303,"magvar":3.2,"speed":1.399,"climb":-0.008,"eps":0.56,"epc":415.48,"ecefx":3841073.20,"ecefy":716326.40,"ecefz":5024463.82,"ecefvx":0.14,"ecefvy":-1.39,"ecefvz":0.08,"ecefpAcc":4.64,"ecefvAcc":0.56,"velN":0.142,"velE":-1.392,"velD":0.008,"geoidSep":43.897,"eph":34.200,"sep":57.000}
{"class":"SKY","device":"/dev/ttyACM0","time":"2024-07-09T10:15:04.251Z","gdop":3.66,"hdop":1.80,"pdop":3.00,"tdop":1.91,"xdop":0.81,"ydop":1.65,"vdop":2.55,"uSat":6}
{"class":"SKY","device":"/dev/ttyACM0","time":"2024-07-09T10:15:04.251Z","gdop":3.50,"hdop":1.78,"pdop":3.00,"tdop":1.80,"xdop":0.81,"ydop":1.65,"vdop":2.41,"uSat":6}
{"class":"TPV","device":"/dev/ttyACM0","mode":3,"time":"2024-07-09T10:15:04.499Z","ept":0.005,"lat":52.315756819,"lon":10.563808841,"altHAE":133.9346,"altMSL":90.0377,"alt":90.0377,"epx":12.114,"epy":24.818,"epv":58.650,"track":275.8103,"magtrack":279.0303,"magvar":3.2,"speed":1.399,"climb":-0.008,"eps":200.15,"epc":415.48,"ecefx":3841073.20,"ecefy":716326.40,"ecefz":5024463.82,"ecefvx":0.14,"ecefvy":-1.39,"ecefvz":0.08,"ecefpAcc":4.64,"ecefvAcc":0.56,"velN":0.142,"velE":-1.392,"velD":0.008,"geoidSep":43.897,"eph":34.200,"sep":57.000}
{"class":"SKY","device":"/dev/ttyACM0","time":"2024-07-09T10:15:04.499Z","gdop":3.50,"hdop":1.78,"pdop":3.00,"tdop":1.80,"xdop":0.81,"ydop":1.65,"vdop":2.41,"nSat":14,"uSat":8,"satellites":[{"PRN":2,"gnssid":0,"svid":2,"az":282.0,"el":48.0,"ss":48.0,"used":true,"health":1},{"PRN":22,"gnssid":0,"svid":22,"az":332.0,"el":10.0,"ss":41.0,"used":true,"health":1},{"PRN":27,"gnssid":0,"svid":27,"az":154.0,"el":35.0,"ss":30.0,"used":false,"health":1},{"PRN":23,"gnssid":0,"svid":23,"az":51.0,"el":12.0,"ss":41.0,"used":true,"health":1},{"PRN":24,"gnssid":0,"svid":24,"az":30.0,"el":3.0,"ss":31.0,"used":false,"health":1},{"PRN":19,"gnssid":0,"svid":19,"az":0.0,"el":-9.0,"ss":0.0,"used":false,"health":1},{"PRN":14,"gnssid":0,"svid":14,"az":314.0,"el":20.0,"ss":43.0,"used":true,"health":1},{"PRN":8,"gnssid":0,"svid":8,"az":188.0,"el":64.0,"ss":49.0,"used":true,"health":1},{"PRN":10,"gnssid":0,"svid":10,"az":59.0,"el":46.0,"ss":49.0,"used":true,"health":1},{"PRN":3,"gnssid":0,"svid":3,"az":222.0,"el":5.0,"ss":0.0,"used":false,"health":1},{"PRN":32,"gnssid":0,"svid":32,"az":105.0,"el":37.0,"ss":48.0,"used":true,"health":1},{"PRN":21,"gnssid":0,"svid":21,"az":285.0,"el":67.0,"ss":48.0,"used":true,"health":1},{"PRN":16,"gnssid":0,"svid":16,"az":0.0,"el":-9.0,"ss":0.0,"used":false,"health":1},{"PRN":18,"gnssid":0,"svid":18,"az":0.0,"el":-9.0,"ss":0.0,"used":false,"health":1}]}
{"class":"TPV","device":"/dev/ttyACM0","mode":3,"time":"2024-07-09T10:15:04.751Z","ept":0.005,"lat":52.315757053,"lon":10.563803859,"altHAE":133.9145,"altMSL":90.0176,"alt":90.0176,"epx":12.114,"epy":24.818,"epv":55.430,"track":274.8881,"magtrack":278.1081,"magvar":3.2,"speed":1.360,"climb":-0.014,"eps":0.54,"epc":452.70,"ecefx":3841073.23,"ecefy":716326.06,"ecefz":5024463.82,"ecefvx":0.15,"ecefvy":-1.35,"ecefvz":0.06,"ecefpAcc":4.64,"ecefvAcc":0.54,"velN":0.116,"velE":-1.355,"velD":0.014,"geoidSep":43.897,"eph":33.820,"sep":57.000}
{"class":"SKY","device":"/dev/ttyACM0","time":"2024-07-09T10:15:04.499Z","gdop":3.50,"hdop":1.78,"pdop":3.00,"tdop":1.80,"xdop":0.81,"ydop":1.65,"vdop":2.41,"uSat":6}
{"class":"SKY","device":"/dev/ttyACM0","time":"2024-07-09T10:15:04.499Z","gdop":3.50,"hdop":1.78,"pdop":3.00,"tdop":1.80,"xdop":0.81,"ydop":1.65,"vdop":2.41,"uSat":6}
{"class":"TPV","device":"/dev/ttyACM0","mode":3,"time":"2024-07-09T10:15:04.751Z","ept":0.005,"lat":52.315757053,"lon":10.563803859,"altHAE":133.9145,"altMSL":90.0176,"alt":90.0176,"epx":12.114,"epy":24.818,"epv":55.430,"track":274.8881,"magtrack":278.1081,"magvar":3.2,"speed":1.360,"climb":-0.014,"eps":196.97,"epc":452.70,"ecefx":3841073.23,"ecefy":716326.06,"ecefz":5024463.82,"ecefvx":0.15,"ecefvy":-1.35,"ecefvz":0.06,"ecefpAcc":4.64,"ecefvAcc":0.54,"velN":0.116,"velE":-1.355,"velD":0.014,"geoidSep":43.897,"eph":33.820,"sep":57.000}
{"class":"SKY","device":"/dev/ttyACM0","time":"2024-07-09T10:15:04.751Z","gdop":3.50,"hdop":1.78,"pdop":3.00,"tdop":1.80,"xdop":0.81,"ydop":1.65,"vdop":2.41,"nSat":14,"uSat":8,"satellites":[{"PRN":2,"gnssid":0,"svid":2,"az":282.0,"el":48.0,"ss":48.0,"used":true,"health":1},{"PRN":22,"gnssid":0,"svid":22,"az":332.0,"el":10.0,"ss":41.0,"used":true,"health":1},{"PRN":27,"gnssid":0,"svid":27,"az":154.0,"el":35.0,"ss":31.0,"used":false,"health":1},{"PRN":23,"gnssid":0,"svid":23,"az":51.0,"el":12.0,"ss":39.0,"used":true,"health":1},{"PRN":24,"gnssid":0,"svid":24,"az":30.0,"el":3.0,"ss":31.0,"used":false,"health":1},{"PRN":19,"gnssid":0,"svid":19,"az":0.0,"el":-9.0,"ss":0.0,"used":false,"health":1},{"PRN":14,"gnssid":0,"svid":14,"az":314.0,"el":20.0,"ss":43.0,"used":true,"health":1},{"PRN":8,"gnssid":0,"svid":8,"az":188.0,"el":64.0,"ss":50.0,"used":true,"health":1},{"PRN":10,"gnssid":0,"svid":10,"az":59.0,"el":46.0,"ss":48.0,"used":true,"health":1},{"PRN":3,"gnssid":0,"svid":3,"az":222.0,"el":5.0,"ss":0.0,"used":false,"health":1},{"PRN":32,"gnssid":0,"svid":32,"az":105.0,"el":37.0,"ss":48.0,"used":true,"health":1},{"PRN":21,"gnssid":0,"svid":21,"az":285.0,"el":67.0,"ss":48.0,"used":true,"health":1},{"PRN":16,"gnssid":0,"svid":16,"az":0.0,"el":-9.0,"ss":0.0,"used":false,"health":1},{"PRN":18,"gnssid":0,"svid":18,"az":0.0,"el":-9.0,"ss":0.0,"used":false,"health":1}]}
{"class":"TPV","device":"/dev/ttyACM0","mode":3,"time":"2024-07-09T10:15:04.999Z","ept":0.005,"lat":52.315757604,"lon":10.563798787,"altHAE":133.9050,"altMSL":90.0081,"alt":90.0081,"epx":12.114,"epy":24.818,"epv":55.430,"track":277.5672,"magtrack":280.7873,"magvar":3.2,"speed":1.458,"climb":-0.009,"eps":0.54,"epc":447.02,"ecefx":3841073.24,"ecefy":716325.71,"ecefz":5024463.85,"ecefvx":0.11,"ecefvy":-1.45,"ecefvz":0.11,"ecefpAcc":4.65,"ecefvAcc":0.54,"velN":0.192,"velE":-1.446,"velD":0.009,"geoidSep":43.897,"eph":33.820,"sep":42.940}
{"class":"SKY","device":"/dev/ttyACM0","time":"2024-07-09T10:15:04.751Z","gdop":3.50,"hdop":1.78,"pdop":2.26,"tdop":1.80,"xdop":0.81,"ydop":1.65,"vdop":2.41,"uSat":6}
{"class":"SKY","device":"/dev/ttyACM0","time":"2024-07-09T10:15:04.751Z","gdop":2.62,"hdop":1.18,"pdop":2.26,"tdop":1.32,"xdop":0.81,"ydop":1.65,"vdop":1.93,"uSat":6}
{"class":"TPV","device":"/dev/ttyACM0","mode":3,"time":"2024-07-09T10:15:04.999Z","ept":0.005,"lat":52.315757604,"lon":10.563798787,"altHAE":133.9050,"altMSL":90.0081,"alt":90.0081,"epx":12.114,"epy":24.818,"epv":55.430,"track":277.5672,"magtrack":280.7873,"magvar":3.2,"speed":1.458,"climb":-0.009,"eps":200.15,"epc":447.02,"ecefx":3841073.24,"ecefy":716325.71,"ecefz":5024463.85,"ecefvx":0.11,"ecefvy":-1.45,"ecefvz":0.11,"ecefpAcc":4.65,"ecefvAcc":0.54,"velN":0.192,"velE":-1.446,"velD":0.009,"geoidSep":43.897,"eph":33.820,"sep":42.940}
{"class":"SKY","device":"/dev/ttyACM0","time":"2024-07-09T10:15:04.999Z","gdop":2.62,"hdop":1.18,"pdop":2.26,"tdop":1.32,"xdop":0.81,"ydop":1.65,"vdop":1.93,"nSat":14,"uSat":8,"satellites":[{"PRN":2,"gnssid":0,"svid":2,"az":282.0,"el":48.0,"ss":48.0,"used":true,"health":1},{"PRN":22,"gnssid":0,"svid":22,"az":332.0,"el":10.0,"ss":40.0,"used":false,"health":1},{"PRN":27,"gnssid":0,"svid":27,"az":154.0,"el":35.0,"ss":34.0,"used":true,"health":1},{"PRN":23,"gnssid":0,"svid":23,"az":51.0,"el":12.0,"ss":38.0,"used":true,"health":1},{"PRN":24,"gnssid":0,"svid":24,"az":30.0,"el":3.0,"ss":30.0,"used":false,"health":1},{"PRN":19,"gnssid":0,"svid":19,"az":0.0,"el":-9.0,"ss":0.0,"used":false,"health":1},{"PRN":14,"gnssid":0,"svid":14,"az":314.0,"el":20.0,"ss":43.0,"used":true,"health":1},{"PRN":8,"gnssid":0,"svid":8,"az":188.0,"el":64.0,"ss":50.0,"used":true,"health":1},{"PRN":10,"gnssid":0,"svid":10,"az":59.0,"el":46.0,"ss":49.0,"used":true,"health":1},{"PRN":3,"gnssid":0,"svid":3,"az":222.0,"el":5.0,"ss":0.0,"used":false,"health":1},{"PRN":32,"gnssid":0,"svid":32,"az":105.0,"el":37.0,"ss":48.0,"used":true,"health":1},{"PRN":21,"gnssid":0,"svid":21,"az":285.0,"el":67.0,"ss":48.0,"used":true,"health":1},{"PRN":16,"gnssid":0,"svid":16,"az":0.0,"el":-9.0,"ss":0.0,"used":false,"health":1},{"PRN":18,"gnssid":0,"svid":18,"az":0.0,"el":-9.0,"ss":0.0,"used":false,"health":1}]}
{"class":"TPV","device":"/dev/ttyACM0","mode":3,"time":"2024-07-09T10:15:05.251Z","ept":0.005,"lat":52.315758083,"lon":10.563793111,"altHAE":133.8892,"altMSL":89.9923,"alt":89.9923,"epx":12.114,"epy":24.818,"epv":44.390,"track":276.1522,"magtrack":279.3723,"magvar":3.2,"speed":1.710,"climb":-0.015,"eps":0.53,"epc":396.11,"ecefx":3841073.26,"ecefy":716325.32,"ecefz":5024463.87,"ecefvx":0.16,"ecefvy":-1.70,"ecefvz":0.10,"ecefpAcc":4.65,"ecefvAcc":0.53,"velN":0.183,"velE":-1.701,"velD":0.015,"geoidSep":43.897,"eph":22.420,"sep":39.710}
{"class":"SKY","device":"/dev/ttyACM0","time":"2024-07-09T10:15:04.999Z","gdop":2.62,"hdop":1.18,"pdop":2.09,"tdop":1.32,"xdop":0.81,"ydop":1.65,"vdop":1.93,"uSat":6}
{"class":"SKY","device":"/dev/ttyACM0","time":"2024-07-09T10:15:04.999Z","gdop":2.39,"hdop":1.15,"pdop":2.09,"tdop":1.16,"xdop":0.81,"ydop":1.65,"vdop":1.74,"uSat":6}
{"class":"TPV","device":"/dev/ttyACM0","mode":3,"time":"2024-07-09T10:15:05.251Z","ept":0.005,"lat":52.315758083,"lon":10.563793111,"altHAE":133.8892,"altMSL":89.9923,"alt":89.9923,"epx":12.114,"epy":24.818,"epv":44.390,"track":276.1522,"magtrack":279.3723,"magvar":3.2,"speed":1.710,"climb":-0.015,"eps":196.97,"epc":396.11,"ecefx":3841073.26,"ecefy":716325.32,"ecefz":5024463.87,"ecefvx":0.16,"ecefvy":-1.70,"ecefvz":0.10,"ecefpAcc":4.65,"ecefvAcc":0.53,"velN":0.183,"velE":-1.701,"velD":0.015,"geoidSep":43.897,"eph":22.420,"sep":39.710}
{"class":"SKY","device":"/dev/ttyACM0","time":"2024-07-09T10:15:05.251Z","gdop":2.39,"hdop":1.15,"pdop":2.09,"tdop":1.16,"xdop":0.81,"ydop":1.65,"vdop":1.74,"nSat":14,"uSat":9,"satellites":[{"PRN":2,"gnssid":0,"svid":2,"az":282.0,"el":48.0,"ss":47.0,"used":true,"health":1},{"PRN":22,"gnssid":0,"svid":22,"az":332.0,"el":10.0,"ss":39.0,"used":true,"health":1},{"PRN":27,"gnssid":0,"svid":27,"az":154.0,"el":35.0,"ss":34.0,"used":true,"health":1},{"PRN":23,"gnssid":0,"svid":23,"az":51.0,"el":12.0,"ss":40.0,"used":true,"health":1},{"PRN":24,"gnssid":0,"svid":24,"az":30.0,"el":3.0,"ss":34.0,"used":false,"health":1},{"PRN":19,"gnssid":0,"svid":19,"az":0.0,"el":-9.0,"ss":0.0,"used":false,"health":1},{"PRN":14,"gnssid":0,"svid":14,"az":314.0,"el":20.0,"ss":42.0,"used":true,"health":1},{"PRN":8,"gnssid":0,"svid":8,"az":188.0,"el":64.0,"ss":49.0,"used":true,"health":1},{"PRN":10,"gnssid":0,"svid":10,"az":59.0,"el":46.0,"ss":49.0,"used":true,"health":1},{"PRN":3,"gnssid":0,"svid":3,"az":222.0,"el":5.0,"ss":0.0,"used":false,"health":1},{"PRN":32,"gnssid":0,"svid":32,"az":105.0,"el":37.0,"ss":48.0,"used":true,"health":1},{"PRN":21,"gnssid":0,"svid":21,"az":285.0,"el":67.0,"ss":48.0,"used":true,"health":1},{"PRN":16,"gnssid":0,"svid":16,"az":0.0,"el":-9.0,"ss":0.0,"used":false,"health":1},{"PRN":18,"gnssid":0,"svid":18,"az":0.0,"el":-9.0,"ss":0.0,"used":false,"health":1}]}
{"class":"TPV","device":"/dev/ttyACM0","mode":3,"time":"2024-07-09T10:15:05.499Z","ept":0.005,"lat":52.315758747,"lon":10.563786399,"altHAE":133.8952,"altMSL":89.9983,"alt":89.9983,"epx":12.114,"epy":24.818,"epv":40.020,"track":276.7939,"magtrack":280.0140,"magvar":3.2,"speed":2.031,"climb":-0.021,"eps":0.52,"epc":340.36,"ecefx":3841073.29,"ecefy":716324.86,"ecefz":5024463.92,"ecefvx":0.17,"ecefvy":-2.02,"ecefvz":0.13,"ecefpAcc":4.66,"ecefvAcc":0.52,"velN":0.240,"velE":-2.017,"velD":0.021,"geoidSep":43.897,"eph":21.850,"sep":39.710}
{"class":"SKY","device":"/dev/ttyACM0","time":"2024-07-09T10:15:05.251Z","gdop":2.39,"hdop":1.15,"pdop":2.09,"tdop":1.16,"xdop":0.81,"ydop":1.65,"vdop":1.74,"uSat":6}
{"class":"SKY","device":"/dev/ttyACM0","time":"2024-07-09T10:15:05.251Z","gdop":2.39,"hdop":1.15,"pdop":2.09,"tdop":1.16,"xdop":0.81,"ydop":1.65,"vdop":1.74,"uSat":6}
{"class":"TPV","device":"/dev/ttyACM0","mode":3,"time":"2024-07-09T10:15:05.499Z","ept":0.005,"lat":52.315758747,"lon":10.563786399,"altHAE":133.8952,"altMSL":89.9983,"alt":89.9983,"epx":12.114,"epy":24.818,"epv":40.020,"track":276.7939,"magtrack":280.0140,"magvar":3.2,"speed":2.031,"climb":-0.021,"eps":200.15,"epc":340.36,"ecefx":3841073.29,"ecefy":716324.86,"ecefz":5024463.92,"ecefvx":0.17,"ecefvy":-2.02,"ecefvz":0.13,"ecefpAcc":4.66,"ecefvAcc":0.52,"velN":0.240,"velE":-2.017,"velD":0.021,"geoidSep":43.897,"eph":21.850,"sep":39.710}
{"class":"SKY","device":"/dev/ttyACM0","time":"2024-07-09T10:15:05.499Z","gdop":2.39,"hdop":1.15,"pdop":2.09,"tdop":1.16,"xdop":0.81,"ydop":1.65,"vdop":1.74,"nSat":14,"uSat":9,"satellites":[{"PRN":2,"gnssid":0,"svid":2,"az":282.0,"el":48.0,"ss":48.0,"used":true,"health":1},{"PRN":22,"gnssid":0,"svid":22,"az":332.0,"el":10.0,"ss":39.0,"used":true,"health":1},{"PRN":27,"gnssid":0,"svid":27,"az":154.0,"el":35.0,"ss":34.0,"used":true,"health":1},{"PRN":23,"gnssid":0,"svid":23,"az":51.0,"el":12.0,"ss":40.0,"used":true,"health":1},{"PRN":24,"gnssid":0,"svid":24,"az":30.0,"el":3.0,"ss":34.0,"used":false,"health":1},{"PRN":19,"gnssid":0,"svid":19,"az":0.0,"el":-9.0,"ss":0.0,"used":false,"health":1},{"PRN":14,"gnssid":0,"svid":14,"az":314.0,"el":20.0,"ss":43.0,"used":true,"health":1},{"PRN":8,"gnssid":0,"svid":8,"az":188.0,"el":64.0,"ss":49.0,"used":true,"health":1},{"PRN":10,"gnssid":0,"svid":10,"az":59.0,"el":46.0,"ss":49.0,"used":true,"health":1},{"PRN":3,"gnssid":0,"svid":3,"az":222.0,"el":5.0,"ss":0.0,"used":false,"health":1},{"PRN":32,"gnssid":0,"svid":32,"az":105.0,"el":37.0,"ss":47.0,"used":true,"health":1},{"PRN":21,"gnssid":0,"svid":21,"az":285.0,"el":67.0,"ss":48.0,"used":true,"health":1},{"PRN":16,"gnssid":0,"svid":16,"az":0.0,"el":-9.0,"ss":0.0,"used":false,"health":1},{"PRN":18,"gnssid":0,"svid":18,"az":0.0,"el":-9.0,"ss":0.0,"used":false,"health":1}]}
{"class":"TPV","device":"/dev/ttyACM0","mode":3,"time":"2024-07-09T10:15:05.751Z","ept":0.005,"lat":52.315759585,"lon":10.563778796,"altHAE":133.9243,"altMSL":90.0274,"alt":90.0274,"epx":12.114,"epy":24.818,"epv":40.020,"track":275.5077,"magtrack":278.7277,"magvar":3.2,"speed":2.195,"climb":-0.011,"eps":0.51,"epc":317.62,"ecefx":3841073.33,"ecefy":716324.34,"ecefz":5024464.00,"ecefvx":0.23,"ecefvy":-2.18,"ecefvz":0.12,"ecefpAcc":4.66,"ecefvAcc":0.51,"velN":0.211,"velE":-2.185,"velD":0.011,"geoidSep":43.897,"eph":21.850,"sep":39.710}
{"class":"SKY","device":"/dev/ttyACM0","time":"2024-07-09T10:15:05.499Z","gdop":2.39,"hdop":1.15,"pdop":2.09,"tdop":1.16,"xdop":0.81,"ydop":1.65,"vdop":1.74,"uSat":6}
{"class":"SKY","device":"/dev/ttyACM0","time":"2024-07-09T10:15:05.499Z","gdop":2.39,"hdop":1.15,"pdop":2.09,"tdop":1.16,"xdop":0.81,"ydop":1.65,"vdop":1.74,"uSat":6}
{"class":"TPV","device":"/dev/ttyACM0","mode":3,"time":"2024-07-09T10:15:05.751Z","ept":0.005,"lat":52.315759585,"lon":10.563778796,"altHAE":133.9243,"altMSL":90.0274,"alt":90.0274,"epx":12.114,"epy":24.818,"epv":40.020,"track":275.5077,"magtrack":278.7277,"magvar":3.2,"speed":2.195,"climb":-0.011,"eps":196.97,"epc":317.62,"ecefx":3841073.33,"ecefy":716324.34,"ecefz":5024464.00,"ecefvx":0.23,"ecefvy":-2.18,"ecefvz":0.12,"ecefpAcc":4.66,"ecefvAcc":0.51,"velN":0.211,"velE":-2.185,"velD":0.011,"geoidSep":43.897,"eph":21.850,"sep":39.710}
{"class":"SKY","device":"/dev/ttyACM0","time":"2024-07-09T10:15:05.751Z","gdop":2.39,"hdop":1.15,"pdop":2.09,"tdop":1.16,"xdop":0.81,"ydop":1.65,"vdop":1.74,"nSat":14,"uSat":9,"satellites":[{"PRN":2,"gnssid":0,"svid":2,"az":282.0,"el":48.0,"ss":47.0,"used":true,"health":1},{"PRN":22,"gnssid":0,"svid":22,"az":332.0,"el":10.0,"ss":38.0,"used":true,"health":1},{"PRN":27,"gnssid":0,"svid":27,"az":154.0,"el":35.0,"ss":37.0,"used":true,"health":1},{"PRN":23,"gnssid":0,"svid":23,"az":51.0,"el":12.0,"ss":40.0,"used":true,"health":1},{"PRN":24,"gnssid":0,"svid":24,"az":30.0,"el":3.0,"ss":32.0,"used":false,"health":1},{"PRN":19,"gnssid":0,"svid":19,"az":0.0,"el":-9.0,"ss":0.0,"used":false,"health":1},{"PRN":14,"gnssid":0,"svid":14,"az":314.0,"el":20.0,"ss":43.0,"used":true,"health":1},{"PRN":8,"gnssid":0,"svid":8,"az":188.0,"el":64.0,"ss":49.0,"used":true,"health":1},{"PRN":10,"gnssid":0,"svid":10,"az":59.0,"el":46.0,"ss":48.0,"used":true,"health":1},{"PRN":3,"gnssid":0,"svid":3,"az":222.0,"el":5.0,"ss":0.0,"used":false,"health":1},{"PRN":32,"gnssid":0,"svid":32,"az":105.0,"el":37.0,"ss":48.0,"used":true,"health":1},{"PRN":21,"gnssid":0,"svid":21,"az":285.0,"el":67.0,"ss":48.0,"used":true,"health":1},{"PRN":16,"gnssid":0,"svid":16,"az":0.0,"el":-9.0,"ss":0.0,"used":false,"health":1},{"PRN":18,"gnssid":0,"svid":18,"az":0.0,"el":-9.0,"ss":0.0,"used":false,"health":1}]}
{"class":"TPV","device":"/dev/ttyACM0","mode":3,"time":"2024-07-09T10:15:05.999Z","ept":0.005,"lat":52.315760200,"lon":10.563770616,"altHAE":133.9093,"altMSL":90.0124,"alt":90.0124,"epx":12.114,"epy":24.818,"epv":40.020,"track":275.1962,"magtrack":278.4163,"magvar":3.2,"speed":2.376,"climb":-0.027,"eps":0.51,"epc":322.74,"ecefx":3841073.37,"ecefy":716323.78,"ecefz":5024464.03,"ecefvx":0.25,"ecefvy":-2.36,"ecefvz":0.11,"ecefpAcc":4.66,"ecefvAcc":0.51,"velN":0.215,"velE":-2.366,"velD":0.027,"geoidSep":43.897,"eph":21.850,"sep":39.710}
{"class":"SKY","device":"/dev/ttyACM0","time":"2024-07-09T10:15:05.751Z","gdop":2.39,"hdop":1.15,"pdop":2.09,"tdop":1.16,"xdop":0.81,"ydop":1.65,"vdop":1.74,"uSat":6}
{"class":"SKY","device":"/dev/ttyACM0","time":"2024-07-09T10:15:05.751Z","gdop":2.39,"hdop":1.15,"pdop":2.09,"tdop":1.16,"xdop":0.81,"ydop":1.65,"vdop":1.74,"uSat":6}
{"class":"TPV","device":"/dev/ttyACM0","mode":3,"time":"2024-07-09T10:15:05.999Z","ept":0.005,"lat":52.315760200,"lon":10.563770616,"altHAE":133.9093,"altMSL":90.0124,"alt":90.0124,"epx":12.114,"epy":24.818,"epv":40.020,"track":275.1962,"magtrack":278.4163,"magvar":3.2,"speed":2.376,"climb":-0.027,"eps":200.15,"epc":322.74,"ecefx":3841073.37,"ecefy":716323.78,"ecefz":5024464.03,"ecefvx":0.25,"ecefvy":-2.36,"ecefvz":0.11,"ecefpAcc":4.66,"ecefvAcc":0.51,"velN":0.215,"velE":-2.366,"velD":0.027,"geoidSep":43.897,"eph":21.850,"sep":39.710}
{"class":"SKY","device":"/dev/ttyACM0","time":"2024-07-09T10:15:05.999Z","gdop":2.39,"hdop":1.15,"pdop":2.09,"tdop":1.16,"xdop":0.81,"ydop":1.65,"vdop":1.74,"nSat":14,"uSat":9,"satellites":[{"PRN":2,"gnssid":0,"svid":2,"az":282.0,"el":48.0,"ss":48.0,"used":true,"health":1},{"PRN":22,"gnssid":0,"svid":22,"az":332.0,"el":10.0,"ss":36.0,"used":true,"health":1},{"PRN":27,"gnssid":0,"svid":27,"az":154.0,"el":35.0,"ss":38.0,"used":true,"health":1},{"PRN":23,"gnssid":0,"svid":23,"az":51.0,"el":12.0,"ss":40.0,"used":true,"health":1},{"PRN":24,"gnssid":0,"svid":24,"az":30.0,"el":3.0,"ss":34.0,"used":false,"health":1},{"PRN":19,"gnssid":0,"svid":19,"az":0.0,"el":-9.0,"ss":0.0,"used":false,"health":1},{"PRN":14,"gnssid":0,"svid":14,"az":314.0,"el":20.0,"ss":43.0,"used":true,"health":1},{"PRN":8,"gnssid":0,"svid":8,"az":188.0,"el":64.0,"ss":50.0,"used":true,"health":1},{"PRN":10,"gnssid":0,"svid":10,"az":59.0,"el":46.0,"ss":49.0,"used":true,"health":1},{"PRN":3,"gnssid":0,"svid":3,"az":222.0,"el":5.0,"ss":0.0,"used":false,"health":1},{"PRN":32,"gnssid":0,"svid":32,"az":105.0,"el":37.0,"ss":48.0,"used":true,"health":1},{"PRN":21,"gnssid":0,"svid":21,"az":285.0,"el":67.0,"ss":48.0,"used":true,"health":1},{"PRN":16,"gnssid":0,"svid":16,"az":0.0,"el":-9.0,"ss":0.0,"used":false,"health":1},{"PRN":18,"gnssid":0,"svid":18,"az":0.0,"el":-9.0,"ss":0.0,"used":false,"health":1}]}
{"class":"TPV","device":"/dev/ttyACM0","mode":3,"time":"2024-07-09T10:15:06.251Z","ept":0.005,"lat":52.315760741,"lon":10.563761661,"altHAE":133.9007,"altMSL":90.0038,"alt":90.0038,"epx":12.114,"epy":24.818,"epv":40.020,"track":275.2140,"magtrack":278.4341,"magvar":3.2,"speed":2.567,"climb":-0.029,"eps":0.50,"epc":317.62,"ecefx":3841073.43,"ecefy":716323.17,"ecefz":5024464.06,"ecefvx":0.27,"ecefvy":-2.55,"ecefvz":0.12,"ecefpAcc":4.67,"ecefvAcc":0.50,"velN":0.233,"velE":-2.556,"velD":0.029,"geoidSep":43.897,"eph":21.850,"sep":39.710}
{"class":"SKY","device":"/dev/ttyACM0","time":"2024-07-09T10:15:05.999Z","gdop":2.39,"hdop":1.15,"pdop":2.09,"tdop":1.16,"xdop":0.81,"ydop":1.65,"vdop":1.74,"uSat":6}
{"class":"SKY","device":"/dev/ttyACM0","time":"2024-07-09T10:15:05.999Z","gdop":2.39,"hdop":1.15,"pdop":2.09,"tdop":1.16,"xdop":0.81,"ydop":1.65,"vdop":1.74,"uSat":6}
{"class":"TPV","device":"/dev/ttyACM0","mode":3,"time":"2024-07-09T10:15:06.251Z","ept":0.005,"lat":52.315760741,"lon":10.563761661,"altHAE":133.9007,"altMSL":90.0038,"alt":90.0038,"epx":12.114,"epy":24.818,"epv":40.020,"track":275.2140,"magtrack":278.4341,"magvar":3.2,"speed":2.567,"climb":-0.029,"eps":196.97,"epc":317.62,"ecefx":3841073.43,"ecefy":716323.17,"ecefz":5024464.06,"ecefvx":0.27,"ecefvy":-2.55,"ecefvz":0.12,"ecefpAcc":4.67,"ecefvAcc":0.50,"velN":0.233,"velE":-2.556,"velD":0.029,"geoidSep":43.897,"eph":21.850,"sep":39.710}
{"class":"SKY","device":"/dev/ttyACM0","time":"2024-07-09T10:15:06.251Z","gdop":2.39,"hdop":1.15,"pdop":2.09,"tdop":1.16,"xdop":0.81,"ydop":1.65,"vdop":1.74,"nSat":14,"uSat":9,"satellites":[{"PRN":2,"gnssid":0,"svid":2,"az":282.0,"el":48.0,"ss":48.0,"used":true,"health":1},{"PRN":22,"gnssid":0,"svid":22,"az":332.0,"el":10.0,"ss":36.0,"used":true,"health":1},{"PRN":27,"gnssid":0,"svid":27,"az":154.0,"el":35.0,"ss":40.0,"used":true,"health":1},{"PRN":23,"gnssid":0,"svid":23,"az":51.0,"el":12.0,"ss":39.0,"used":true,"health":1},{"PRN":24,"gnssid":0,"svid":24,"az":30.0,"el":3.0,"ss":32.0,"used":false,"health":1},{"PRN":19,"gnssid":0,"svid":19,"az":0.0,"el":-9.0,"ss":0.0,"used":false,"health":1},{"PRN":14,"gnssid":0,"svid":14,"az":314.0,"el":20.0,"ss":42.0,"used":true,"health":1},{"PRN":8,"gnssid":0,"svid":8,"az":188.0,"el":64.0,"ss":49.0,"used":true,"health":1},{"PRN":10,"gnssid":0,"svid":10,"az":59.0,"el":46.0,"ss":49.0,"used":true,"health":1},{"PRN":3,"gnssid":0,"svid":3,"az":222.0,"el":5.0,"ss":0.0,"used":false,"health":1},{"PRN":32,"gnssid":0,"svid":32,"az":105.0,"el":37.0,"ss":47.0,"used":true,"health":1},{"PRN":21,"gnssid":0,"svid":21,"az":285.0,"el":67.0,"ss":48.0,"used":true,"health":1},{"PRN":16,"gnssid":0,"svid":16,"az":0.0,"el":-9.0,"ss":0.0,"used":false,"health":1},{"PRN":18,"gnssid":0,"svid":18,"az":0.0,"el":-9.0,"ss":0.0,"used":false,"health":1}]}
{"class":"TPV","device":"/dev/ttyACM0","mode":3,"time":"2024-07-09T10:15:06.499Z","ept":0.005,"lat":52.315761222,"lon":10.563751959,"altHAE":133.8847,"altMSL":89.9877,"alt":89.9877,"epx":12.114,"epy":24.818,"epv":40.020,"track":276.1052,"magtrack":279.3252,"magvar":3.2,"speed":2.808,"climb":-0.016,"eps":0.50,"epc":322.74,"ecefx":3841073.50,"ecefy":716322.51,"ecefz":5024464.08,"ecefvx":0.27,"ecefvy":-2.79,"ecefvz":0.17,"ecefpAcc":4.67,"ecefvAcc":0.50,"velN":0.299,"velE":-2.792,"velD":0.016,"geoidSep":43.897,"eph":21.850,"sep":42.940}
{"class":"SKY","device":"/dev/ttyACM0","time":"2024-07-09T10:15:06.251Z","gdop":2.39,"hdop":1.15,"pdop":2.26,"tdop":1.16,"xdop":0.81,"ydop":1.65,"vdop":1.74,"uSat":6}
{"class":"SKY","device":"/dev/ttyACM0","time":"2024-07-09T10:15:06.251Z","gdop":2.62,"hdop":1.18,"pdop":2.26,"tdop":1.32,"xdop":0.81,"ydop":1.65,"vdop":1.93,"uSat":6}
{"class":"TPV","device":"/dev/ttyACM0","mode":3,"time":"2024-07-09T10:15:06.499Z","ept":0.005,"lat":52.315761222,"lon":10.563751959,"altHAE":133.8847,"altMSL":89.9877,"alt":89.9877,"epx":12.114,"epy":24.818,"epv":40.020,"track":276.1052,"magtrack":279.3252,"magvar":3.2,"speed":2.808,"climb":-0.016,"eps":200.15,"epc":322.74,"ecefx":3841073.50,"ecefy":716322.51,"ecefz":5024464.08,"ecefvx":0.27,"ecefvy":-2.79,"ecefvz":0.17,"ecefpAcc":4.67,"ecefvAcc":0.50,"velN":0.299,"velE":-2.792,"velD":0.016,"geoidSep":43.897,"eph":21.850,"sep":42.940}
{"class":"SKY","device":"/dev/ttyACM0","time":"2024-07-09T10:15:06.499Z","gdop":2.62,"hdop":1.18,"pdop":2.26,"tdop":1.32,"xdop":0.81,"ydop":1.65,"vdop":1.93,"nSat":14,"uSat":8,"satellites":[{"PRN":2,"gnssid":0,"svid":2,"az":282.0,"el":48.0,"ss":48.0,"used":true,"health":1},{"PRN":22,"gnssid":0,"svid":22,"az":332.0,"el":10.0,"ss":36.0,"used":false,"health":1},{"PRN":27,"gnssid":0,"svid":27,"az":154.0,"el":35.0,"ss":41.0,"used":true,"health":1},{"PRN":23,"gnssid":0,"svid":23,"az":51.0,"el":12.0,"ss":41.0,"used":true,"health":1},{"PRN":24,"gnssid":0,"svid":24,"az":30.0,"el":3.0,"ss":33.0,"used":false,"health":1},{"PRN":19,"gnssid":0,"svid":19,"az":0.0,"el":-9.0,"ss":0.0,"used":false,"health":1},{"PRN":14,"gnssid":0,"svid":14,"az":314.0,"el":20.0,"ss":42.0,"used":true,"health":1},{"PRN":8,"gnssid":0,"svid":8,"az":188.0,"el":64.0,"ss":49.0,"used":true,"health":1},{"PRN":10,"gnssid":0,"svid":10,"az":59.0,"el":46.0,"ss":49.0,"used":true,"health":1},{"PRN":3,"gnssid":0,"svid":3,"az":222.0,"el":5.0,"ss":0.0,"used":false,"health":1},{"PRN":32,"gnssid":0,"svid":32,"az":105.0,"el":37.0,"ss":47.0,"used":true,"health":1},{"PRN":21,"gnssid":0,"svid":21,"az":285.0,"el":67.0,"ss":48.0,"used":true,"health":1},{"PRN":16,"gnssid":0,"svid":16,"az":0.0,"el":-9.0,"ss":0.0,"used":false,"health":1},{"PRN":18,"gnssid":0,"svid":18,"az":0.0,"el":-9.0,"ss":0.0,"used":false,"health":1}]}
{"class":"TPV","device":"/dev/ttyACM0","mode":3,"time":"2024-07-09T10:15:06.751Z","ept":0.005,"lat":52.315761961,"lon":10.563741418,"altHAE":133.8717,"altMSL":89.9748,"alt":89.9748,"epx":12.114,"epy":24.818,"epv":44.390,"track":276.5801,"magtrack":279.8002,"magvar":3.2,"speed":3.030,"climb":-0.003,"eps":0.49,"epc":334.96,"ecefx":3841073.56,"ecefy":716321.79,"ecefz":5024464.12,"ecefvx":0.28,"ecefvy":-3.01,"ecefvz":0.21,"ecefpAcc":4.67,"ecefvAcc":0.49,"velN":0.347,"velE":-3.010,"velD":0.003,"geoidSep":43.897,"eph":22.420,"sep":39.710}
{"class":"SKY","device":"/dev/ttyACM0","time":"2024-07-09T10:15:06.499Z","gdop":2.62,"hdop":1.18,"pdop":2.09,"tdop":1.32,"xdop":0.81,"ydop":1.65,"vdop":1.93,"uSat":6}
{"class":"SKY","device":"/dev/ttyACM0","time":"2024-07-09T10:15:06.499Z","gdop":2.39,"hdop":1.15,"pdop":2.09,"tdop":1.16,"xdop":0.81,"ydop":1.65,"vdop":1.74,"uSat":6}
{"class":"TPV","device":"/dev/ttyACM0","mode":3,"time":"2024-07-09T10:15:06.751Z","ept":0.005,"lat":52.315761961,"lon":10.563741418,"altHAE":133.8717,"altMSL":89.9748,"alt":89.9748,"epx":12.114,"epy":24.818,"epv":44.390,"track":276.5801,"magtrack":279.8002,"magvar":3.2,"speed":3.030,"climb":-0.003,"eps":196.97,"epc":334.96,"ecefx":3841073.56,"ecefy":716321.79,"ecefz":5024464.12,"ecefvx":0.28,"ecefvy":-3.01,"ecefvz":0.21,"ecefpAcc":4.67,"ecefvAcc":0.49,"velN":0.347,"velE":-3.010,"velD":0.003,"geoidSep":43.897,"eph":22.420,"sep":39.710}
{"class":"SKY","device":"/dev/ttyACM0","time":"2024-07-09T10:15:06.751Z","gdop":2.39,"hdop":1.15,"pdop":2.09,"tdop":1.16,"xdop":0.81,"ydop":1.65,"vdop":1.74,"nSat":14,"uSat":9,"satellites":[{"PRN":2,"gnssid":0,"svid":2,"az":282.0,"el":48.0,"ss":47.0,"used":true,"health":1},{"PRN":22,"gnssid":0,"svid":22,"az":332.0,"el":10.0,"ss":34.0,"used":true,"health":1},{"PRN":27,"gnssid":0,"svid":27,"az":154.0,"el":35.0,"ss":41.0,"used":true,"health":1},{"PRN":23,"gnssid":0,"svid":23,"az":51.0,"el":12.0,"ss":41.0,"used":true,"health":1},{"PRN":24,"gnssid":0,"svid":24,"az":30.0,"el":3.0,"ss":34.0,"used":false,"health":1},{"PRN":19,"gnssid":0,"svid":19,"az":0.0,"el":-9.0,"ss":0.0,"used":false,"health":1},{"PRN":14,"gnssid":0,"svid":14,"az":314.0,"el":20.0,"ss":42.0,"used":true,"health":1},{"PRN":8,"gnssid":0,"svid":8,"az":188.0,"el":64.0,"ss":49.0,"used":true,"health":1},{"PRN":10,"gnssid":0,"svid":10,"az":59.0,"el":46.0,"ss":49.0,"used":true,"health":1},{"PRN":3,"gnssid":0,"svid":3,"az":222.0,"el":5.0,"ss":0.0,"used":false,"health":1},{"PRN":32,"gnssid":0,"svid":32,"az":105.0,"el":37.0,"ss":47.0,"used":true,"health":1},{"PRN":21,"gnssid":0,"svid":21,"az":285.0,"el":67.0,"ss":47.0,"used":true,"health":1},{"PRN":16,"gnssid":0,"svid":16,"az":0.0,"el":-9.0,"ss":0.0,"used":false,"health":1},{"PRN":18,"gnssid":0,"svid":18,"az":0.0,"el":-9.0,"ss":0.0,"used":false,"health":1}]}
{"class":"TPV","device":"/dev/ttyACM0","mode":3,"time":"2024-07-09T10:15:06.999Z","ept":0.005,"lat":52.315762803,"lon":10.563729960,"altHAE":133.8878,"altMSL":89.9908,"alt":89.9908,"epx":12.114,"epy":24.818,"epv":40.020,"track":275.7483,"magtrack":278.9684,"magvar":3.2,"speed":3.244,"climb":0.002,"eps":0.48,"epc":340.36,"ecefx":3841073.64,"ecefy":716321.01,"ecefz":5024464.19,"ecefvx":0.34,"ecefvy":-3.22,"ecefvz":0.20,"ecefpAcc":4.67,"ecefvAcc":0.48,"velN":0.325,"velE":-3.228,"velD":-0.002,"geoidSep":43.897,"eph":21.850,"sep":39.710}
{"class":"SKY","device":"/dev/ttyACM0","time":"2024-07-09T10:15:06.751Z","gdop":2.39,"hdop":1.15,"pdop":2.09,"tdop":1.16,"xdop":0.81,"ydop":1.65,"vdop":1.74,"uSat":6}
{"class":"SKY","device":"/dev/ttyACM0","time":"2024-07-09T10:15:06.751Z","gdop":2.39,"hdop":1.15,"pdop":2.09,"tdop":1.16,"xdop":0.81,"ydop":1.65,"vdop":1.74,"uSat":6}
{"class":"TPV","device":"/dev/ttyACM0","mode":3,"time":"2024-07-09T10:15:06.999Z","ept":0.005,"lat":52.315762803,"lon":10.563729960,"altHAE":133.8878,"altMSL":89.9908,"alt":89.9908,"epx":12.114,"epy":24.818,"epv":40.020,"track":275.7483,"magtrack":278.9684,"magvar":3.2,"speed":3.244,"climb":0.002,"eps":200.15,"epc":340.36,"ecefx":3841073.64,"ecefy":716321.01,"ecefz":5024464.19,"ecefvx":0.34,"ecefvy":-3.22,"ecefvz":0.20,"ecefpAcc":4.67,"ecefvAcc":0.48,"velN":0.325,"velE":-3.228,"velD":-0.002,"geoidSep":43.897,"eph":21.850,"sep":39.710}
{"class":"SKY","device":"/dev/ttyACM0","time":"2024-07-09T10:15:06.999Z","gdop":2.39,"hdop":1.15,"pdop":2.09,"tdop":1.16,"xdop":0.81,"ydop":1.65,"vdop":1.74,"nSat":14,"uSat":9,"satellites":[{"PRN":2,"gnssid":0,"svid":2,"az":282.0,"el":48.0,"ss":47.0,"used":true,"health":1},{"PRN":22,"gnssid":0,"svid":22,"az":332.0,"el":10.0,"ss":34.0,"used":true,"health":1},{"PRN":27,"gnssid":0,"svid":27,"az":154.0,"el":35.0,"ss":43.0,"used":true,"health":1},{"PRN":23,"gnssid":0,"svid":23,"az":51.0,"el":12.0,"ss":42.0,"used":true,"health":1},{"PRN":24,"gnssid":0,"svid":24,"az":30.0,"el":3.0,"ss":32.0,"used":false,"health":1},{"PRN":19,"gnssid":0,"svid":19,"az":0.0,"el":-9.0,"ss":0.0,"used":false,"health":1},{"PRN":14,"gnssid":0,"svid":14,"az":314.0,"el":20.0,"ss":42.0,"used":true,"health":1},{"PRN":8,"gnssid":0,"svid":8,"az":188.0,"el":64.0,"ss":49.0,"used":true,"health":1},{"PRN":10,"gnssid":0,"svid":10,"az":59.0,"el":46.0,"ss":50.0,"used":true,"health":1},{"PRN":3,"gnssid":0,"svid":3,"az":222.0,"el":5.0,"ss":0.0,"used":false,"health":1},{"PRN":32,"gnssid":0,"svid":32,"az":105.0,"el":37.0,"ss":48.0,"used":true,"health":1},{"PRN":21,"gnssid":0,"svid":21,"az":285.0,"el":67.0,"ss":47.0,"used":true,"health":1},{"PRN":16,"gnssid":0,"svid":16,"az":0.0,"el":-9.0,"ss":0.0,"used":false,"health":1},{"PRN":18,"gnssid":0,"svid":18,"az":0.0,"el":-9.0,"ss":0.0,"used":false,"health":1}]}
{"class":"TPV","device":"/dev/ttyACM0","mode":3,"time":"2024-07-09T10:15:07.251Z","ept":0.005,"lat":52.315763574,"lon":10.563717663,"altHAE":133.8594,"altMSL":89.9625,"alt":89.9625,"epx":12.114,"epy":24.818,"epv":40.020,"track":275.8849,"magtrack":279.1049,"magvar":3.2,"speed":3.464,"climb":-0.009,"eps":0.47,"epc":317.62,"ecefx":3841073.71,"ecefy":716320.17,"ecefz":5024464.22,"ecefvx":0.35,"ecefvy":-3.44,"ecefvz":0.21,"ecefpAcc":4.67,"ecefvAcc":0.47,"velN":0.355,"velE":-3.446,"velD":0.009,"geoidSep":43.897,"eph":21.850,"sep":42.940}
