{"class":"VERSION","release":"3.25","rev":"3.25","proto_major":3,"proto_minor":15}
{"class":"DEVICES","devices":[{"class":"DEVICE","path":"/dev/ttyACM0","driver":"u-blox","subtype":"SW 5.00    May 11 2006 14:40:17,HW 00040001","subtype1":"M4T1.2  May 11 2006 14:40:17","activated":"2024-07-09T10:11:35.734Z","flags":1,"native":1,"bps":57600,"parity":"N","stopbits":1,"cycle":1.00,"mincycle":0.02}]}
{"class":"WATCH","enable":true,"json":true,"nmea":false,"raw":0,"scaled":false,"timing":false,"split24":false,"pps":false}
{"class":"TPV","device":"/dev/ttyACM0","mode":3,"time":"2024-07-09T10:09:47.998Z","ept":0.005,"lat":52.315978908,"lon":10.561114920,"altHAE":134.4182,"altMSL":90.5192,"alt":90.5192,"epx":12.114,"epy":24.818,"epv":58.650,"track":13.2564,"magtrack":16.4757,"magvar":3.2,"speed":0.016,"climb":-0.012,"eps":0.41,"epc":472.06,"ecefx":3841087.94,"ecefy":716142.27,"ecefz":5024479.31,"ecefvx":-0.02,"ecefvy":0.00,"ecefvz":0.00,"ecefpAcc":6.99,"ecefvAcc":0.41,"velN":0.016,"velE":0.004,"velD":0.012,"geoidSep":43.899,"eph":33.630,"sep":58.900}
{"class":"SKY","device":"/dev/ttyACM0","time":"2024-07-09T10:09:47.750Z","gdop":3.63,"hdop":1.77,"pdop":3.10,"tdop":1.90,"xdop":0.81,"ydop":1.65,"vdop":2.55,"uSat":6}
{"class":"SKY","device":"/dev/ttyACM0","time":"2024-07-09T10:09:47.750Z","gdop":3.63,"hdop":1.77,"pdop":3.10,"tdop":1.89,"xdop":0.81,"ydop":1.65,"vdop":2.54,"uSat":6}
{"class":"TPV","device":"/dev/ttyACM0","mode":3,"time":"2024-07-09T10:09:47.998Z","ept":0.005,"lat":52.315978908,"lon":10.561114920,"altHAE":134.4182,"altMSL":90.5192,"alt":90.5192,"epx":12.114,"epy":24.818,"epv":58.650,"track":13.2564,"magtrack":16.4757,"magvar":3.2,"speed":0.016,"climb":-0.012,"eps":200.15,"epc":472.06,"ecefx":3841087.94,"ecefy":716142.27,"ecefz":5024479.31,"ecefvx":-0.02,"ecefvy":0.00,"ecefvz":0.00,"ecefpAcc":6.99,"ecefvAcc":0.41,"velN":0.016,"velE":0.004,"velD":0.012,"geoidSep":43.899,"eph":33.630,"sep":58.900}
{"class":"SKY","device":"/dev/ttyACM0","time":"2024-07-09T10:09:47.998Z","gdop":3.63,"hdop":1.77,"pdop":3.10,"tdop":1.89,"xdop":0.81,"ydop":1.65,"vdop":2.54,"nSat":14,"uSat":7,"satellites":[{"PRN":2,"gnssid":0,"svid":2,"az":280.0,"el":46.0,"ss":46.0,"used":true,"health":1},{"PRN":13,"gnssid":0,"svid":13,"az":0.0,"el":-9.0,"ss":0.0,"used":false,"health":1},{"PRN":27,"gnssid":0,"svid":27,"az":154.0,"el":38.0,"ss":30.0,"used":false,"health":1},{"PRN":23,"gnssid":0,"svid":23,"az":51.0,"el":14.0,"ss":31.0,"used":true,"health":1},{"PRN":24,"gnssid":0,"svid":24,"az":32.0,"el":3.0,"ss":0.0,"used":false,"health":1},{"PRN":19,"gnssid":0,"svid":19,"az":0.0,"el":-9.0,"ss":0.0,"used":false,"health":1},{"PRN":14,"gnssid":0,"svid":14,"az":317.0,"el":19.0,"ss":42.0,"used":true,"health":1},{"PRN":8,"gnssid":0,"svid":8,"az":191.0,"el":67.0,"ss":51.0,"used":true,"health":1},{"PRN":10,"gnssid":0,"svid":10,"az":60.0,"el":48.0,"ss":48.0,"used":true,"health":1},{"PRN":3,"gnssid":0,"svid":3,"az":222.0,"el":3.0,"ss":0.0,"used":false,"health":1},{"PRN":32,"gnssid":0,"svid":32,"az":108.0,"el":35.0,"ss":48.0,"used":true,"health":1},{"PRN":21,"gnssid":0,"svid":21,"az":284.0,"el":65.0,"ss":50.0,"used":true,"health":1},{"PRN":18,"gnssid":0,"svid":18,"az":0.0,"el":-9.0,"ss":0.0,"used":false,"health":1},{"PRN":16,"gnssid":0,"svid":16,"az":0.0,"el":-9.0,"ss":0.0,"used":false,"health":1}]}
{"class":"TPV","device":"/dev/ttyACM0","mode":3,"time":"2024-07-09T10:09:48.250Z","ept":0.005,"lat":52.315978523,"lon":10.561114920,"altHAE":134.3628,"altMSL":90.4638,"alt":90.4638,"epx":12.114,"epy":24.818,"epv":58.420,"track":180.0000,"magtrack":183.2193,"magvar":3.2,"speed":0.012,"climb":-0.016,"eps":0.41,"epc":464.56,"ecefx":3841087.94,"ecefy":716142.27,"ecefz":5024479.24,"ecefvx":0.00,"ecefvy":0.00,"ecefvz":-0.02,"ecefpAcc":5.41,"ecefvAcc":0.41,"velN":-0.012,"velE":0.000,"velD":0.016,"geoidSep":43.899,"eph":33.630,"sep":58.900}
{"class":"SKY","device":"/dev/ttyACM0","time":"2024-07-09T10:09:47.998Z","gdop":3.63,"hdop":1.77,"pdop":3.10,"tdop":1.89,"xdop":0.81,"ydop":1.65,"vdop":2.54,"uSat":6}
{"class":"SKY","device":"/dev/ttyACM0","time":"2024-07-09T10:09:47.998Z","gdop":3.63,"hdop":1.77,"pdop":3.10,"tdop":1.89,"xdop":0.81,"ydop":1.65,"vdop":2.54,"uSat":6}
{"class":"TPV","device":"/dev/ttyACM0","mode":3,"time":"2024-07-09T10:09:48.250Z","ept":0.005,"lat":52.315978523,"lon":10.561114920,"altHAE":134.3628,"altMSL":90.4638,"alt":90.4638,"epx":12.114,"epy":24.818,"epv":58.420,"track":180.0000,"magtrack":183.2193,"magvar":3.2,"speed":0.012,"climb":-0.016,"eps":196.97,"epc":464.56,"ecefx":3841087.94,"ecefy":716142.27,"ecefz":5024479.24,"ecefvx":0.00,"ecefvy":0.00,"ecefvz":-0.02,"ecefpAcc":5.41,"ecefvAcc":0.41,"velN":-0.012,"velE":0.000,"velD":0.016,"geoidSep":43.899,"eph":33.630,"sep":58.900}
{"class":"SKY","device":"/dev/ttyACM0","time":"2024-07-09T10:09:48.250Z","gdop":3.63,"hdop":1.77,"pdop":3.10,"tdop":1.89,"xdop":0.81,"ydop":1.65,"vdop":2.54,"nSat":14,"uSat":7,"satellites":[{"PRN":2,"gnssid":0,"svid":2,"az":280.0,"el":46.0,"ss":46.0,"used":true,"health":1},{"PRN":13,"gnssid":0,"svid":13,"az":0.0,"el":-9.0,"ss":0.0,"used":false,"health":1},{"PRN":27,"gnssid":0,"svid":27,"az":154.0,"el":38.0,"ss":30.0,"used":false,"health":1},{"PRN":23,"gnssid":0,"svid":23,"az":51.0,"el":14.0,"ss":31.0,"used":true,"health":1},{"PRN":24,"gnssid":0,"svid":24,"az":32.0,"el":3.0,"ss":0.0,"used":false,"health":1},{"PRN":19,"gnssid":0,"svid":19,"az":0.0,"el":-9.0,"ss":0.0,"used":false,"health":1},{"PRN":14,"gnssid":0,"svid":14,"az":317.0,"el":19.0,"ss":41.0,"used":true,"health":1},{"PRN":8,"gnssid":0,"svid":8,"az":191.0,"el":67.0,"ss":51.0,"used":true,"health":1},{"PRN":10,"gnssid":0,"svid":10,"az":60.0,"el":48.0,"ss":48.0,"used":true,"health":1},{"PRN":3,"gnssid":0,"svid":3,"az":222.0,"el":3.0,"ss":0.0,"used":false,"health":1},{"PRN":32,"gnssid":0,"svid":32,"az":108.0,"el":35.0,"ss":48.0,"used":true,"health":1},{"PRN":21,"gnssid":0,"svid":21,"az":284.0,"el":65.0,"ss":50.0,"used":true,"health":1},{"PRN":18,"gnssid":0,"svid":18,"az":0.0,"el":-9.0,"ss":0.0,"used":false,"health":1},{"PRN":16,"gnssid":0,"svid":16,"az":0.0,"el":-9.0,"ss":0.0,"used":false,"health":1}]}
{"class":"TPV","device":"/dev/ttyACM0","mode":3,"time":"2024-07-09T10:09:48.498Z","ept":0.005,"lat":52.315978069,"lon":10.561114893,"altHAE":134.3134,"altMSL":90.4144,"alt":90.4144,"epx":12.114,"epy":24.818,"epv":58.420,"track":210.2029,"magtrack":213.4222,"magvar":3.2,"speed":0.020,"climb":-0.025,"eps":0.41,"epc":471.13,"ecefx":3841087.95,"ecefy":716142.27,"ecefz":5024479.17,"ecefvx":0.00,"ecefvy":-0.01,"ecefvz":-0.03,"ecefpAcc":5.41,"ecefvAcc":0.41,"velN":-0.017,"velE":-0.010,"velD":0.025,"geoidSep":43.899,"eph":33.630,"sep":58.900}
{"class":"SKY","device":"/dev/ttyACM0","time":"2024-07-09T10:09:48.250Z","gdop":3.63,"hdop":1.77,"pdop":3.10,"tdop":1.89,"xdop":0.81,"ydop":1.65,"vdop":2.54,"uSat":6}
{"class":"SKY","device":"/dev/ttyACM0","time":"2024-07-09T10:09:48.250Z","gdop":3.63,"hdop":1.77,"pdop":3.10,"tdop":1.90,"xdop":0.81,"ydop":1.65,"vdop":2.55,"uSat":6}
{"class":"TPV","device":"/dev/ttyACM0","mode":3,"time":"2024-07-09T10:09:48.498Z","ept":0.005,"lat":52.315978069,"lon":10.561114893,"altHAE":134.3134,"altMSL":90.4144,"alt":90.4144,"epx":12.114,"epy":24.818,"epv":58.420,"track":210.2029,"magtrack":213.4222,"magvar":3.2,"speed":0.020,"climb":-0.025,"eps":200.15,"epc":471.13,"ecefx":3841087.95,"ecefy":716142.27,"ecefz":5024479.17,"ecefvx":0.00,"ecefvy":-0.01,"ecefvz":-0.03,"ecefpAcc":5.41,"ecefvAcc":0.41,"velN":-0.017,"velE":-0.010,"velD":0.025,"geoidSep":43.899,"eph":33.630,"sep":58.900}
{"class":"SKY","device":"/dev/ttyACM0","time":"2024-07-09T10:09:48.498Z","gdop":3.63,"hdop":1.77,"pdop":3.10,"tdop":1.90,"xdop":0.81,"ydop":1.65,"vdop":2.55,"nSat":14,"uSat":7,"satellites":[{"PRN":2,"gnssid":0,"svid":2,"az":280.0,"el":46.0,"ss":46.0,"used":true,"health":1},{"PRN":13,"gnssid":0,"svid":13,"az":0.0,"el":-9.0,"ss":0.0,"used":false,"health":1},{"PRN":27,"gnssid":0,"svid":27,"az":154.0,"el":38.0,"ss":30.0,"used":false,"health":1},{"PRN":23,"gnssid":0,"svid":23,"az":51.0,"el":14.0,"ss":32.0,"used":true,"health":1},{"PRN":24,"gnssid":0,"svid":24,"az":32.0,"el":3.0,"ss":0.0,"used":false,"health":1},{"PRN":19,"gnssid":0,"svid":19,"az":0.0,"el":-9.0,"ss":0.0,"used":false,"health":1},{"PRN":14,"gnssid":0,"svid":14,"az":317.0,"el":19.0,"ss":42.0,"used":true,"health":1},{"PRN":8,"gnssid":0,"svid":8,"az":191.0,"el":67.0,"ss":51.0,"used":true,"health":1},{"PRN":10,"gnssid":0,"svid":10,"az":60.0,"el":48.0,"ss":48.0,"used":true,"health":1},{"PRN":3,"gnssid":0,"svid":3,"az":222.0,"el":3.0,"ss":0.0,"used":false,"health":1},{"PRN":32,"gnssid":0,"svid":32,"az":108.0,"el":35.0,"ss":48.0,"used":true,"health":1},{"PRN":21,"gnssid":0,"svid":21,"az":284.0,"el":65.0,"ss":50.0,"used":true,"health":1},{"PRN":18,"gnssid":0,"svid":18,"az":0.0,"el":-9.0,"ss":0.0,"used":false,"health":1},{"PRN":16,"gnssid":0,"svid":16,"az":0.0,"el":-9.0,"ss":0.0,"used":false,"health":1}]}
{"class":"TPV","device":"/dev/ttyACM0","mode":3,"time":"2024-07-09T10:09:48.750Z","ept":0.005,"lat":52.315977739,"lon":10.561114893,"altHAE":134.2659,"altMSL":90.3669,"alt":90.3669,"epx":12.114,"epy":24.818,"epv":58.650,"track":180.0000,"magtrack":183.2193,"magvar":3.2,"speed":0.031,"climb":-0.040,"eps":0.41,"epc":464.56,"ecefx":3841087.95,"ecefy":716142.27,"ecefz":5024479.11,"ecefvx":0.00,"ecefvy":0.00,"ecefvz":-0.05,"ecefpAcc":5.41,"ecefvAcc":0.41,"velN":-0.031,"velE":0.000,"velD":0.040,"geoidSep":43.899,"eph":33.630,"sep":58.900}
{"class":"SKY","device":"/dev/ttyACM0","time":"2024-07-09T10:09:48.498Z","gdop":3.63,"hdop":1.77,"pdop":3.10,"tdop":1.90,"xdop":0.81,"ydop":1.65,"vdop":2.55,"uSat":6}
{"class":"SKY","device":"/dev/ttyACM0","time":"2024-07-09T10:09:48.498Z","gdop":3.63,"hdop":1.77,"pdop":3.10,"tdop":1.90,"xdop":0.81,"ydop":1.65,"vdop":2.55,"uSat":6}
{"class":"TPV","device":"/dev/ttyACM0","mode":3,"time":"2024-07-09T10:09:48.750Z","ept":0.005,"lat":52.315977739,"lon":10.561114893,"altHAE":134.2659,"altMSL":90.3669,"alt":90.3669,"epx":12.114,"epy":24.818,"epv":58.650,"track":180.0000,"magtrack":183.2193,"magvar":3.2,"speed":0.031,"climb":-0.040,"eps":196.97,"epc":464.56,"ecefx":3841087.95,"ecefy":716142.27,"ecefz":5024479.11,"ecefvx":0.00,"ecefvy":0.00,"ecefvz":-0.05,"ecefpAcc":5.41,"ecefvAcc":0.41,"velN":-0.031,"velE":0.000,"velD":0.040,"geoidSep":43.899,"eph":33.630,"sep":58.900}
{"class":"SKY","device":"/dev/ttyACM0","time":"2024-07-09T10:09:48.750Z","gdop":3.63,"hdop":1.77,"pdop":3.10,"tdop":1.90,"xdop":0.81,"ydop":1.65,"vdop":2.55,"nSat":14,"uSat":7,"satellites":[{"PRN":2,"gnssid":0,"svid":2,"az":280.0,"el":46.0,"ss":46.0,"used":true,"health":1},{"PRN":13,"gnssid":0,"svid":13,"az":0.0,"el":-9.0,"ss":0.0,"used":false,"health":1},{"PRN":27,"gnssid":0,"svid":27,"az":154.0,"el":38.0,"ss":30.0,"used":false,"health":1},{"PRN":23,"gnssid":0,"svid":23,"az":51.0,"el":14.0,"ss":31.0,"used":true,"health":1},{"PRN":24,"gnssid":0,"svid":24,"az":32.0,"el":3.0,"ss":0.0,"used":false,"health":1},{"PRN":19,"gnssid":0,"svid":19,"az":0.0,"el":-9.0,"ss":0.0,"used":false,"health":1},{"PRN":14,"gnssid":0,"svid":14,"az":317.0,"el":19.0,"ss":41.0,"used":true,"health":1},{"PRN":8,"gnssid":0,"svid":8,"az":191.0,"el":67.0,"ss":52.0,"used":true,"health":1},{"PRN":10,"gnssid":0,"svid":10,"az":60.0,"el":48.0,"ss":48.0,"used":true,"health":1},{"PRN":3,"gnssid":0,"svid":3,"az":222.0,"el":3.0,"ss":0.0,"used":false,"health":1},{"PRN":32,"gnssid":0,"svid":32,"az":108.0,"el":35.0,"ss":48.0,"used":true,"health":1},{"PRN":21,"gnssid":0,"svid":21,"az":284.0,"el":65.0,"ss":50.0,"used":true,"health":1},{"PRN":18,"gnssid":0,"svid":18,"az":0.0,"el":-9.0,"ss":0.0,"used":false,"health":1},{"PRN":16,"gnssid":0,"svid":16,"az":0.0,"el":-9.0,"ss":0.0,"used":false,"health":1}]}
{"class":"TPV","device":"/dev/ttyACM0","mode":3,"time":"2024-07-09T10:09:48.998Z","ept":0.005,"lat":52.315977272,"lon":10.561115010,"altHAE":134.2176,"altMSL":90.3187,"alt":90.3187,"epx":12.114,"epy":24.818,"epv":58.650,"track":170.1529,"magtrack":173.3722,"magvar":3.2,"speed":0.011,"climb":-0.030,"eps":0.41,"epc":472.98,"ecefx":3841087.96,"ecefy":716142.28,"ecefz":5024479.04,"ecefvx":-0.01,"ecefvy":0.00,"ecefvz":-0.03,"ecefpAcc":5.42,"ecefvAcc":0.41,"velN":-0.011,"velE":0.002,"velD":0.030,"geoidSep":43.899,"eph":33.630,"sep":61.940}
{"class":"SKY","device":"/dev/ttyACM0","time":"2024-07-09T10:09:48.750Z","gdop":3.63,"hdop":1.77,"pdop":3.26,"tdop":1.90,"xdop":0.81,"ydop":1.65,"vdop":2.55,"uSat":6}
{"class":"SKY","device":"/dev/ttyACM0","time":"2024-07-09T10:09:48.750Z","gdop":3.84,"hdop":1.84,"pdop":3.26,"tdop":2.03,"xdop":0.81,"ydop":1.65,"vdop":2.69,"uSat":6}
{"class":"TPV","device":"/dev/ttyACM0","mode":3,"time":"2024-07-09T10:09:48.998Z","ept":0.005,"lat":52.315977272,"lon":10.561115010,"altHAE":134.2176,"altMSL":90.3187,"alt":90.3187,"epx":12.114,"epy":24.818,"epv":58.650,"track":170.1529,"magtrack":173.3722,"magvar":3.2,"speed":0.011,"climb":-0.030,"eps":200.15,"epc":472.98,"ecefx":3841087.96,"ecefy":716142.28,"ecefz":5024479.04,"ecefvx":-0.01,"ecefvy":0.00,"ecefvz":-0.03,"ecefpAcc":5.42,"ecefvAcc":0.41,"velN":-0.011,"velE":0.002,"velD":0.030,"geoidSep":43.899,"eph":33.630,"sep":61.940}
{"class":"SKY","device":"/dev/ttyACM0","time":"2024-07-09T10:09:48.998Z","gdop":3.84,"hdop":1.84,"pdop":3.26,"tdop":2.03,"xdop":0.81,"ydop":1.65,"vdop":2.69,"nSat":14,"uSat":6,"satellites":[{"PRN":2,"gnssid":0,"svid":2,"az":280.0,"el":46.0,"ss":46.0,"used":true,"health":1},{"PRN":13,"gnssid":0,"svid":13,"az":0.0,"el":-9.0,"ss":0.0,"used":false,"health":1},{"PRN":27,"gnssid":0,"svid":27,"az":154.0,"el":38.0,"ss":30.0,"used":false,"health":1},{"PRN":23,"gnssid":0,"svid":23,"az":51.0,"el":14.0,"ss":30.0,"used":false,"health":1},{"PRN":24,"gnssid":0,"svid":24,"az":32.0,"el":3.0,"ss":0.0,"used":false,"health":1},{"PRN":19,"gnssid":0,"svid":19,"az":0.0,"el":-9.0,"ss":0.0,"used":false,"health":1},{"PRN":14,"gnssid":0,"svid":14,"az":317.0,"el":19.0,"ss":42.0,"used":true,"health":1},{"PRN":8,"gnssid":0,"svid":8,"az":191.0,"el":67.0,"ss":52.0,"used":true,"health":1},{"PRN":10,"gnssid":0,"svid":10,"az":60.0,"el":48.0,"ss":48.0,"used":true,"health":1},{"PRN":3,"gnssid":0,"svid":3,"az":222.0,"el":3.0,"ss":0.0,"used":false,"health":1},{"PRN":32,"gnssid":0,"svid":32,"az":108.0,"el":35.0,"ss":48.0,"used":true,"health":1},{"PRN":21,"gnssid":0,"svid":21,"az":284.0,"el":65.0,"ss":50.0,"used":true,"health":1},{"PRN":18,"gnssid":0,"svid":18,"az":0.0,"el":-9.0,"ss":0.0,"used":false,"health":1},{"PRN":16,"gnssid":0,"svid":16,"az":0.0,"el":-9.0,"ss":0.0,"used":false,"health":1}]}
{"class":"TPV","device":"/dev/ttyACM0","mode":3,"time":"2024-07-09T10:09:49.250Z","ept":0.005,"lat":52.315976887,"lon":10.561115010,"altHAE":134.1622,"altMSL":90.2633,"alt":90.2633,"epx":12.114,"epy":24.818,"epv":61.870,"track":180.0000,"magtrack":183.2193,"magvar":3.2,"speed":0.018,"climb":-0.024,"eps":0.41,"epc":478.25,"ecefx":3841087.96,"ecefy":716142.28,"ecefz":5024478.97,"ecefvx":0.00,"ecefvy":0.00,"ecefvz":-0.03,"ecefpAcc":5.42,"ecefvAcc":0.41,"velN":-0.018,"velE":0.000,"velD":0.024,"geoidSep":43.899,"eph":34.960,"sep":61.940}
{"class":"SKY","device":"/dev/ttyACM0","time":"2024-07-09T10:09:48.998Z","gdop":3.84,"hdop":1.84,"pdop":3.26,"tdop":2.03,"xdop":0.81,"ydop":1.65,"vdop":2.69,"uSat":6}
{"class":"SKY","device":"/dev/ttyACM0","time":"2024-07-09T10:09:48.998Z","gdop":3.84,"hdop":1.84,"pdop":3.26,"tdop":2.03,"xdop":0.81,"ydop":1.65,"vdop":2.70,"uSat":6}
{"class":"TPV","device":"/dev/ttyACM0","mode":3,"time":"2024-07-09T10:09:49.250Z","ept":0.005,"lat":52.315976887,"lon":10.561115010,"altHAE":134.1622,"altMSL":90.2633,"alt":90.2633,"epx":12.114,"epy":24.818,"epv":61.870,"track":180.0000,"magtrack":183.2193,"magvar":3.2,"speed":0.018,"climb":-0.024,"eps":196.97,"epc":478.25,"ecefx":3841087.96,"ecefy":716142.28,"ecefz":5024478.97,"ecefvx":0.00,"ecefvy":0.00,"ecefvz":-0.03,"ecefpAcc":5.42,"ecefvAcc":0.41,"velN":-0.018,"velE":0.000,"velD":0.024,"geoidSep":43.899,"eph":34.960,"sep":61.940}
{"class":"SKY","device":"/dev/ttyACM0","time":"2024-07-09T10:09:49.250Z","gdop":3.84,"hdop":1.84,"pdop":3.26,"tdop":2.03,"xdop":0.81,"ydop":1.65,"vdop":2.70,"nSat":14,"uSat":6,"satellites":[{"PRN":2,"gnssid":0,"svid":2,"az":280.0,"el":46.0,"ss":46.0,"used":true,"health":1},{"PRN":13,"gnssid":0,"svid":13,"az":0.0,"el":-9.0,"ss":0.0,"used":false,"health":1},{"PRN":27,"gnssid":0,"svid":27,"az":154.0,"el":38.0,"ss":30.0,"used":false,"health":1},{"PRN":23,"gnssid":0,"svid":23,"az":51.0,"el":14.0,"ss":30.0,"used":false,"health":1},{"PRN":24,"gnssid":0,"svid":24,"az":32.0,"el":3.0,"ss":0.0,"used":false,"health":1},{"PRN":19,"gnssid":0,"svid":19,"az":0.0,"el":-9.0,"ss":0.0,"used":false,"health":1},{"PRN":14,"gnssid":0,"svid":14,"az":317.0,"el":19.0,"ss":41.0,"used":true,"health":1},{"PRN":8,"gnssid":0,"svid":8,"az":191.0,"el":67.0,"ss":51.0,"used":true,"health":1},{"PRN":10,"gnssid":0,"svid":10,"az":60.0,"el":48.0,"ss":48.0,"used":true,"health":1},{"PRN":3,"gnssid":0,"svid":3,"az":222.0,"el":3.0,"ss":0.0,"used":false,"health":1},{"PRN":32,"gnssid":0,"svid":32,"az":108.0,"el":35.0,"ss":48.0,"used":true,"health":1},{"PRN":21,"gnssid":0,"svid":21,"az":284.0,"el":65.0,"ss":50.0,"used":true,"health":1},{"PRN":18,"gnssid":0,"svid":18,"az":0.0,"el":-9.0,"ss":0.0,"used":false,"health":1},{"PRN":16,"gnssid":0,"svid":16,"az":0.0,"el":-9.0,"ss":0.0,"used":false,"health":1}]}
{"class":"TPV","device":"/dev/ttyACM0","mode":3,"time":"2024-07-09T10:09:49.498Z","ept":0.005,"lat":52.315976503,"lon":10.561115010,"altHAE":134.1068,"altMSL":90.2079,"alt":90.2079,"epx":12.114,"epy":24.818,"epv":62.100,"track":249.4654,"magtrack":252.6847,"magvar":3.2,"speed":0.009,"climb":-0.023,"eps":0.41,"epc":499.88,"ecefx":3841087.96,"ecefy":716142.28,"ecefz":5024478.90,"ecefvx":-0.01,"ecefvy":-0.01,"ecefvz":-0.02,"ecefpAcc":5.42,"ecefvAcc":0.41,"velN":-0.003,"velE":-0.008,"velD":0.023,"geoidSep":43.899,"eph":34.960,"sep":61.940}
{"class":"SKY","device":"/dev/ttyACM0","time":"2024-07-09T10:09:49.250Z","gdop":3.84,"hdop":1.84,"pdop":3.26,"tdop":2.03,"xdop":0.81,"ydop":1.65,"vdop":2.70,"uSat":6}
{"class":"SKY","device":"/dev/ttyACM0","time":"2024-07-09T10:09:49.250Z","gdop":3.84,"hdop":1.84,"pdop":3.26,"tdop":2.03,"xdop":0.81,"ydop":1.65,"vdop":2.70,"uSat":6}
{"class":"TPV","device":"/dev/ttyACM0","mode":3,"time":"2024-07-09T10:09:49.498Z","ept":0.005,"lat":52.315976503,"lon":10.561115010,"altHAE":134.1068,"altMSL":90.2079,"alt":90.2079,"epx":12.114,"epy":24.818,"epv":62.100,"track":249.4654,"magtrack":252.6847,"magvar":3.2,"speed":0.009,"climb":-0.023,"eps":200.15,"epc":499.88,"ecefx":3841087.96,"ecefy":716142.28,"ecefz":5024478.90,"ecefvx":-0.01,"ecefvy":-0.01,"ecefvz":-0.02,"ecefpAcc":5.42,"ecefvAcc":0.41,"velN":-0.003,"velE":-0.008,"velD":0.023,"geoidSep":43.899,"eph":34.960,"sep":61.940}
{"class":"SKY","device":"/dev/ttyACM0","time":"2024-07-09T10:09:49.498Z","gdop":3.84,"hdop":1.84,"pdop":3.26,"tdop":2.03,"xdop":0.81,"ydop":1.65,"vdop":2.70,"nSat":14,"uSat":6,"satellites":[{"PRN":2,"gnssid":0,"svid":2,"az":280.0,"el":46.0,"ss":46.0,"used":true,"health":1},{"PRN":13,"gnssid":0,"svid":13,"az":0.0,"el":-9.0,"ss":0.0,"used":false,"health":1},{"PRN":27,"gnssid":0,"svid":27,"az":154.0,"el":38.0,"ss":30.0,"used":false,"health":1},{"PRN":23,"gnssid":0,"svid":23,"az":51.0,"el":14.0,"ss":30.0,"used":false,"health":1},{"PRN":24,"gnssid":0,"svid":24,"az":32.0,"el":3.0,"ss":0.0,"used":false,"health":1},{"PRN":19,"gnssid":0,"svid":19,"az":0.0,"el":-9.0,"ss":0.0,"used":false,"health":1},{"PRN":14,"gnssid":0,"svid":14,"az":317.0,"el":19.0,"ss":41.0,"used":true,"health":1},{"PRN":8,"gnssid":0,"svid":8,"az":191.0,"el":67.0,"ss":52.0,"used":true,"health":1},{"PRN":10,"gnssid":0,"svid":10,"az":60.0,"el":48.0,"ss":48.0,"used":true,"health":1},{"PRN":3,"gnssid":0,"svid":3,"az":222.0,"el":3.0,"ss":0.0,"used":false,"health":1},{"PRN":32,"gnssid":0,"svid":32,"az":108.0,"el":35.0,"ss":48.0,"used":true,"health":1},{"PRN":21,"gnssid":0,"svid":21,"az":284.0,"el":65.0,"ss":50.0,"used":true,"health":1},{"PRN":18,"gnssid":0,"svid":18,"az":0.0,"el":-9.0,"ss":0.0,"used":false,"health":1},{"PRN":16,"gnssid":0,"svid":16,"az":0.0,"el":-9.0,"ss":0.0,"used":false,"health":1}]}
{"class":"TPV","device":"/dev/ttyACM0","mode":3,"time":"2024-07-09T10:09:49.750Z","ept":0.005,"lat":52.315976118,"lon":10.561115010,"altHAE":134.0514,"altMSL":90.1525,"alt":90.1525,"epx":12.114,"epy":24.818,"epv":62.100,"track":170.1529,"magtrack":173.3722,"magvar":3.2,"speed":0.011,"climb":-0.030,"eps":0.41,"epc":492.86,"ecefx":3841087.96,"ecefy":716142.28,"ecefz":5024478.83,"ecefvx":-0.01,"ecefvy":0.00,"ecefvz":-0.03,"ecefpAcc":5.42,"ecefvAcc":0.41,"velN":-0.011,"velE":0.002,"velD":0.030,"geoidSep":43.899,"eph":34.960,"sep":61.940}
{"class":"SKY","device":"/dev/ttyACM0","time":"2024-07-09T10:09:49.498Z","gdop":3.84,"hdop":1.84,"pdop":3.26,"tdop":2.03,"xdop":0.81,"ydop":1.65,"vdop":2.70,"uSat":6}
{"class":"SKY","device":"/dev/ttyACM0","time":"2024-07-09T10:09:49.498Z","gdop":3.84,"hdop":1.84,"pdop":3.26,"tdop":2.03,"xdop":0.81,"ydop":1.65,"vdop":2.70,"uSat":6}
{"class":"TPV","device":"/dev/ttyACM0","mode":3,"time":"2024-07-09T10:09:49.750Z","ept":0.005,"lat":52.315976118,"lon":10.561115010,"altHAE":134.0514,"altMSL":90.1525,"alt":90.1525,"epx":12.114,"epy":24.818,"epv":62.100,"track":170.1529,"magtrack":173.3722,"magvar":3.2,"speed":0.011,"climb":-0.030,"eps":196.97,"epc":492.86,"ecefx":3841087.96,"ecefy":716142.28,"ecefz":5024478.83,"ecefvx":-0.01,"ecefvy":0.00,"ecefvz":-0.03,"ecefpAcc":5.42,"ecefvAcc":0.41,"velN":-0.011,"velE":0.002,"velD":0.030,"geoidSep":43.899,"eph":34.960,"sep":61.940}
{"class":"SKY","device":"/dev/ttyACM0","time":"2024-07-09T10:09:49.750Z","gdop":3.84,"hdop":1.84,"pdop":3.26,"tdop":2.03,"xdop":0.81,"ydop":1.65,"vdop":2.70,"nSat":14,"uSat":6,"satellites":[{"PRN":2,"gnssid":0,"svid":2,"az":280.0,"el":46.0,"ss":46.0,"used":true,"health":1},{"PRN":13,"gnssid":0,"svid":13,"az":0.0,"el":-9.0,"ss":0.0,"used":false,"health":1},{"PRN":27,"gnssid":0,"svid":27,"az":154.0,"el":38.0,"ss":30.0,"used":false,"health":1},{"PRN":23,"gnssid":0,"svid":23,"az":51.0,"el":14.0,"ss":30.0,"used":false,"health":1},{"PRN":24,"gnssid":0,"svid":24,"az":32.0,"el":3.0,"ss":0.0,"used":false,"health":1},{"PRN":19,"gnssid":0,"svid":19,"az":0.0,"el":-9.0,"ss":0.0,"used":false,"health":1},{"PRN":14,"gnssid":0,"svid":14,"az":317.0,"el":19.0,"ss":41.0,"used":true,"health":1},{"PRN":8,"gnssid":0,"svid":8,"az":191.0,"el":67.0,"ss":52.0,"used":true,"health":1},{"PRN":10,"gnssid":0,"svid":10,"az":60.0,"el":48.0,"ss":48.0,"used":true,"health":1},{"PRN":3,"gnssid":0,"svid":3,"az":222.0,"el":3.0,"ss":0.0,"used":false,"health":1},{"PRN":32,"gnssid":0,"svid":32,"az":108.0,"el":35.0,"ss":48.0,"used":true,"health":1},{"PRN":21,"gnssid":0,"svid":21,"az":284.0,"el":65.0,"ss":50.0,"used":true,"health":1},{"PRN":18,"gnssid":0,"svid":18,"az":0.0,"el":-9.0,"ss":0.0,"used":false,"health":1},{"PRN":16,"gnssid":0,"svid":16,"az":0.0,"el":-9.0,"ss":0.0,"used":false,"health":1}]}
{"class":"TPV","device":"/dev/ttyACM0","mode":3,"time":"2024-07-09T10:09:49.998Z","ept":0.005,"lat":52.315975830,"lon":10.561115154,"altHAE":134.0130,"altMSL":90.1140,"alt":90.1140,"epx":12.114,"epy":24.818,"epv":62.100,"track":47.7162,"magtrack":50.9354,"magvar":3.2,"speed":0.002,"climb":-0.014,"eps":0.41,"epc":500.81,"ecefx":3841087.96,"ecefy":716142.29,"ecefz":5024478.78,"ecefvx":-0.01,"ecefvy":0.00,"ecefvz":-0.01,"ecefpAcc":5.42,"ecefvAcc":0.41,"velN":0.002,"velE":0.002,"velD":0.014,"geoidSep":43.899,"eph":34.960,"sep":61.940}
{"class":"SKY","device":"/dev/ttyACM0","time":"2024-07-09T10:09:49.750Z","gdop":3.84,"hdop":1.84,"pdop":3.26,"tdop":2.03,"xdop":0.81,"ydop":1.65,"vdop":2.70,"uSat":6}
{"class":"SKY","device":"/dev/ttyACM0","time":"2024-07-09T10:09:49.750Z","gdop":3.84,"hdop":1.84,"pdop":3.26,"tdop":2.03,"xdop":0.81,"ydop":1.65,"vdop":2.70,"uSat":6}
{"class":"TPV","device":"/dev/ttyACM0","mode":3,"time":"2024-07-09T10:09:49.998Z","ept":0.005,"lat":52.315975830,"lon":10.561115154,"altHAE":134.0130,"altMSL":90.1140,"alt":90.1140,"epx":12.114,"epy":24.818,"epv":62.100,"track":47.7162,"magtrack":50.9354,"magvar":3.2,"speed":0.002,"climb":-0.014,"eps":200.15,"epc":500.81,"ecefx":3841087.96,"ecefy":716142.29,"ecefz":5024478.78,"ecefvx":-0.01,"ecefvy":0.00,"ecefvz":-0.01,"ecefpAcc":5.42,"ecefvAcc":0.41,"velN":0.002,"velE":0.002,"velD":0.014,"geoidSep":43.899,"eph":34.960,"sep":61.940}
{"class":"SKY","device":"/dev/ttyACM0","time":"2024-07-09T10:09:49.998Z","gdop":3.84,"hdop":1.84,"pdop":3.26,"tdop":2.03,"xdop":0.81,"ydop":1.65,"vdop":2.70,"nSat":14,"uSat":6,"satellites":[{"PRN":2,"gnssid":0,"svid":2,"az":280.0,"el":46.0,"ss":46.0,"used":true,"health":1},{"PRN":13,"gnssid":0,"svid":13,"az":0.0,"el":-9.0,"ss":0.0,"used":false,"health":1},{"PRN":27,"gnssid":0,"svid":27,"az":154.0,"el":38.0,"ss":30.0,"used":false,"health":1},{"PRN":23,"gnssid":0,"svid":23,"az":51.0,"el":14.0,"ss":30.0,"used":false,"health":1},{"PRN":24,"gnssid":0,"svid":24,"az":32.0,"el":3.0,"ss":0.0,"used":false,"health":1},{"PRN":19,"gnssid":0,"svid":19,"az":0.0,"el":-9.0,"ss":0.0,"used":false,"health":1},{"PRN":14,"gnssid":0,"svid":14,"az":317.0,"el":19.0,"ss":41.0,"used":true,"health":1},{"PRN":8,"gnssid":0,"svid":8,"az":191.0,"el":67.0,"ss":52.0,"used":true,"health":1},{"PRN":10,"gnssid":0,"svid":10,"az":60.0,"el":48.0,"ss":48.0,"used":true,"health":1},{"PRN":3,"gnssid":0,"svid":3,"az":222.0,"el":3.0,"ss":0.0,"used":false,"health":1},{"PRN":32,"gnssid":0,"svid":32,"az":108.0,"el":35.0,"ss":48.0,"used":true,"health":1},{"PRN":21,"gnssid":0,"svid":21,"az":284.0,"el":65.0,"ss":50.0,"used":true,"health":1},{"PRN":18,"gnssid":0,"svid":18,"az":0.0,"el":-9.0,"ss":0.0,"used":false,"health":1},{"PRN":16,"gnssid":0,"svid":16,"az":0.0,"el":-9.0,"ss":0.0,"used":false,"health":1}]}
{"class":"TPV","device":"/dev/ttyACM0","mode":3,"time":"2024-07-09T10:09:50.250Z","ept":0.005,"lat":52.315975446,"lon":10.561115154,"altHAE":133.9576,"altMSL":90.0586,"alt":90.0586,"epx":12.114,"epy":24.818,"epv":62.100,"track":221.2839,"magtrack":224.5032,"magvar":3.2,"speed":0.012,"climb":-0.031,"eps":0.41,"epc":492.86,"ecefx":3841087.96,"ecefy":716142.29,"ecefz":5024478.71,"ecefvx":-0.01,"ecefvy":-0.01,"ecefvz":-0.03,"ecefpAcc":5.42,"ecefvAcc":0.41,"velN":-0.009,"velE":-0.008,"velD":0.031,"geoidSep":43.899,"eph":34.960,"sep":61.940}
{"class":"SKY","device":"/dev/ttyACM0","time":"2024-07-09T10:09:49.998Z","gdop":3.84,"hdop":1.84,"pdop":3.26,"tdop":2.03,"xdop":0.81,"ydop":1.65,"vdop":2.70,"uSat":6}
{"class":"SKY","device":"/dev/ttyACM0","time":"2024-07-09T10:09:49.998Z","gdop":3.84,"hdop":1.84,"pdop":3.26,"tdop":2.03,"xdop":0.81,"ydop":1.65,"vdop":2.70,"uSat":6}
{"class":"TPV","device":"/dev/ttyACM0","mode":3,"time":"2024-07-09T10:09:50.250Z","ept":0.005,"lat":52.315975446,"lon":10.561115154,"altHAE":133.9576,"altMSL":90.0586,"alt":90.0586,"epx":12.114,"epy":24.818,"epv":62.100,"track":221.2839,"magtrack":224.5032,"magvar":3.2,"speed":0.012,"climb":-0.031,"eps":196.97,"epc":492.86,"ecefx":3841087.96,"ecefy":716142.29,"ecefz":5024478.71,"ecefvx":-0.01,"ecefvy":-0.01,"ecefvz":-0.03,"ecefpAcc":5.42,"ecefvAcc":0.41,"velN":-0.009,"velE":-0.008,"velD":0.031,"geoidSep":43.899,"eph":34.960,"sep":61.940}
{"class":"SKY","device":"/dev/ttyACM0","time":"2024-07-09T10:09:50.250Z","gdop":3.84,"hdop":1.84,"pdop":3.26,"tdop":2.03,"xdop":0.81,"ydop":1.65,"vdop":2.70,"nSat":14,"uSat":6,"satellites":[{"PRN":2,"gnssid":0,"svid":2,"az":280.0,"el":46.0,"ss":46.0,"used":true,"health":1},{"PRN":13,"gnssid":0,"svid":13,"az":0.0,"el":-9.0,"ss":0.0,"used":false,"health":1},{"PRN":27,"gnssid":0,"svid":27,"az":154.0,"el":38.0,"ss":31.0,"used":false,"health":1},{"PRN":23,"gnssid":0,"svid":23,"az":51.0,"el":14.0,"ss":31.0,"used":false,"health":1},{"PRN":24,"gnssid":0,"svid":24,"az":32.0,"el":3.0,"ss":0.0,"used":false,"health":1},{"PRN":19,"gnssid":0,"svid":19,"az":0.0,"el":-9.0,"ss":0.0,"used":false,"health":1},{"PRN":14,"gnssid":0,"svid":14,"az":317.0,"el":19.0,"ss":41.0,"used":true,"health":1},{"PRN":8,"gnssid":0,"svid":8,"az":191.0,"el":67.0,"ss":52.0,"used":true,"health":1},{"PRN":10,"gnssid":0,"svid":10,"az":60.0,"el":48.0,"ss":48.0,"used":true,"health":1},{"PRN":3,"gnssid":0,"svid":3,"az":222.0,"el":3.0,"ss":0.0,"used":false,"health":1},{"PRN":32,"gnssid":0,"svid":32,"az":108.0,"el":35.0,"ss":48.0,"used":true,"health":1},{"PRN":21,"gnssid":0,"svid":21,"az":284.0,"el":65.0,"ss":50.0,"used":true,"health":1},{"PRN":18,"gnssid":0,"svid":18,"az":0.0,"el":-9.0,"ss":0.0,"used":false,"health":1},{"PRN":16,"gnssid":0,"svid":16,"az":0.0,"el":-9.0,"ss":0.0,"used":false,"health":1}]}
{"class":"TPV","device":"/dev/ttyACM0","mode":3,"time":"2024-07-09T10:09:50.498Z","ept":0.005,"lat":52.315975116,"lon":10.561115154,"altHAE":133.9101,"altMSL":90.0111,"alt":90.0111,"epx":12.114,"epy":24.818,"epv":62.100,"track":249.4654,"magtrack":252.6846,"magvar":3.2,"speed":0.009,"climb":-0.023,"eps":0.41,"epc":500.81,"ecefx":3841087.96,"ecefy":716142.29,"ecefz":5024478.65,"ecefvx":-0.01,"ecefvy":-0.01,"ecefvz":-0.02,"ecefpAcc":5.42,"ecefvAcc":0.41,"velN":-0.003,"velE":-0.008,"velD":0.023,"geoidSep":43.899,"eph":34.960,"sep":61.940}
{"class":"SKY","device":"/dev/ttyACM0","time":"2024-07-09T10:09:50.250Z","gdop":3.84,"hdop":1.84,"pdop":3.26,"tdop":2.03,"xdop":0.81,"ydop":1.65,"vdop":2.70,"uSat":6}
{"class":"SKY","device":"/dev/ttyACM0","time":"2024-07-09T10:09:50.250Z","gdop":3.84,"hdop":1.84,"pdop":3.26,"tdop":2.03,"xdop":0.81,"ydop":1.65,"vdop":2.70,"uSat":6}
{"class":"TPV","device":"/dev/ttyACM0","mode":3,"time":"2024-07-09T10:09:50.498Z","ept":0.005,"lat":52.315975116,"lon":10.561115154,"altHAE":133.9101,"altMSL":90.0111,"alt":90.0111,"epx":12.114,"epy":24.818,"epv":62.100,"track":249.4654,"magtrack":252.6846,"magvar":3.2,"speed":0.009,"climb":-0.023,"eps":200.15,"epc":500.81,"ecefx":3841087.96,"ecefy":716142.29,"ecefz":5024478.65,"ecefvx":-0.01,"ecefvy":-0.01,"ecefvz":-0.02,"ecefpAcc":5.42,"ecefvAcc":0.41,"velN":-0.003,"velE":-0.008,"velD":0.023,"geoidSep":43.899,"eph":34.960,"sep":61.940}
{"class":"SKY","device":"/dev/ttyACM0","time":"2024-07-09T10:09:50.498Z","gdop":3.84,"hdop":1.84,"pdop":3.26,"tdop":2.03,"xdop":0.81,"ydop":1.65,"vdop":2.70,"nSat":14,"uSat":6,"satellites":[{"PRN":2,"gnssid":0,"svid":2,"az":280.0,"el":46.0,"ss":46.0,"used":true,"health":1},{"PRN":13,"gnssid":0,"svid":13,"az":0.0,"el":-9.0,"ss":0.0,"used":false,"health":1},{"PRN":27,"gnssid":0,"svid":27,"az":154.0,"el":38.0,"ss":31.0,"used":false,"health":1},{"PRN":23,"gnssid":0,"svid":23,"az":51.0,"el":14.0,"ss":31.0,"used":false,"health":1},{"PRN":24,"gnssid":0,"svid":24,"az":32.0,"el":3.0,"ss":0.0,"used":false,"health":1},{"PRN":19,"gnssid":0,"svid":19,"az":0.0,"el":-9.0,"ss":0.0,"used":false,"health":1},{"PRN":14,"gnssid":0,"svid":14,"az":317.0,"el":19.0,"ss":41.0,"used":true,"health":1},{"PRN":8,"gnssid":0,"svid":8,"az":191.0,"el":67.0,"ss":52.0,"used":true,"health":1},{"PRN":10,"gnssid":0,"svid":10,"az":60.0,"el":48.0,"ss":48.0,"used":true,"health":1},{"PRN":3,"gnssid":0,"svid":3,"az":222.0,"el":3.0,"ss":0.0,"used":false,"health":1},{"PRN":32,"gnssid":0,"svid":32,"az":108.0,"el":35.0,"ss":48.0,"used":true,"health":1},{"PRN":21,"gnssid":0,"svid":21,"az":284.0,"el":65.0,"ss":50.0,"used":true,"health":1},{"PRN":18,"gnssid":0,"svid":18,"az":0.0,"el":-9.0,"ss":0.0,"used":false,"health":1},{"PRN":16,"gnssid":0,"svid":16,"az":0.0,"el":-9.0,"ss":0.0,"used":false,"health":1}]}
{"class":"TPV","device":"/dev/ttyACM0","mode":3,"time":"2024-07-09T10:09:50.750Z","ept":0.005,"lat":52.315974774,"lon":10.561115299,"altHAE":133.8637,"altMSL":89.9648,"alt":89.9648,"epx":12.114,"epy":24.818,"epv":62.100,"track":180.0000,"magtrack":183.2193,"magvar":3.2,"speed":0.024,"climb":-0.032,"eps":0.41,"epc":492.86,"ecefx":3841087.96,"ecefy":716142.30,"ecefz":5024478.59,"ecefvx":0.00,"ecefvy":0.00,"ecefvz":-0.04,"ecefpAcc":5.42,"ecefvAcc":0.41,"velN":-0.024,"velE":0.000,"velD":0.032,"geoidSep":43.899,"eph":34.960,"sep":61.940}
{"class":"SKY","device":"/dev/ttyACM0","time":"2024-07-09T10:09:50.498Z","gdop":3.84,"hdop":1.84,"pdop":3.26,"tdop":2.03,"xdop":0.81,"ydop":1.65,"vdop":2.70,"uSat":6}
{"class":"SKY","device":"/dev/ttyACM0","time":"2024-07-09T10:09:50.498Z","gdop":3.84,"hdop":1.84,"pdop":3.26,"tdop":2.03,"xdop":0.81,"ydop":1.65,"vdop":2.70,"uSat":6}
{"class":"TPV","device":"/dev/ttyACM0","mode":3,"time":"2024-07-09T10:09:50.750Z","ept":0.005,"lat":52.315974774,"lon":10.561115299,"altHAE":133.8637,"altMSL":89.9648,"alt":89.9648,"epx":12.114,"epy":24.818,"epv":62.100,"track":180.0000,"magtrack":183.2193,"magvar":3.2,"speed":0.024,"climb":-0.032,"eps":196.97,"epc":492.86,"ecefx":3841087.96,"ecefy":716142.30,"ecefz":5024478.59,"ecefvx":0.00,"ecefvy":0.00,"ecefvz":-0.04,"ecefpAcc":5.42,"ecefvAcc":0.41,"velN":-0.024,"velE":0.000,"velD":0.032,"geoidSep":43.899,"eph":34.960,"sep":61.940}
{"class":"SKY","device":"/dev/ttyACM0","time":"2024-07-09T10:09:50.750Z","gdop":3.84,"hdop":1.84,"pdop":3.26,"tdop":2.03,"xdop":0.81,"ydop":1.65,"vdop":2.70,"nSat":14,"uSat":6,"satellites":[{"PRN":2,"gnssid":0,"svid":2,"az":280.0,"el":46.0,"ss":46.0,"used":true,"health":1},{"PRN":13,"gnssid":0,"svid":13,"az":0.0,"el":-9.0,"ss":0.0,"used":false,"health":1},{"PRN":27,"gnssid":0,"svid":27,"az":154.0,"el":38.0,"ss":31.0,"used":false,"health":1},{"PRN":23,"gnssid":0,"svid":23,"az":51.0,"el":14.0,"ss":31.0,"used":false,"health":1},{"PRN":24,"gnssid":0,"svid":24,"az":32.0,"el":3.0,"ss":0.0,"used":false,"health":1},{"PRN":19,"gnssid":0,"svid":19,"az":0.0,"el":-9.0,"ss":0.0,"used":false,"health":1},{"PRN":14,"gnssid":0,"svid":14,"az":317.0,"el":19.0,"ss":41.0,"used":true,"health":1},{"PRN":8,"gnssid":0,"svid":8,"az":191.0,"el":67.0,"ss":52.0,"used":true,"health":1},{"PRN":10,"gnssid":0,"svid":10,"az":60.0,"el":48.0,"ss":48.0,"used":true,"health":1},{"PRN":3,"gnssid":0,"svid":3,"az":222.0,"el":3.0,"ss":0.0,"used":false,"health":1},{"PRN":32,"gnssid":0,"svid":32,"az":108.0,"el":35.0,"ss":48.0,"used":true,"health":1},{"PRN":21,"gnssid":0,"svid":21,"az":284.0,"el":65.0,"ss":50.0,"used":true,"health":1},{"PRN":18,"gnssid":0,"svid":18,"az":0.0,"el":-9.0,"ss":0.0,"used":false,"health":1},{"PRN":16,"gnssid":0,"svid":16,"az":0.0,"el":-9.0,"ss":0.0,"used":false,"health":1}]}
{"class":"TPV","device":"/dev/ttyACM0","mode":3,"time":"2024-07-09T10:09:50.998Z","ept":0.005,"lat":52.315974444,"lon":10.561115299,"altHAE":133.8163,"altMSL":89.9173,"alt":89.9173,"epx":12.114,"epy":24.818,"epv":62.100,"track":157.5975,"magtrack":160.8167,"magvar":3.2,"speed":0.005,"climb":-0.022,"eps":0.41,"epc":500.81,"ecefx":3841087.96,"ecefy":716142.30,"ecefz":5024478.53,"ecefvx":-0.01,"ecefvy":0.00,"ecefvz":-0.02,"ecefpAcc":5.42,"ecefvAcc":0.41,"velN":-0.004,"velE":0.002,"velD":0.022,"geoidSep":43.899,"eph":34.960,"sep":61.940}
{"class":"SKY","device":"/dev/ttyACM0","time":"2024-07-09T10:09:50.750Z","gdop":3.84,"hdop":1.84,"pdop":3.26,"tdop":2.03,"xdop":0.81,"ydop":1.65,"vdop":2.70,"uSat":6}
{"class":"SKY","device":"/dev/ttyACM0","time":"2024-07-09T10:09:50.750Z","gdop":3.84,"hdop":1.84,"pdop":3.26,"tdop":2.03,"xdop":0.81,"ydop":1.65,"vdop":2.70,"uSat":6}
{"class":"TPV","device":"/dev/ttyACM0","mode":3,"time":"2024-07-09T10:09:50.998Z","ept":0.005,"lat":52.315974444,"lon":10.561115299,"altHAE":133.8163,"altMSL":89.9173,"alt":89.9173,"epx":12.114,"epy":24.818,"epv":62.100,"track":157.5975,"magtrack":160.8167,"magvar":3.2,"speed":0.005,"climb":-0.022,"eps":200.15,"epc":500.81,"ecefx":3841087.96,"ecefy":716142.30,"ecefz":5024478.53,"ecefvx":-0.01,"ecefvy":0.00,"ecefvz":-0.02,"ecefpAcc":5.42,"ecefvAcc":0.41,"velN":-0.004,"velE":0.002,"velD":0.022,"geoidSep":43.899,"eph":34.960,"sep":61.940}
{"class":"SKY","device":"/dev/ttyACM0","time":"2024-07-09T10:09:50.998Z","gdop":3.84,"hdop":1.84,"pdop":3.26,"tdop":2.03,"xdop":0.81,"ydop":1.65,"vdop":2.70,"nSat":14,"uSat":6,"satellites":[{"PRN":2,"gnssid":0,"svid":2,"az":280.0,"el":46.0,"ss":46.0,"used":true,"health":1},{"PRN":13,"gnssid":0,"svid":13,"az":0.0,"el":-9.0,"ss":0.0,"used":false,"health":1},{"PRN":27,"gnssid":0,"svid":27,"az":154.0,"el":38.0,"ss":31.0,"used":false,"health":1},{"PRN":23,"gnssid":0,"svid":23,"az":51.0,"el":14.0,"ss":31.0,"used":false,"health":1},{"PRN":24,"gnssid":0,"svid":24,"az":32.0,"el":3.0,"ss":0.0,"used":false,"health":1},{"PRN":19,"gnssid":0,"svid":19,"az":0.0,"el":-9.0,"ss":0.0,"used":false,"health":1},{"PRN":14,"gnssid":0,"svid":14,"az":317.0,"el":19.0,"ss":41.0,"used":true,"health":1},{"PRN":8,"gnssid":0,"svid":8,"az":191.0,"el":67.0,"ss":52.0,"used":true,"health":1},{"PRN":10,"gnssid":0,"svid":10,"az":60.0,"el":48.0,"ss":48.0,"used":true,"health":1},{"PRN":3,"gnssid":0,"svid":3,"az":222.0,"el":3.0,"ss":0.0,"used":false,"health":1},{"PRN":32,"gnssid":0,"svid":32,"az":108.0,"el":35.0,"ss":48.0,"used":true,"health":1},{"PRN":21,"gnssid":0,"svid":21,"az":284.0,"el":65.0,"ss":50.0,"used":true,"health":1},{"PRN":18,"gnssid":0,"svid":18,"az":0.0,"el":-9.0,"ss":0.0,"used":false,"health":1},{"PRN":16,"gnssid":0,"svid":16,"az":0.0,"el":-9.0,"ss":0.0,"used":false,"health":1}]}
{"class":"TPV","device":"/dev/ttyACM0","mode":3,"time":"2024-07-09T10:09:51.250Z","ept":0.005,"lat":52.315974059,"lon":10.561115299,"altHAE":133.7609,"altMSL":89.8619,"alt":89.8619,"epx":12.114,"epy":24.818,"epv":62.100,"track":180.0000,"magtrack":183.2193,"magvar":3.2,"speed":0.012,"climb":-0.016,"eps":0.41,"epc":492.86,"ecefx":3841087.96,"ecefy":716142.30,"ecefz":5024478.46,"ecefvx":0.00,"ecefvy":0.00,"ecefvz":-0.02,"ecefpAcc":5.42,"ecefvAcc":0.41,"velN":-0.012,"velE":0.000,"velD":0.016,"geoidSep":43.899,"eph":34.960,"sep":61.940}
{"class":"SKY","device":"/dev/ttyACM0","time":"2024-07-09T10:09:50.998Z","gdop":3.84,"hdop":1.84,"pdop":3.26,"tdop":2.03,"xdop":0.81,"ydop":1.65,"vdop":2.70,"uSat":6}
{"class":"SKY","device":"/dev/ttyACM0","time":"2024-07-09T10:09:50.998Z","gdop":3.84,"hdop":1.84,"pdop":3.26,"tdop":2.03,"xdop":0.81,"ydop":1.65,"vdop":2.70,"uSat":6}
{"class":"TPV","device":"/dev/ttyACM0","mode":3,"time":"2024-07-09T10:09:51.250Z","ept":0.005,"lat":52.315974059,"lon":10.561115299,"altHAE":133.7609,"altMSL":89.8619,"alt":89.8619,"epx":12.114,"epy":24.818,"epv":62.100,"track":180.0000,"magtrack":183.2193,"magvar":3.2,"speed":0.012,"climb":-0.016,"eps":196.97,"epc":492.86,"ecefx":3841087.96,"ecefy":716142.30,"ecefz":5024478.46,"ecefvx":0.00,"ecefvy":0.00,"ecefvz":-0.02,"ecefpAcc":5.42,"ecefvAcc":0.41,"velN":-0.012,"velE":0.000,"velD":0.016,"geoidSep":43.899,"eph":34.960,"sep":61.940}
{"class":"SKY","device":"/dev/ttyACM0","time":"2024-07-09T10:09:51.250Z","gdop":3.84,"hdop":1.84,"pdop":3.26,"tdop":2.03,"xdop":0.81,"ydop":1.65,"vdop":2.70,"nSat":14,"uSat":6,"satellites":[{"PRN":2,"gnssid":0,"svid":2,"az":280.0,"el":46.0,"ss":46.0,"used":true,"health":1},{"PRN":13,"gnssid":0,"svid":13,"az":0.0,"el":-9.0,"ss":0.0,"used":false,"health":1},{"PRN":27,"gnssid":0,"svid":27,"az":154.0,"el":38.0,"ss":31.0,"used":false,"health":1},{"PRN":23,"gnssid":0,"svid":23,"az":51.0,"el":14.0,"ss":31.0,"used":false,"health":1},{"PRN":24,"gnssid":0,"svid":24,"az":32.0,"el":3.0,"ss":0.0,"used":false,"health":1},{"PRN":19,"gnssid":0,"svid":19,"az":0.0,"el":-9.0,"ss":0.0,"used":false,"health":1},{"PRN":14,"gnssid":0,"svid":14,"az":317.0,"el":19.0,"ss":41.0,"used":true,"health":1},{"PRN":8,"gnssid":0,"svid":8,"az":191.0,"el":67.0,"ss":52.0,"used":true,"health":1},{"PRN":10,"gnssid":0,"svid":10,"az":60.0,"el":48.0,"ss":48.0,"used":true,"health":1},{"PRN":3,"gnssid":0,"svid":3,"az":222.0,"el":3.0,"ss":0.0,"used":false,"health":1},{"PRN":32,"gnssid":0,"svid":32,"az":108.0,"el":35.0,"ss":48.0,"used":true,"health":1},{"PRN":21,"gnssid":0,"svid":21,"az":284.0,"el":65.0,"ss":50.0,"used":true,"health":1},{"PRN":18,"gnssid":0,"svid":18,"az":0.0,"el":-9.0,"ss":0.0,"used":false,"health":1},{"PRN":16,"gnssid":0,"svid":16,"az":0.0,"el":-9.0,"ss":0.0,"used":false,"health":1}]}
{"class":"TPV","device":"/dev/ttyACM0","mode":3,"time":"2024-07-09T10:09:51.498Z","ept":0.005,"lat":52.315973675,"lon":10.561115299,"altHAE":133.7055,"altMSL":89.8065,"alt":89.8065,"epx":12.114,"epy":24.818,"epv":62.100,"track":47.7162,"magtrack":50.9354,"magvar":3.2,"speed":0.002,"climb":-0.014,"eps":0.41,"epc":500.81,"ecefx":3841087.96,"ecefy":716142.30,"ecefz":5024478.39,"ecefvx":-0.01,"ecefvy":0.00,"ecefvz":-0.01,"ecefpAcc":5.42,"ecefvAcc":0.41,"velN":0.002,"velE":0.002,"velD":0.014,"geoidSep":43.899,"eph":34.960,"sep":61.940}
{"class":"SKY","device":"/dev/ttyACM0","time":"2024-07-09T10:09:51.250Z","gdop":3.84,"hdop":1.84,"pdop":3.26,"tdop":2.03,"xdop":0.81,"ydop":1.65,"vdop":2.70,"uSat":6}
{"class":"SKY","device":"/dev/ttyACM0","time":"2024-07-09T10:09:51.250Z","gdop":3.84,"hdop":1.84,"pdop":3.26,"tdop":2.03,"xdop":0.81,"ydop":1.65,"vdop":2.70,"uSat":6}
{"class":"TPV","device":"/dev/ttyACM0","mode":3,"time":"2024-07-09T10:09:51.498Z","ept":0.005,"lat":52.315973675,"lon":10.561115299,"altHAE":133.7055,"altMSL":89.8065,"alt":89.8065,"epx":12.114,"epy":24.818,"epv":62.100,"track":47.7162,"magtrack":50.9354,"magvar":3.2,"speed":0.002,"climb":-0.014,"eps":200.15,"epc":500.81,"ecefx":3841087.96,"ecefy":716142.30,"ecefz":5024478.39,"ecefvx":-0.01,"ecefvy":0.00,"ecefvz":-0.01,"ecefpAcc":5.42,"ecefvAcc":0.41,"velN":0.002,"velE":0.002,"velD":0.014,"geoidSep":43.899,"eph":34.960,"sep":61.940}
{"class":"SKY","device":"/dev/ttyACM0","time":"2024-07-09T10:09:51.498Z","gdop":3.84,"hdop":1.84,"pdop":3.26,"tdop":2.03,"xdop":0.81,"ydop":1.65,"vdop":2.70,"nSat":14,"uSat":6,"satellites":[{"PRN":2,"gnssid":0,"svid":2,"az":280.0,"el":46.0,"ss":46.0,"used":true,"health":1},{"PRN":13,"gnssid":0,"svid":13,"az":0.0,"el":-9.0,"ss":0.0,"used":false,"health":1},{"PRN":27,"gnssid":0,"svid":27,"az":154.0,"el":38.0,"ss":31.0,"used":false,"health":1},{"PRN":23,"gnssid":0,"svid":23,"az":51.0,"el":14.0,"ss":31.0,"used":false,"health":1},{"PRN":24,"gnssid":0,"svid":24,"az":32.0,"el":3.0,"ss":0.0,"used":false,"health":1},{"PRN":19,"gnssid":0,"svid":19,"az":0.0,"el":-9.0,"ss":0.0,"used":false,"health":1},{"PRN":14,"gnssid":0,"svid":14,"az":317.0,"el":19.0,"ss":41.0,"used":true,"health":1},{"PRN":8,"gnssid":0,"svid":8,"az":191.0,"el":67.0,"ss":52.0,"used":true,"health":1},{"PRN":10,"gnssid":0,"svid":10,"az":60.0,"el":48.0,"ss":48.0,"used":true,"health":1},{"PRN":3,"gnssid":0,"svid":3,"az":222.0,"el":3.0,"ss":0.0,"used":false,"health":1},{"PRN":32,"gnssid":0,"svid":32,"az":108.0,"el":35.0,"ss":48.0,"used":true,"health":1},{"PRN":21,"gnssid":0,"svid":21,"az":284.0,"el":65.0,"ss":50.0,"used":true,"health":1},{"PRN":18,"gnssid":0,"svid":18,"az":0.0,"el":-9.0,"ss":0.0,"used":false,"health":1},{"PRN":16,"gnssid":0,"svid":16,"az":0.0,"el":-9.0,"ss":0.0,"used":false,"health":1}]}
{"class":"TPV","device":"/dev/ttyACM0","mode":3,"time":"2024-07-09T10:09:51.750Z","ept":0.005,"lat":52.315973345,"lon":10.561115299,"altHAE":133.6580,"altMSL":89.7590,"alt":89.7590,"epx":12.114,"epy":24.818,"epv":62.100,"track":180.0000,"magtrack":183.2193,"magvar":3.2,"speed":0.006,"climb":-0.008,"eps":0.41,"epc":492.86,"ecefx":3841087.96,"ecefy":716142.30,"ecefz":5024478.33,"ecefvx":0.00,"ecefvy":0.00,"ecefvz":-0.01,"ecefpAcc":5.42,"ecefvAcc":0.41,"velN":-0.006,"velE":0.000,"velD":0.008,"geoidSep":43.899,"eph":34.960,"sep":61.940}
{"class":"SKY","device":"/dev/ttyACM0","time":"2024-07-09T10:09:51.498Z","gdop":3.84,"hdop":1.84,"pdop":3.26,"tdop":2.03,"xdop":0.81,"ydop":1.65,"vdop":2.70,"uSat":6}
{"class":"SKY","device":"/dev/ttyACM0","time":"2024-07-09T10:09:51.498Z","gdop":3.84,"hdop":1.84,"pdop":3.26,"tdop":2.03,"xdop":0.81,"ydop":1.65,"vdop":2.70,"uSat":6}
{"class":"TPV","device":"/dev/ttyACM0","mode":3,"time":"2024-07-09T10:09:51.750Z","ept":0.005,"lat":52.315973345,"lon":10.561115299,"altHAE":133.6580,"altMSL":89.7590,"alt":89.7590,"epx":12.114,"epy":24.818,"epv":62.100,"track":180.0000,"magtrack":183.2193,"magvar":3.2,"speed":0.006,"climb":-0.008,"eps":196.97,"epc":492.86,"ecefx":3841087.96,"ecefy":716142.30,"ecefz":5024478.33,"ecefvx":0.00,"ecefvy":0.00,"ecefvz":-0.01,"ecefpAcc":5.42,"ecefvAcc":0.41,"velN":-0.006,"velE":0.000,"velD":0.008,"geoidSep":43.899,"eph":34.960,"sep":61.940}
{"class":"SKY","device":"/dev/ttyACM0","time":"2024-07-09T10:09:51.750Z","gdop":3.84,"hdop":1.84,"pdop":3.26,"tdop":2.03,"xdop":0.81,"ydop":1.65,"vdop":2.70,"nSat":14,"uSat":6,"satellites":[{"PRN":2,"gnssid":0,"svid":2,"az":280.0,"el":46.0,"ss":46.0,"used":true,"health":1},{"PRN":13,"gnssid":0,"svid":13,"az":0.0,"el":-9.0,"ss":0.0,"used":false,"health":1},{"PRN":27,"gnssid":0,"svid":27,"az":154.0,"el":38.0,"ss":32.0,"used":false,"health":1},{"PRN":23,"gnssid":0,"svid":23,"az":51.0,"el":14.0,"ss":31.0,"used":false,"health":1},{"PRN":24,"gnssid":0,"svid":24,"az":32.0,"el":3.0,"ss":0.0,"used":false,"health":1},{"PRN":19,"gnssid":0,"svid":19,"az":0.0,"el":-9.0,"ss":0.0,"used":false,"health":1},{"PRN":14,"gnssid":0,"svid":14,"az":317.0,"el":19.0,"ss":41.0,"used":true,"health":1},{"PRN":8,"gnssid":0,"svid":8,"az":191.0,"el":67.0,"ss":52.0,"used":true,"health":1},{"PRN":10,"gnssid":0,"svid":10,"az":60.0,"el":48.0,"ss":48.0,"used":true,"health":1},{"PRN":3,"gnssid":0,"svid":3,"az":222.0,"el":3.0,"ss":0.0,"used":false,"health":1},{"PRN":32,"gnssid":0,"svid":32,"az":108.0,"el":35.0,"ss":48.0,"used":true,"health":1},{"PRN":21,"gnssid":0,"svid":21,"az":284.0,"el":65.0,"ss":50.0,"used":true,"health":1},{"PRN":18,"gnssid":0,"svid":18,"az":0.0,"el":-9.0,"ss":0.0,"used":false,"health":1},{"PRN":16,"gnssid":0,"svid":16,"az":0.0,"el":-9.0,"ss":0.0,"used":false,"health":1}]}
{"class":"TPV","device":"/dev/ttyACM0","mode":3,"time":"2024-07-09T10:09:51.998Z","ept":0.005,"lat":52.315972961,"lon":10.561115299,"altHAE":133.6026,"altMSL":89.7036,"alt":89.7036,"epx":12.114,"epy":24.818,"epv":62.100,"track":200.7522,"magtrack":203.9714,"magvar":3.2,"speed":0.033,"climb":-0.027,"eps":0.41,"epc":500.81,"ecefx":3841087.96,"ecefy":716142.30,"ecefz":5024478.26,"ecefvx":0.01,"ecefvy":-0.01,"ecefvz":-0.04,"ecefpAcc":5.43,"ecefvAcc":0.41,"velN":-0.031,"velE":-0.012,"velD":0.027,"geoidSep":43.899,"eph":34.960,"sep":61.940}
{"class":"SKY","device":"/dev/ttyACM0","time":"2024-07-09T10:09:51.750Z","gdop":3.84,"hdop":1.84,"pdop":3.26,"tdop":2.03,"xdop":0.81,"ydop":1.65,"vdop":2.70,"uSat":6}
{"class":"SKY","device":"/dev/ttyACM0","time":"2024-07-09T10:09:51.750Z","gdop":3.84,"hdop":1.84,"pdop":3.26,"tdop":2.03,"xdop":0.81,"ydop":1.65,"vdop":2.70,"uSat":6}
{"class":"TPV","device":"/dev/ttyACM0","mode":3,"time":"2024-07-09T10:09:51.998Z","ept":0.005,"lat":52.315972961,"lon":10.561115299,"altHAE":133.6026,"altMSL":89.7036,"alt":89.7036,"epx":12.114,"epy":24.818,"epv":62.100,"track":200.7522,"magtrack":203.9714,"magvar":3.2,"speed":0.033,"climb":-0.027,"eps":200.15,"epc":500.81,"ecefx":3841087.96,"ecefy":716142.30,"ecefz":5024478.26,"ecefvx":0.01,"ecefvy":-0.01,"ecefvz":-0.04,"ecefpAcc":5.43,"ecefvAcc":0.41,"velN":-0.031,"velE":-0.012,"velD":0.027,"geoidSep":43.899,"eph":34.960,"sep":61.940}
{"class":"SKY","device":"/dev/ttyACM0","time":"2024-07-09T10:09:51.998Z","gdop":3.84,"hdop":1.84,"pdop":3.26,"tdop":2.03,"xdop":0.81,"ydop":1.65,"vdop":2.70,"nSat":14,"uSat":6,"satellites":[{"PRN":2,"gnssid":0,"svid":2,"az":280.0,"el":46.0,"ss":46.0,"used":true,"health":1},{"PRN":13,"gnssid":0,"svid":13,"az":0.0,"el":-9.0,"ss":0.0,"used":false,"health":1},{"PRN":27,"gnssid":0,"svid":27,"az":154.0,"el":38.0,"ss":31.0,"used":false,"health":1},{"PRN":23,"gnssid":0,"svid":23,"az":51.0,"el":14.0,"ss":31.0,"used":false,"health":1},{"PRN":24,"gnssid":0,"svid":24,"az":32.0,"el":3.0,"ss":0.0,"used":false,"health":1},{"PRN":19,"gnssid":0,"svid":19,"az":0.0,"el":-9.0,"ss":0.0,"used":false,"health":1},{"PRN":14,"gnssid":0,"svid":14,"az":316.0,"el":19.0,"ss":41.0,"used":true,"health":1},{"PRN":8,"gnssid":0,"svid":8,"az":191.0,"el":67.0,"ss":52.0,"used":true,"health":1},{"PRN":10,"gnssid":0,"svid":10,"az":60.0,"el":48.0,"ss":48.0,"used":true,"health":1},{"PRN":3,"gnssid":0,"svid":3,"az":222.0,"el":3.0,"ss":0.0,"used":false,"health":1},{"PRN":32,"gnssid":0,"svid":32,"az":108.0,"el":35.0,"ss":48.0,"used":true,"health":1},{"PRN":21,"gnssid":0,"svid":21,"az":284.0,"el":65.0,"ss":50.0,"used":true,"health":1},{"PRN":18,"gnssid":0,"svid":18,"az":0.0,"el":-9.0,"ss":0.0,"used":false,"health":1},{"PRN":16,"gnssid":0,"svid":16,"az":0.0,"el":-9.0,"ss":0.0,"used":false,"health":1}]}
{"class":"TPV","device":"/dev/ttyACM0","mode":3,"time":"2024-07-09T10:09:52.250Z","ept":0.005,"lat":52.315972646,"lon":10.561115325,"altHAE":133.5412,"altMSL":89.6422,"alt":89.6422,"epx":12.114,"epy":24.818,"epv":62.100,"track":207.7180,"magtrack":210.9373,"magvar":3.2,"speed":0.017,"climb":-0.039,"eps":0.41,"epc":492.86,"ecefx":3841087.95,"ecefy":716142.30,"ecefz":5024478.19,"ecefvx":-0.01,"ecefvy":-0.01,"ecefvz":-0.04,"ecefpAcc":5.43,"ecefvAcc":0.41,"velN":-0.015,"velE":-0.008,"velD":0.039,"geoidSep":43.899,"eph":34.960,"sep":61.940}
{"class":"SKY","device":"/dev/ttyACM0","time":"2024-07-09T10:09:51.998Z","gdop":3.84,"hdop":1.84,"pdop":3.26,"tdop":2.03,"xdop":0.81,"ydop":1.65,"vdop":2.70,"uSat":6}
{"class":"SKY","device":"/dev/ttyACM0","time":"2024-07-09T10:09:51.998Z","gdop":3.84,"hdop":1.84,"pdop":3.26,"tdop":2.03,"xdop":0.81,"ydop":1.65,"vdop":2.70,"uSat":6}
{"class":"TPV","device":"/dev/ttyACM0","mode":3,"time":"2024-07-09T10:09:52.250Z","ept":0.005,"lat":52.315972646,"lon":10.561115325,"altHAE":133.5412,"altMSL":89.6422,"alt":89.6422,"epx":12.114,"epy":24.818,"epv":62.100,"track":207.7180,"magtrack":210.9373,"magvar":3.2,"speed":0.017,"climb":-0.039,"eps":196.97,"epc":492.86,"ecefx":3841087.95,"ecefy":716142.30,"ecefz":5024478.19,"ecefvx":-0.01,"ecefvy":-0.01,"ecefvz":-0.04,"ecefpAcc":5.43,"ecefvAcc":0.41,"velN":-0.015,"velE":-0.008,"velD":0.039,"geoidSep":43.899,"eph":34.960,"sep":61.940}
{"class":"SKY","device":"/dev/ttyACM0","time":"2024-07-09T10:09:52.250Z","gdop":3.84,"hdop":1.84,"pdop":3.26,"tdop":2.03,"xdop":0.81,"ydop":1.65,"vdop":2.70,"nSat":14,"uSat":6,"satellites":[{"PRN":2,"gnssid":0,"svid":2,"az":280.0,"el":46.0,"ss":46.0,"used":true,"health":1},{"PRN":13,"gnssid":0,"svid":13,"az":0.0,"el":-9.0,"ss":0.0,"used":false,"health":1},{"PRN":27,"gnssid":0,"svid":27,"az":154.0,"el":38.0,"ss":31.0,"used":false,"health":1},{"PRN":23,"gnssid":0,"svid":23,"az":51.0,"el":14.0,"ss":31.0,"used":false,"health":1},{"PRN":24,"gnssid":0,"svid":24,"az":32.0,"el":3.0,"ss":0.0,"used":false,"health":1},{"PRN":19,"gnssid":0,"svid":19,"az":0.0,"el":-9.0,"ss":0.0,"used":false,"health":1},{"PRN":14,"gnssid":0,"svid":14,"az":316.0,"el":19.0,"ss":41.0,"used":true,"health":1},{"PRN":8,"gnssid":0,"svid":8,"az":191.0,"el":67.0,"ss":52.0,"used":true,"health":1},{"PRN":10,"gnssid":0,"svid":10,"az":60.0,"el":48.0,"ss":47.0,"used":true,"health":1},{"PRN":3,"gnssid":0,"svid":3,"az":222.0,"el":3.0,"ss":0.0,"used":false,"health":1},{"PRN":32,"gnssid":0,"svid":32,"az":108.0,"el":35.0,"ss":48.0,"used":true,"health":1},{"PRN":21,"gnssid":0,"svid":21,"az":284.0,"el":65.0,"ss":50.0,"used":true,"health":1},{"PRN":18,"gnssid":0,"svid":18,"az":0.0,"el":-9.0,"ss":0.0,"used":false,"health":1},{"PRN":16,"gnssid":0,"svid":16,"az":0.0,"el":-9.0,"ss":0.0,"used":false,"health":1}]}
{"class":"TPV","device":"/dev/ttyACM0","mode":3,"time":"2024-07-09T10:09:52.498Z","ept":0.005,"lat":52.315972246,"lon":10.561115299,"altHAE":133.4997,"altMSL":89.6007,"alt":89.6007,"epx":12.114,"epy":24.818,"epv":62.100,"track":135.8383,"magtrack":139.0575,"magvar":3.2,"speed":0.017,"climb":-0.029,"eps":0.41,"epc":500.81,"ecefx":3841087.96,"ecefy":716142.30,"ecefz":5024478.13,"ecefvx":-0.01,"ecefvy":0.01,"ecefvz":-0.03,"ecefpAcc":5.43,"ecefvAcc":0.41,"velN":-0.012,"velE":0.012,"velD":0.029,"geoidSep":43.899,"eph":34.960,"sep":61.940}
{"class":"SKY","device":"/dev/ttyACM0","time":"2024-07-09T10:09:52.250Z","gdop":3.84,"hdop":1.84,"pdop":3.26,"tdop":2.03,"xdop":0.81,"ydop":1.65,"vdop":2.70,"uSat":6}
{"class":"SKY","device":"/dev/ttyACM0","time":"2024-07-09T10:09:52.250Z","gdop":3.84,"hdop":1.84,"pdop":3.26,"tdop":2.03,"xdop":0.81,"ydop":1.65,"vdop":2.70,"uSat":6}
{"class":"TPV","device":"/dev/ttyACM0","mode":3,"time":"2024-07-09T10:09:52.498Z","ept":0.005,"lat":52.315972246,"lon":10.561115299,"altHAE":133.4997,"altMSL":89.6007,"alt":89.6007,"epx":12.114,"epy":24.818,"epv":62.100,"track":135.8383,"magtrack":139.0575,"magvar":3.2,"speed":0.017,"climb":-0.029,"eps":200.15,"epc":500.81,"ecefx":3841087.96,"ecefy":716142.30,"ecefz":5024478.13,"ecefvx":-0.01,"ecefvy":0.01,"ecefvz":-0.03,"ecefpAcc":5.43,"ecefvAcc":0.41,"velN":-0.012,"velE":0.012,"velD":0.029,"geoidSep":43.899,"eph":34.960,"sep":61.940}
{"class":"SKY","device":"/dev/ttyACM0","time":"2024-07-09T10:09:52.498Z","gdop":3.84,"hdop":1.84,"pdop":3.26,"tdop":2.03,"xdop":0.81,"ydop":1.65,"vdop":2.70,"nSat":14,"uSat":6,"satellites":[{"PRN":2,"gnssid":0,"svid":2,"az":280.0,"el":46.0,"ss":46.0,"used":true,"health":1},{"PRN":13,"gnssid":0,"svid":13,"az":0.0,"el":-9.0,"ss":0.0,"used":false,"health":1},{"PRN":27,"gnssid":0,"svid":27,"az":154.0,"el":38.0,"ss":31.0,"used":false,"health":1},{"PRN":23,"gnssid":0,"svid":23,"az":51.0,"el":14.0,"ss":31.0,"used":false,"health":1},{"PRN":24,"gnssid":0,"svid":24,"az":32.0,"el":3.0,"ss":0.0,"used":false,"health":1},{"PRN":19,"gnssid":0,"svid":19,"az":0.0,"el":-9.0,"ss":0.0,"used":false,"health":1},{"PRN":14,"gnssid":0,"svid":14,"az":316.0,"el":19.0,"ss":41.0,"used":true,"health":1},{"PRN":8,"gnssid":0,"svid":8,"az":191.0,"el":67.0,"ss":52.0,"used":true,"health":1},{"PRN":10,"gnssid":0,"svid":10,"az":60.0,"el":48.0,"ss":47.0,"used":true,"health":1},{"PRN":3,"gnssid":0,"svid":3,"az":222.0,"el":3.0,"ss":0.0,"used":false,"health":1},{"PRN":32,"gnssid":0,"svid":32,"az":108.0,"el":35.0,"ss":48.0,"used":true,"health":1},{"PRN":21,"gnssid":0,"svid":21,"az":284.0,"el":65.0,"ss":50.0,"used":true,"health":1},{"PRN":18,"gnssid":0,"svid":18,"az":0.0,"el":-9.0,"ss":0.0,"used":false,"health":1},{"PRN":16,"gnssid":0,"svid":16,"az":0.0,"el":-9.0,"ss":0.0,"used":false,"health":1}]}
{"class":"TPV","device":"/dev/ttyACM0","mode":3,"time":"2024-07-09T10:09:52.750Z","ept":0.005,"lat":52.315971987,"lon":10.561115325,"altHAE":133.4462,"altMSL":89.5472,"alt":89.5472,"epx":12.114,"epy":24.818,"epv":62.100,"track":170.1529,"magtrack":173.3722,"magvar":3.2,"speed":0.011,"climb":-0.030,"eps":0.41,"epc":492.86,"ecefx":3841087.95,"ecefy":716142.30,"ecefz":5024478.07,"ecefvx":-0.01,"ecefvy":0.00,"ecefvz":-0.03,"ecefpAcc":5.43,"ecefvAcc":0.41,"velN":-0.011,"velE":0.002,"velD":0.030,"geoidSep":43.899,"eph":34.960,"sep":61.940}
{"class":"SKY","device":"/dev/ttyACM0","time":"2024-07-09T10:09:52.498Z","gdop":3.84,"hdop":1.84,"pdop":3.26,"tdop":2.03,"xdop":0.81,"ydop":1.65,"vdop":2.70,"uSat":6}
{"class":"SKY","device":"/dev/ttyACM0","time":"2024-07-09T10:09:52.498Z","gdop":3.84,"hdop":1.84,"pdop":3.26,"tdop":2.03,"xdop":0.81,"ydop":1.65,"vdop":2.70,"uSat":6}
{"class":"TPV","device":"/dev/ttyACM0","mode":3,"time":"2024-07-09T10:09:52.750Z","ept":0.005,"lat":52.315971987,"lon":10.561115325,"altHAE":133.4462,"altMSL":89.5472,"alt":89.5472,"epx":12.114,"epy":24.818,"epv":62.100,"track":170.1529,"magtrack":173.3722,"magvar":3.2,"speed":0.011,"climb":-0.030,"eps":196.97,"epc":492.86,"ecefx":3841087.95,"ecefy":716142.30,"ecefz":5024478.07,"ecefvx":-0.01,"ecefvy":0.00,"ecefvz":-0.03,"ecefpAcc":5.43,"ecefvAcc":0.41,"velN":-0.011,"velE":0.002,"velD":0.030,"geoidSep":43.899,"eph":34.960,"sep":61.940}
{"class":"SKY","device":"/dev/ttyACM0","time":"2024-07-09T10:09:52.750Z","gdop":3.84,"hdop":1.84,"pdop":3.26,"tdop":2.03,"xdop":0.81,"ydop":1.65,"vdop":2.70,"nSat":14,"uSat":6,"satellites":[{"PRN":2,"gnssid":0,"svid":2,"az":280.0,"el":46.0,"ss":46.0,"used":true,"health":1},{"PRN":13,"gnssid":0,"svid":13,"az":0.0,"el":-9.0,"ss":0.0,"used":false,"health":1},{"PRN":27,"gnssid":0,"svid":27,"az":154.0,"el":38.0,"ss":31.0,"used":false,"health":1},{"PRN":23,"gnssid":0,"svid":23,"az":51.0,"el":14.0,"ss":31.0,"used":false,"health":1},{"PRN":24,"gnssid":0,"svid":24,"az":32.0,"el":3.0,"ss":0.0,"used":false,"health":1},{"PRN":19,"gnssid":0,"svid":19,"az":0.0,"el":-9.0,"ss":0.0,"used":false,"health":1},{"PRN":14,"gnssid":0,"svid":14,"az":316.0,"el":19.0,"ss":41.0,"used":true,"health":1},{"PRN":8,"gnssid":0,"svid":8,"az":191.0,"el":67.0,"ss":52.0,"used":true,"health":1},{"PRN":10,"gnssid":0,"svid":10,"az":60.0,"el":48.0,"ss":47.0,"used":true,"health":1},{"PRN":3,"gnssid":0,"svid":3,"az":222.0,"el":3.0,"ss":0.0,"used":false,"health":1},{"PRN":32,"gnssid":0,"svid":32,"az":108.0,"el":35.0,"ss":48.0,"used":true,"health":1},{"PRN":21,"gnssid":0,"svid":21,"az":284.0,"el":65.0,"ss":50.0,"used":true,"health":1},{"PRN":18,"gnssid":0,"svid":18,"az":0.0,"el":-9.0,"ss":0.0,"used":false,"health":1},{"PRN":16,"gnssid":0,"svid":16,"az":0.0,"el":-9.0,"ss":0.0,"used":false,"health":1}]}
{"class":"TPV","device":"/dev/ttyACM0","mode":3,"time":"2024-07-09T10:09:52.998Z","ept":0.005,"lat":52.315971657,"lon":10.561115325,"altHAE":133.3987,"altMSL":89.4998,"alt":89.4998,"epx":12.114,"epy":24.818,"epv":62.100,"track":203.1411,"magtrack":206.3604,"magvar":3.2,"speed":0.025,"climb":-0.033,"eps":0.41,"epc":500.81,"ecefx":3841087.95,"ecefy":716142.30,"ecefz":5024478.01,"ecefvx":0.00,"ecefvy":-0.01,"ecefvz":-0.04,"ecefpAcc":5.43,"ecefvAcc":0.41,"velN":-0.023,"velE":-0.010,"velD":0.033,"geoidSep":43.899,"eph":34.960,"sep":61.940}
{"class":"SKY","device":"/dev/ttyACM0","time":"2024-07-09T10:09:52.750Z","gdop":3.84,"hdop":1.84,"pdop":3.26,"tdop":2.03,"xdop":0.81,"ydop":1.65,"vdop":2.70,"uSat":6}
{"class":"SKY","device":"/dev/ttyACM0","time":"2024-07-09T10:09:52.750Z","gdop":3.84,"hdop":1.84,"pdop":3.26,"tdop":2.03,"xdop":0.81,"ydop":1.65,"vdop":2.70,"uSat":6}
{"class":"TPV","device":"/dev/ttyACM0","mode":3,"time":"2024-07-09T10:09:52.998Z","ept":0.005,"lat":52.315971657,"lon":10.561115325,"altHAE":133.3987,"altMSL":89.4998,"alt":89.4998,"epx":12.114,"epy":24.818,"epv":62.100,"track":203.1411,"magtrack":206.3604,"magvar":3.2,"speed":0.025,"climb":-0.033,"eps":200.15,"epc":500.81,"ecefx":3841087.95,"ecefy":716142.30,"ecefz":5024478.01,"ecefvx":0.00,"ecefvy":-0.01,"ecefvz":-0.04,"ecefpAcc":5.43,"ecefvAcc":0.41,"velN":-0.023,"velE":-0.010,"velD":0.033,"geoidSep":43.899,"eph":34.960,"sep":61.940}
{"class":"SKY","device":"/dev/ttyACM0","time":"2024-07-09T10:09:52.998Z","gdop":3.84,"hdop":1.84,"pdop":3.26,"tdop":2.03,"xdop":0.81,"ydop":1.65,"vdop":2.70,"nSat":14,"uSat":6,"satellites":[{"PRN":2,"gnssid":0,"svid":2,"az":280.0,"el":46.0,"ss":46.0,"used":true,"health":1},{"PRN":13,"gnssid":0,"svid":13,"az":0.0,"el":-9.0,"ss":0.0,"used":false,"health":1},{"PRN":27,"gnssid":0,"svid":27,"az":154.0,"el":38.0,"ss":31.0,"used":false,"health":1},{"PRN":23,"gnssid":0,"svid":23,"az":51.0,"el":14.0,"ss":31.0,"used":false,"health":1},{"PRN":24,"gnssid":0,"svid":24,"az":32.0,"el":3.0,"ss":0.0,"used":false,"health":1},{"PRN":19,"gnssid":0,"svid":19,"az":0.0,"el":-9.0,"ss":0.0,"used":false,"health":1},{"PRN":14,"gnssid":0,"svid":14,"az":316.0,"el":19.0,"ss":41.0,"used":true,"health":1},{"PRN":8,"gnssid":0,"svid":8,"az":191.0,"el":67.0,"ss":52.0,"used":true,"health":1},{"PRN":10,"gnssid":0,"svid":10,"az":60.0,"el":48.0,"ss":47.0,"used":true,"health":1},{"PRN":3,"gnssid":0,"svid":3,"az":222.0,"el":3.0,"ss":0.0,"used":false,"health":1},{"PRN":32,"gnssid":0,"svid":32,"az":108.0,"el":35.0,"ss":48.0,"used":true,"health":1},{"PRN":21,"gnssid":0,"svid":21,"az":284.0,"el":65.0,"ss":50.0,"used":true,"health":1},{"PRN":18,"gnssid":0,"svid":18,"az":0.0,"el":-9.0,"ss":0.0,"used":false,"health":1},{"PRN":16,"gnssid":0,"svid":16,"az":0.0,"el":-9.0,"ss":0.0,"used":false,"health":1}]}
{"class":"TPV","device":"/dev/ttyACM0","mode":3,"time":"2024-07-09T10:09:53.250Z","ept":0.005,"lat":52.315971273,"lon":10.561115325,"altHAE":133.3433,"altMSL":89.4444,"alt":89.4444,"epx":12.114,"epy":24.818,"epv":62.100,"track":319.0924,"magtrack":322.3116,"magvar":3.2,"speed":0.012,"climb":-0.007,"eps":0.41,"epc":492.86,"ecefx":3841087.95,"ecefy":716142.30,"ecefz":5024477.94,"ecefvx":-0.01,"ecefvy":-0.01,"ecefvz":0.00,"ecefpAcc":5.43,"ecefvAcc":0.41,"velN":0.009,"velE":-0.008,"velD":0.007,"geoidSep":43.899,"eph":34.960,"sep":61.940}
