{"class":"VERSION","release":"3.25","rev":"3.25","proto_major":3,"proto_minor":15}
{"class":"DEVICES","devices":[{"class":"DEVICE","path":"/dev/ttyACM0","driver":"u-blox","subtype":"SW 5.00    May 11 2006 14:40:17,HW 00040001","subtype1":"M4T1.2  May 11 2006 14:40:17","activated":"2024-07-09T10:14:58.741Z","flags":1,"native":1,"bps":57600,"parity":"N","stopbits":1,"cycle":1.00,"mincycle":0.02}]}
{"class":"WATCH","enable":true,"json":true,"nmea":false,"raw":0,"scaled":false,"timing":false,"split24":false,"pps":false}
{"class":"TPV","device":"/dev/ttyACM0","mode":3,"time":"2024-07-09T10:13:10.999Z","ept":0.005,"lat":52.316118837,"lon":10.561374104,"altHAE":131.6781,"altMSL":87.7796,"alt":87.7796,"epx":12.114,"epy":24.818,"epv":49.910,"track":153.5839,"magtrack":156.8033,"magvar":3.2,"speed":0.022,"climb":-0.023,"eps":0.39,"epc":402.50,"ecefx":3841070.94,"ecefy":716157.08,"ecefz":5024486.66,"ecefvx":0.00,"ecefvy":0.01,"ecefvz":-0.03,"ecefpAcc":4.98,"ecefvAcc":0.39,"velN":-0.020,"velE":0.010,"velD":0.023,"geoidSep":43.898,"eph":24.700,"sep":48.070}
{"class":"SKY","device":"/dev/ttyACM0","time":"2024-07-09T10:13:10.751Z","gdop":2.95,"hdop":1.30,"pdop":2.53,"tdop":1.53,"xdop":0.81,"ydop":1.65,"vdop":2.17,"uSat":6}
{"class":"SKY","device":"/dev/ttyACM0","time":"2024-07-09T10:13:10.751Z","gdop":2.95,"hdop":1.30,"pdop":2.53,"tdop":1.53,"xdop":0.81,"ydop":1.65,"vdop":2.17,"uSat":6}
{"class":"TPV","device":"/dev/ttyACM0","mode":3,"time":"2024-07-09T10:13:10.999Z","ept":0.005,"lat":52.316118837,"lon":10.561374104,"altHAE":131.6781,"altMSL":87.7796,"alt":87.7796,"epx":12.114,"epy":24.818,"epv":49.910,"track":153.5839,"magtrack":156.8033,"magvar":3.2,"speed":0.022,"climb":-0.023,"eps":200.15,"epc":402.50,"ecefx":3841070.94,"ecefy":716157.08,"ecefz":5024486.66,"ecefvx":0.00,"ecefvy":0.01,"ecefvz":-0.03,"ecefpAcc":4.98,"ecefvAcc":0.39,"velN":-0.020,"velE":0.010,"velD":0.023,"geoidSep":43.898,"eph":24.700,"sep":48.070}
{"class":"SKY","device":"/dev/ttyACM0","time":"2024-07-09T10:13:10.999Z","gdop":2.95,"hdop":1.30,"pdop":2.53,"tdop":1.53,"xdop":0.81,"ydop":1.65,"vdop":2.17,"nSat":14,"uSat":7,"satellites":[{"PRN":2,"gnssid":0,"svid":2,"az":281.0,"el":47.0,"ss":48.0,"used":true,"health":1},{"PRN":22,"gnssid":0,"svid":22,"az":333.0,"el":9.0,"ss":19.0,"used":false,"health":1},{"PRN":27,"gnssid":0,"svid":27,"az":154.0,"el":36.0,"ss":45.0,"used":true,"health":1},{"PRN":23,"gnssid":0,"svid":23,"az":51.0,"el":12.0,"ss":0.0,"used":false,"health":1},{"PRN":24,"gnssid":0,"svid":24,"az":31.0,"el":3.0,"ss":0.0,"used":false,"health":1},{"PRN":15,"gnssid":0,"svid":15,"az":0.0,"el":-9.0,"ss":0.0,"used":false,"health":1},{"PRN":14,"gnssid":0,"svid":14,"az":315.0,"el":20.0,"ss":45.0,"used":true,"health":1},{"PRN":8,"gnssid":0,"svid":8,"az":189.0,"el":65.0,"ss":49.0,"used":true,"health":1},{"PRN":10,"gnssid":0,"svid":10,"az":59.0,"el":47.0,"ss":50.0,"used":true,"health":1},{"PRN":3,"gnssid":0,"svid":3,"az":222.0,"el":4.0,"ss":0.0,"used":false,"health":1},{"PRN":32,"gnssid":0,"svid":32,"az":106.0,"el":36.0,"ss":43.0,"used":true,"health":1},{"PRN":21,"gnssid":0,"svid":21,"az":285.0,"el":66.0,"ss":47.0,"used":true,"health":1},{"PRN":17,"gnssid":0,"svid":17,"az":0.0,"el":-9.0,"ss":0.0,"used":false,"health":1},{"PRN":12,"gnssid":0,"svid":12,"az":0.0,"el":-9.0,"ss":0.0,"used":false,"health":1}]}
{"class":"TPV","device":"/dev/ttyACM0","mode":3,"time":"2024-07-09T10:13:11.251Z","ept":0.005,"lat":52.316118881,"lon":10.561374419,"altHAE":131.6744,"altMSL":87.7759,"alt":87.7759,"epx":12.114,"epy":24.818,"epv":49.910,"track":244.6257,"magtrack":247.8451,"magvar":3.2,"speed":0.011,"climb":-0.009,"eps":0.39,"epc":396.11,"ecefx":3841070.93,"ecefy":716157.10,"ecefz":5024486.66,"ecefvx":0.00,"ecefvy":-0.01,"ecefvz":-0.01,"ecefpAcc":4.98,"ecefvAcc":0.39,"velN":-0.005,"velE":-0.010,"velD":0.009,"geoidSep":43.898,"eph":24.700,"sep":48.070}
{"class":"SKY","device":"/dev/ttyACM0","time":"2024-07-09T10:13:10.999Z","gdop":2.95,"hdop":1.30,"pdop":2.53,"tdop":1.53,"xdop":0.81,"ydop":1.65,"vdop":2.17,"uSat":6}
{"class":"SKY","device":"/dev/ttyACM0","time":"2024-07-09T10:13:10.999Z","gdop":2.95,"hdop":1.30,"pdop":2.53,"tdop":1.53,"xdop":0.81,"ydop":1.65,"vdop":2.17,"uSat":6}
{"class":"TPV","device":"/dev/ttyACM0","mode":3,"time":"2024-07-09T10:13:11.251Z","ept":0.005,"lat":52.316118881,"lon":10.561374419,"altHAE":131.6744,"altMSL":87.7759,"alt":87.7759,"epx":12.114,"epy":24.818,"epv":49.910,"track":244.6257,"magtrack":247.8451,"magvar":3.2,"speed":0.011,"climb":-0.009,"eps":196.97,"epc":396.11,"ecefx":3841070.93,"ecefy":716157.10,"ecefz":5024486.66,"ecefvx":0.00,"ecefvy":-0.01,"ecefvz":-0.01,"ecefpAcc":4.98,"ecefvAcc":0.39,"velN":-0.005,"velE":-0.010,"velD":0.009,"geoidSep":43.898,"eph":24.700,"sep":48.070}
{"class":"SKY","device":"/dev/ttyACM0","time":"2024-07-09T10:13:11.251Z","gdop":2.95,"hdop":1.30,"pdop":2.53,"tdop":1.53,"xdop":0.81,"ydop":1.65,"vdop":2.17,"nSat":14,"uSat":7,"satellites":[{"PRN":2,"gnssid":0,"svid":2,"az":281.0,"el":47.0,"ss":48.0,"used":true,"health":1},{"PRN":22,"gnssid":0,"svid":22,"az":333.0,"el":9.0,"ss":19.0,"used":false,"health":1},{"PRN":27,"gnssid":0,"svid":27,"az":154.0,"el":36.0,"ss":45.0,"used":true,"health":1},{"PRN":23,"gnssid":0,"svid":23,"az":51.0,"el":12.0,"ss":0.0,"used":false,"health":1},{"PRN":24,"gnssid":0,"svid":24,"az":31.0,"el":3.0,"ss":0.0,"used":false,"health":1},{"PRN":15,"gnssid":0,"svid":15,"az":0.0,"el":-9.0,"ss":0.0,"used":false,"health":1},{"PRN":14,"gnssid":0,"svid":14,"az":315.0,"el":20.0,"ss":45.0,"used":true,"health":1},{"PRN":8,"gnssid":0,"svid":8,"az":189.0,"el":65.0,"ss":49.0,"used":true,"health":1},{"PRN":10,"gnssid":0,"svid":10,"az":59.0,"el":47.0,"ss":50.0,"used":true,"health":1},{"PRN":3,"gnssid":0,"svid":3,"az":222.0,"el":4.0,"ss":0.0,"used":false,"health":1},{"PRN":32,"gnssid":0,"svid":32,"az":106.0,"el":36.0,"ss":43.0,"used":true,"health":1},{"PRN":21,"gnssid":0,"svid":21,"az":285.0,"el":66.0,"ss":47.0,"used":true,"health":1},{"PRN":17,"gnssid":0,"svid":17,"az":0.0,"el":-9.0,"ss":0.0,"used":false,"health":1},{"PRN":12,"gnssid":0,"svid":12,"az":0.0,"el":-9.0,"ss":0.0,"used":false,"health":1}]}
{"class":"TPV","device":"/dev/ttyACM0","mode":3,"time":"2024-07-09T10:13:11.499Z","ept":0.005,"lat":52.316118868,"lon":10.561374563,"altHAE":131.6755,"altMSL":87.7770,"alt":87.7770,"epx":12.114,"epy":24.818,"epv":49.910,"track":157.5968,"magtrack":160.8161,"magvar":3.2,"speed":0.005,"climb":-0.022,"eps":0.39,"epc":402.50,"ecefx":3841070.93,"ecefy":716157.11,"ecefz":5024486.66,"ecefvx":-0.01,"ecefvy":0.00,"ecefvz":-0.02,"ecefpAcc":4.98,"ecefvAcc":0.39,"velN":-0.004,"velE":0.002,"velD":0.022,"geoidSep":43.898,"eph":24.700,"sep":48.070}
{"class":"SKY","device":"/dev/ttyACM0","time":"2024-07-09T10:13:11.251Z","gdop":2.95,"hdop":1.30,"pdop":2.53,"tdop":1.53,"xdop":0.81,"ydop":1.65,"vdop":2.17,"uSat":6}
{"class":"SKY","device":"/dev/ttyACM0","time":"2024-07-09T10:13:11.251Z","gdop":2.95,"hdop":1.30,"pdop":2.53,"tdop":1.53,"xdop":0.81,"ydop":1.65,"vdop":2.17,"uSat":6}
{"class":"TPV","device":"/dev/ttyACM0","mode":3,"time":"2024-07-09T10:13:11.499Z","ept":0.005,"lat":52.316118868,"lon":10.561374563,"altHAE":131.6755,"altMSL":87.7770,"alt":87.7770,"epx":12.114,"epy":24.818,"epv":49.910,"track":157.5968,"magtrack":160.8161,"magvar":3.2,"speed":0.005,"climb":-0.022,"eps":200.15,"epc":402.50,"ecefx":3841070.93,"ecefy":716157.11,"ecefz":5024486.66,"ecefvx":-0.01,"ecefvy":0.00,"ecefvz":-0.02,"ecefpAcc":4.98,"ecefvAcc":0.39,"velN":-0.004,"velE":0.002,"velD":0.022,"geoidSep":43.898,"eph":24.700,"sep":48.070}
{"class":"SKY","device":"/dev/ttyACM0","time":"2024-07-09T10:13:11.499Z","gdop":2.95,"hdop":1.30,"pdop":2.53,"tdop":1.53,"xdop":0.81,"ydop":1.65,"vdop":2.17,"nSat":14,"uSat":7,"satellites":[{"PRN":2,"gnssid":0,"svid":2,"az":281.0,"el":47.0,"ss":48.0,"used":true,"health":1},{"PRN":22,"gnssid":0,"svid":22,"az":333.0,"el":9.0,"ss":19.0,"used":false,"health":1},{"PRN":27,"gnssid":0,"svid":27,"az":154.0,"el":36.0,"ss":45.0,"used":true,"health":1},{"PRN":23,"gnssid":0,"svid":23,"az":51.0,"el":12.0,"ss":0.0,"used":false,"health":1},{"PRN":24,"gnssid":0,"svid":24,"az":31.0,"el":3.0,"ss":0.0,"used":false,"health":1},{"PRN":15,"gnssid":0,"svid":15,"az":0.0,"el":-9.0,"ss":0.0,"used":false,"health":1},{"PRN":14,"gnssid":0,"svid":14,"az":315.0,"el":20.0,"ss":44.0,"used":true,"health":1},{"PRN":8,"gnssid":0,"svid":8,"az":189.0,"el":65.0,"ss":49.0,"used":true,"health":1},{"PRN":10,"gnssid":0,"svid":10,"az":59.0,"el":47.0,"ss":50.0,"used":true,"health":1},{"PRN":3,"gnssid":0,"svid":3,"az":222.0,"el":4.0,"ss":0.0,"used":false,"health":1},{"PRN":32,"gnssid":0,"svid":32,"az":106.0,"el":36.0,"ss":43.0,"used":true,"health":1},{"PRN":21,"gnssid":0,"svid":21,"az":285.0,"el":66.0,"ss":47.0,"used":true,"health":1},{"PRN":17,"gnssid":0,"svid":17,"az":0.0,"el":-9.0,"ss":0.0,"used":false,"health":1},{"PRN":12,"gnssid":0,"svid":12,"az":0.0,"el":-9.0,"ss":0.0,"used":false,"health":1}]}
{"class":"TPV","device":"/dev/ttyACM0","mode":3,"time":"2024-07-09T10:13:11.751Z","ept":0.005,"lat":52.316118966,"lon":10.561374878,"altHAE":131.6796,"altMSL":87.7811,"alt":87.7811,"epx":12.114,"epy":24.818,"epv":49.910,"track":157.5968,"magtrack":160.8161,"magvar":3.2,"speed":0.005,"climb":-0.022,"eps":0.39,"epc":396.11,"ecefx":3841070.92,"ecefy":716157.13,"ecefz":5024486.67,"ecefvx":-0.01,"ecefvy":0.00,"ecefvz":-0.02,"ecefpAcc":4.98,"ecefvAcc":0.39,"velN":-0.004,"velE":0.002,"velD":0.022,"geoidSep":43.898,"eph":24.700,"sep":48.070}
{"class":"SKY","device":"/dev/ttyACM0","time":"2024-07-09T10:13:11.499Z","gdop":2.95,"hdop":1.30,"pdop":2.53,"tdop":1.53,"xdop":0.81,"ydop":1.65,"vdop":2.17,"uSat":6}
{"class":"SKY","device":"/dev/ttyACM0","time":"2024-07-09T10:13:11.499Z","gdop":2.95,"hdop":1.30,"pdop":2.53,"tdop":1.53,"xdop":0.81,"ydop":1.65,"vdop":2.17,"uSat":6}
{"class":"TPV","device":"/dev/ttyACM0","mode":3,"time":"2024-07-09T10:13:11.751Z","ept":0.005,"lat":52.316118966,"lon":10.561374878,"altHAE":131.6796,"altMSL":87.7811,"alt":87.7811,"epx":12.114,"epy":24.818,"epv":49.910,"track":157.5968,"magtrack":160.8161,"magvar":3.2,"speed":0.005,"climb":-0.022,"eps":196.97,"epc":396.11,"ecefx":3841070.92,"ecefy":716157.13,"ecefz":5024486.67,"ecefvx":-0.01,"ecefvy":0.00,"ecefvz":-0.02,"ecefpAcc":4.98,"ecefvAcc":0.39,"velN":-0.004,"velE":0.002,"velD":0.022,"geoidSep":43.898,"eph":24.700,"sep":48.070}
{"class":"SKY","device":"/dev/ttyACM0","time":"2024-07-09T10:13:11.751Z","gdop":2.95,"hdop":1.30,"pdop":2.53,"tdop":1.53,"xdop":0.81,"ydop":1.65,"vdop":2.17,"nSat":14,"uSat":7,"satellites":[{"PRN":2,"gnssid":0,"svid":2,"az":281.0,"el":47.0,"ss":48.0,"used":true,"health":1},{"PRN":22,"gnssid":0,"svid":22,"az":333.0,"el":9.0,"ss":19.0,"used":false,"health":1},{"PRN":27,"gnssid":0,"svid":27,"az":154.0,"el":36.0,"ss":45.0,"used":true,"health":1},{"PRN":23,"gnssid":0,"svid":23,"az":51.0,"el":12.0,"ss":0.0,"used":false,"health":1},{"PRN":24,"gnssid":0,"svid":24,"az":31.0,"el":3.0,"ss":0.0,"used":false,"health":1},{"PRN":15,"gnssid":0,"svid":15,"az":0.0,"el":-9.0,"ss":0.0,"used":false,"health":1},{"PRN":14,"gnssid":0,"svid":14,"az":315.0,"el":20.0,"ss":44.0,"used":true,"health":1},{"PRN":8,"gnssid":0,"svid":8,"az":189.0,"el":65.0,"ss":49.0,"used":true,"health":1},{"PRN":10,"gnssid":0,"svid":10,"az":59.0,"el":47.0,"ss":50.0,"used":true,"health":1},{"PRN":3,"gnssid":0,"svid":3,"az":222.0,"el":4.0,"ss":0.0,"used":false,"health":1},{"PRN":32,"gnssid":0,"svid":32,"az":106.0,"el":36.0,"ss":43.0,"used":true,"health":1},{"PRN":21,"gnssid":0,"svid":21,"az":285.0,"el":66.0,"ss":47.0,"used":true,"health":1},{"PRN":17,"gnssid":0,"svid":17,"az":0.0,"el":-9.0,"ss":0.0,"used":false,"health":1},{"PRN":12,"gnssid":0,"svid":12,"az":0.0,"el":-9.0,"ss":0.0,"used":false,"health":1}]}
{"class":"TPV","device":"/dev/ttyACM0","mode":3,"time":"2024-07-09T10:13:11.999Z","ept":0.005,"lat":52.316119023,"lon":10.561375049,"altHAE":131.6747,"altMSL":87.7763,"alt":87.7763,"epx":12.114,"epy":24.818,"epv":49.910,"track":222.3744,"magtrack":225.5937,"magvar":3.2,"speed":0.015,"climb":-0.017,"eps":0.39,"epc":402.50,"ecefx":3841070.91,"ecefy":716157.14,"ecefz":5024486.67,"ecefvx":0.00,"ecefvy":-0.01,"ecefvz":-0.02,"ecefpAcc":4.98,"ecefvAcc":0.39,"velN":-0.011,"velE":-0.010,"velD":0.017,"geoidSep":43.898,"eph":24.700,"sep":48.070}
{"class":"SKY","device":"/dev/ttyACM0","time":"2024-07-09T10:13:11.751Z","gdop":2.95,"hdop":1.30,"pdop":2.53,"tdop":1.53,"xdop":0.81,"ydop":1.65,"vdop":2.17,"uSat":6}
{"class":"SKY","device":"/dev/ttyACM0","time":"2024-07-09T10:13:11.751Z","gdop":2.95,"hdop":1.30,"pdop":2.53,"tdop":1.53,"xdop":0.81,"ydop":1.65,"vdop":2.17,"uSat":6}
{"class":"TPV","device":"/dev/ttyACM0","mode":3,"time":"2024-07-09T10:13:11.999Z","ept":0.005,"lat":52.316119023,"lon":10.561375049,"altHAE":131.6747,"altMSL":87.7763,"alt":87.7763,"epx":12.114,"epy":24.818,"epv":49.910,"track":222.3744,"magtrack":225.5937,"magvar":3.2,"speed":0.015,"climb":-0.017,"eps":200.15,"epc":402.50,"ecefx":3841070.91,"ecefy":716157.14,"ecefz":5024486.67,"ecefvx":0.00,"ecefvy":-0.01,"ecefvz":-0.02,"ecefpAcc":4.98,"ecefvAcc":0.39,"velN":-0.011,"velE":-0.010,"velD":0.017,"geoidSep":43.898,"eph":24.700,"sep":48.070}
{"class":"SKY","device":"/dev/ttyACM0","time":"2024-07-09T10:13:11.999Z","gdop":2.95,"hdop":1.30,"pdop":2.53,"tdop":1.53,"xdop":0.81,"ydop":1.65,"vdop":2.17,"nSat":14,"uSat":7,"satellites":[{"PRN":2,"gnssid":0,"svid":2,"az":281.0,"el":47.0,"ss":48.0,"used":true,"health":1},{"PRN":22,"gnssid":0,"svid":22,"az":333.0,"el":9.0,"ss":19.0,"used":false,"health":1},{"PRN":27,"gnssid":0,"svid":27,"az":154.0,"el":36.0,"ss":45.0,"used":true,"health":1},{"PRN":23,"gnssid":0,"svid":23,"az":51.0,"el":12.0,"ss":0.0,"used":false,"health":1},{"PRN":24,"gnssid":0,"svid":24,"az":31.0,"el":3.0,"ss":0.0,"used":false,"health":1},{"PRN":15,"gnssid":0,"svid":15,"az":0.0,"el":-9.0,"ss":0.0,"used":false,"health":1},{"PRN":14,"gnssid":0,"svid":14,"az":315.0,"el":20.0,"ss":44.0,"used":true,"health":1},{"PRN":8,"gnssid":0,"svid":8,"az":189.0,"el":65.0,"ss":49.0,"used":true,"health":1},{"PRN":10,"gnssid":0,"svid":10,"az":59.0,"el":47.0,"ss":50.0,"used":true,"health":1},{"PRN":3,"gnssid":0,"svid":3,"az":222.0,"el":4.0,"ss":0.0,"used":false,"health":1},{"PRN":32,"gnssid":0,"svid":32,"az":106.0,"el":36.0,"ss":43.0,"used":true,"health":1},{"PRN":21,"gnssid":0,"svid":21,"az":285.0,"el":66.0,"ss":47.0,"used":true,"health":1},{"PRN":17,"gnssid":0,"svid":17,"az":0.0,"el":-9.0,"ss":0.0,"used":false,"health":1},{"PRN":12,"gnssid":0,"svid":12,"az":0.0,"el":-9.0,"ss":0.0,"used":false,"health":1}]}
{"class":"TPV","device":"/dev/ttyACM0","mode":3,"time":"2024-07-09T10:13:12.251Z","ept":0.005,"lat":52.316119422,"lon":10.561375311,"altHAE":131.7542,"altMSL":87.8557,"alt":87.8557,"epx":12.114,"epy":24.818,"epv":49.910,"track":359.4110,"magtrack":2.6304,"magvar":3.2,"speed":0.130,"climb":0.001,"eps":0.38,"epc":396.11,"ecefx":3841070.92,"ecefy":716157.16,"ecefz":5024486.76,"ecefvx":-0.10,"ecefvy":-0.02,"ecefvz":0.08,"ecefpAcc":4.98,"ecefvAcc":0.38,"velN":0.130,"velE":-0.001,"velD":-0.001,"geoidSep":43.898,"eph":24.700,"sep":48.070}
{"class":"SKY","device":"/dev/ttyACM0","time":"2024-07-09T10:13:11.999Z","gdop":2.95,"hdop":1.30,"pdop":2.53,"tdop":1.53,"xdop":0.81,"ydop":1.65,"vdop":2.17,"uSat":6}
{"class":"SKY","device":"/dev/ttyACM0","time":"2024-07-09T10:13:11.999Z","gdop":2.95,"hdop":1.30,"pdop":2.53,"tdop":1.53,"xdop":0.81,"ydop":1.65,"vdop":2.17,"uSat":6}
{"class":"TPV","device":"/dev/ttyACM0","mode":3,"time":"2024-07-09T10:13:12.251Z","ept":0.005,"lat":52.316119422,"lon":10.561375311,"altHAE":131.7542,"altMSL":87.8557,"alt":87.8557,"epx":12.114,"epy":24.818,"epv":49.910,"track":359.4110,"magtrack":2.6304,"magvar":3.2,"speed":0.130,"climb":0.001,"eps":196.97,"epc":396.11,"ecefx":3841070.92,"ecefy":716157.16,"ecefz":5024486.76,"ecefvx":-0.10,"ecefvy":-0.02,"ecefvz":0.08,"ecefpAcc":4.98,"ecefvAcc":0.38,"velN":0.130,"velE":-0.001,"velD":-0.001,"geoidSep":43.898,"eph":24.700,"sep":48.070}
{"class":"SKY","device":"/dev/ttyACM0","time":"2024-07-09T10:13:12.251Z","gdop":2.95,"hdop":1.30,"pdop":2.53,"tdop":1.53,"xdop":0.81,"ydop":1.65,"vdop":2.17,"nSat":14,"uSat":7,"satellites":[{"PRN":2,"gnssid":0,"svid":2,"az":281.0,"el":47.0,"ss":48.0,"used":true,"health":1},{"PRN":22,"gnssid":0,"svid":22,"az":333.0,"el":9.0,"ss":19.0,"used":false,"health":1},{"PRN":27,"gnssid":0,"svid":27,"az":154.0,"el":36.0,"ss":45.0,"used":true,"health":1},{"PRN":23,"gnssid":0,"svid":23,"az":51.0,"el":12.0,"ss":0.0,"used":false,"health":1},{"PRN":24,"gnssid":0,"svid":24,"az":31.0,"el":3.0,"ss":0.0,"used":false,"health":1},{"PRN":15,"gnssid":0,"svid":15,"az":0.0,"el":-9.0,"ss":0.0,"used":false,"health":1},{"PRN":14,"gnssid":0,"svid":14,"az":315.0,"el":20.0,"ss":44.0,"used":true,"health":1},{"PRN":8,"gnssid":0,"svid":8,"az":189.0,"el":65.0,"ss":49.0,"used":true,"health":1},{"PRN":10,"gnssid":0,"svid":10,"az":59.0,"el":47.0,"ss":50.0,"used":true,"health":1},{"PRN":3,"gnssid":0,"svid":3,"az":222.0,"el":4.0,"ss":0.0,"used":false,"health":1},{"PRN":32,"gnssid":0,"svid":32,"az":106.0,"el":36.0,"ss":43.0,"used":true,"health":1},{"PRN":21,"gnssid":0,"svid":21,"az":285.0,"el":66.0,"ss":47.0,"used":true,"health":1},{"PRN":17,"gnssid":0,"svid":17,"az":0.0,"el":-9.0,"ss":0.0,"used":false,"health":1},{"PRN":12,"gnssid":0,"svid":12,"az":43.0,"el":-9.0,"ss":0.0,"used":false,"health":1}]}
{"class":"TPV","device":"/dev/ttyACM0","mode":3,"time":"2024-07-09T10:13:12.499Z","ept":0.005,"lat":52.316119603,"lon":10.561375509,"altHAE":131.7512,"altMSL":87.8527,"alt":87.8527,"epx":12.114,"epy":24.818,"epv":49.910,"track":64.6257,"magtrack":67.8451,"magvar":3.2,"speed":0.011,"climb":0.009,"eps":0.39,"epc":402.50,"ecefx":3841070.90,"ecefy":716157.17,"ecefz":5024486.77,"ecefvx":0.00,"ecefvy":0.01,"ecefvz":0.01,"ecefpAcc":4.98,"ecefvAcc":0.39,"velN":0.005,"velE":0.010,"velD":-0.009,"geoidSep":43.898,"eph":24.700,"sep":48.070}
{"class":"SKY","device":"/dev/ttyACM0","time":"2024-07-09T10:13:12.251Z","gdop":2.95,"hdop":1.30,"pdop":2.53,"tdop":1.53,"xdop":0.81,"ydop":1.65,"vdop":2.17,"uSat":6}
{"class":"SKY","device":"/dev/ttyACM0","time":"2024-07-09T10:13:12.251Z","gdop":2.95,"hdop":1.30,"pdop":2.53,"tdop":1.53,"xdop":0.81,"ydop":1.65,"vdop":2.17,"uSat":6}
{"class":"TPV","device":"/dev/ttyACM0","mode":3,"time":"2024-07-09T10:13:12.499Z","ept":0.005,"lat":52.316119603,"lon":10.561375509,"altHAE":131.7512,"altMSL":87.8527,"alt":87.8527,"epx":12.114,"epy":24.818,"epv":49.910,"track":64.6257,"magtrack":67.8451,"magvar":3.2,"speed":0.011,"climb":0.009,"eps":200.15,"epc":402.50,"ecefx":3841070.90,"ecefy":716157.17,"ecefz":5024486.77,"ecefvx":0.00,"ecefvy":0.01,"ecefvz":0.01,"ecefpAcc":4.98,"ecefvAcc":0.39,"velN":0.005,"velE":0.010,"velD":-0.009,"geoidSep":43.898,"eph":24.700,"sep":48.070}
{"class":"SKY","device":"/dev/ttyACM0","time":"2024-07-09T10:13:12.499Z","gdop":2.95,"hdop":1.30,"pdop":2.53,"tdop":1.53,"xdop":0.81,"ydop":1.65,"vdop":2.17,"nSat":14,"uSat":7,"satellites":[{"PRN":2,"gnssid":0,"svid":2,"az":281.0,"el":47.0,"ss":48.0,"used":true,"health":1},{"PRN":22,"gnssid":0,"svid":22,"az":333.0,"el":9.0,"ss":19.0,"used":false,"health":1},{"PRN":27,"gnssid":0,"svid":27,"az":154.0,"el":36.0,"ss":45.0,"used":true,"health":1},{"PRN":23,"gnssid":0,"svid":23,"az":51.0,"el":12.0,"ss":0.0,"used":false,"health":1},{"PRN":24,"gnssid":0,"svid":24,"az":31.0,"el":3.0,"ss":0.0,"used":false,"health":1},{"PRN":15,"gnssid":0,"svid":15,"az":0.0,"el":-9.0,"ss":0.0,"used":false,"health":1},{"PRN":14,"gnssid":0,"svid":14,"az":315.0,"el":20.0,"ss":44.0,"used":true,"health":1},{"PRN":8,"gnssid":0,"svid":8,"az":189.0,"el":65.0,"ss":49.0,"used":true,"health":1},{"PRN":10,"gnssid":0,"svid":10,"az":59.0,"el":47.0,"ss":50.0,"used":true,"health":1},{"PRN":3,"gnssid":0,"svid":3,"az":222.0,"el":4.0,"ss":0.0,"used":false,"health":1},{"PRN":32,"gnssid":0,"svid":32,"az":106.0,"el":36.0,"ss":43.0,"used":true,"health":1},{"PRN":21,"gnssid":0,"svid":21,"az":285.0,"el":66.0,"ss":47.0,"used":true,"health":1},{"PRN":17,"gnssid":0,"svid":17,"az":0.0,"el":-9.0,"ss":0.0,"used":false,"health":1},{"PRN":33,"gnssid":1,"svid":120,"az":0.0,"el":-9.0,"ss":0.0,"used":false,"health":1}]}
{"class":"TPV","device":"/dev/ttyACM0","mode":3,"time":"2024-07-09T10:13:12.751Z","ept":0.005,"lat":52.316119702,"lon":10.561375824,"altHAE":131.7554,"altMSL":87.8569,"alt":87.8569,"epx":12.114,"epy":24.818,"epv":49.910,"track":96.5997,"magtrack":99.8191,"magvar":3.2,"speed":0.061,"climb":-0.007,"eps":0.38,"epc":396.11,"ecefx":3841070.89,"ecefy":716157.19,"ecefz":5024486.78,"ecefvx":-0.01,"ecefvy":0.06,"ecefvz":-0.01,"ecefpAcc":4.98,"ecefvAcc":0.38,"velN":-0.007,"velE":0.061,"velD":0.007,"geoidSep":43.898,"eph":24.700,"sep":48.070}
{"class":"SKY","device":"/dev/ttyACM0","time":"2024-07-09T10:13:12.499Z","gdop":2.95,"hdop":1.30,"pdop":2.53,"tdop":1.53,"xdop":0.81,"ydop":1.65,"vdop":2.17,"uSat":6}
{"class":"SKY","device":"/dev/ttyACM0","time":"2024-07-09T10:13:12.499Z","gdop":2.95,"hdop":1.30,"pdop":2.53,"tdop":1.53,"xdop":0.81,"ydop":1.65,"vdop":2.17,"uSat":6}
{"class":"TPV","device":"/dev/ttyACM0","mode":3,"time":"2024-07-09T10:13:12.751Z","ept":0.005,"lat":52.316119702,"lon":10.561375824,"altHAE":131.7554,"altMSL":87.8569,"alt":87.8569,"epx":12.114,"epy":24.818,"epv":49.910,"track":96.5997,"magtrack":99.8191,"magvar":3.2,"speed":0.061,"climb":-0.007,"eps":196.97,"epc":396.11,"ecefx":3841070.89,"ecefy":716157.19,"ecefz":5024486.78,"ecefvx":-0.01,"ecefvy":0.06,"ecefvz":-0.01,"ecefpAcc":4.98,"ecefvAcc":0.38,"velN":-0.007,"velE":0.061,"velD":0.007,"geoidSep":43.898,"eph":24.700,"sep":48.070}
{"class":"SKY","device":"/dev/ttyACM0","time":"2024-07-09T10:13:12.751Z","gdop":2.95,"hdop":1.30,"pdop":2.53,"tdop":1.53,"xdop":0.81,"ydop":1.65,"vdop":2.17,"nSat":14,"uSat":7,"satellites":[{"PRN":2,"gnssid":0,"svid":2,"az":281.0,"el":47.0,"ss":48.0,"used":true,"health":1},{"PRN":22,"gnssid":0,"svid":22,"az":333.0,"el":9.0,"ss":19.0,"used":false,"health":1},{"PRN":27,"gnssid":0,"svid":27,"az":154.0,"el":36.0,"ss":45.0,"used":true,"health":1},{"PRN":23,"gnssid":0,"svid":23,"az":51.0,"el":12.0,"ss":0.0,"used":false,"health":1},{"PRN":24,"gnssid":0,"svid":24,"az":31.0,"el":3.0,"ss":0.0,"used":false,"health":1},{"PRN":15,"gnssid":0,"svid":15,"az":0.0,"el":-9.0,"ss":0.0,"used":false,"health":1},{"PRN":14,"gnssid":0,"svid":14,"az":315.0,"el":20.0,"ss":44.0,"used":true,"health":1},{"PRN":8,"gnssid":0,"svid":8,"az":189.0,"el":65.0,"ss":49.0,"used":true,"health":1},{"PRN":10,"gnssid":0,"svid":10,"az":59.0,"el":47.0,"ss":50.0,"used":true,"health":1},{"PRN":3,"gnssid":0,"svid":3,"az":222.0,"el":4.0,"ss":0.0,"used":false,"health":1},{"PRN":32,"gnssid":0,"svid":32,"az":106.0,"el":36.0,"ss":43.0,"used":true,"health":1},{"PRN":21,"gnssid":0,"svid":21,"az":285.0,"el":66.0,"ss":47.0,"used":true,"health":1},{"PRN":17,"gnssid":0,"svid":17,"az":0.0,"el":-9.0,"ss":0.0,"used":false,"health":1},{"PRN":33,"gnssid":1,"svid":120,"az":0.0,"el":-9.0,"ss":0.0,"used":false,"health":1}]}
{"class":"TPV","device":"/dev/ttyACM0","mode":3,"time":"2024-07-09T10:13:12.999Z","ept":0.005,"lat":52.316119804,"lon":10.561376716,"altHAE":131.7719,"altMSL":87.8734,"alt":87.8734,"epx":12.114,"epy":24.818,"epv":49.910,"track":99.7661,"magtrack":102.9854,"magvar":3.2,"speed":0.265,"climb":-0.028,"eps":0.38,"epc":402.50,"ecefx":3841070.88,"ecefy":716157.25,"ecefz":5024486.80,"ecefvx":-0.03,"ecefvy":0.26,"ecefvz":-0.05,"ecefpAcc":4.98,"ecefvAcc":0.38,"velN":-0.045,"velE":0.261,"velD":0.028,"geoidSep":43.898,"eph":24.700,"sep":48.070}
{"class":"SKY","device":"/dev/ttyACM0","time":"2024-07-09T10:13:12.751Z","gdop":2.95,"hdop":1.30,"pdop":2.53,"tdop":1.53,"xdop":0.81,"ydop":1.65,"vdop":2.17,"uSat":6}
{"class":"SKY","device":"/dev/ttyACM0","time":"2024-07-09T10:13:12.751Z","gdop":2.95,"hdop":1.30,"pdop":2.53,"tdop":1.53,"xdop":0.81,"ydop":1.65,"vdop":2.17,"uSat":6}
{"class":"TPV","device":"/dev/ttyACM0","mode":3,"time":"2024-07-09T10:13:12.999Z","ept":0.005,"lat":52.316119804,"lon":10.561376716,"altHAE":131.7719,"altMSL":87.8734,"alt":87.8734,"epx":12.114,"epy":24.818,"epv":49.910,"track":99.7661,"magtrack":102.9854,"magvar":3.2,"speed":0.265,"climb":-0.028,"eps":200.15,"epc":402.50,"ecefx":3841070.88,"ecefy":716157.25,"ecefz":5024486.80,"ecefvx":-0.03,"ecefvy":0.26,"ecefvz":-0.05,"ecefpAcc":4.98,"ecefvAcc":0.38,"velN":-0.045,"velE":0.261,"velD":0.028,"geoidSep":43.898,"eph":24.700,"sep":48.070}
{"class":"SKY","device":"/dev/ttyACM0","time":"2024-07-09T10:13:12.999Z","gdop":2.95,"hdop":1.30,"pdop":2.53,"tdop":1.53,"xdop":0.81,"ydop":1.65,"vdop":2.17,"nSat":14,"uSat":7,"satellites":[{"PRN":2,"gnssid":0,"svid":2,"az":281.0,"el":47.0,"ss":48.0,"used":true,"health":1},{"PRN":22,"gnssid":0,"svid":22,"az":333.0,"el":9.0,"ss":19.0,"used":false,"health":1},{"PRN":27,"gnssid":0,"svid":27,"az":154.0,"el":36.0,"ss":46.0,"used":true,"health":1},{"PRN":23,"gnssid":0,"svid":23,"az":51.0,"el":12.0,"ss":0.0,"used":false,"health":1},{"PRN":24,"gnssid":0,"svid":24,"az":31.0,"el":3.0,"ss":0.0,"used":false,"health":1},{"PRN":15,"gnssid":0,"svid":15,"az":0.0,"el":-9.0,"ss":0.0,"used":false,"health":1},{"PRN":14,"gnssid":0,"svid":14,"az":315.0,"el":20.0,"ss":44.0,"used":true,"health":1},{"PRN":8,"gnssid":0,"svid":8,"az":189.0,"el":65.0,"ss":49.0,"used":true,"health":1},{"PRN":10,"gnssid":0,"svid":10,"az":59.0,"el":47.0,"ss":49.0,"used":true,"health":1},{"PRN":3,"gnssid":0,"svid":3,"az":222.0,"el":4.0,"ss":0.0,"used":false,"health":1},{"PRN":32,"gnssid":0,"svid":32,"az":106.0,"el":36.0,"ss":44.0,"used":true,"health":1},{"PRN":21,"gnssid":0,"svid":21,"az":285.0,"el":66.0,"ss":47.0,"used":true,"health":1},{"PRN":17,"gnssid":0,"svid":17,"az":0.0,"el":-9.0,"ss":0.0,"used":false,"health":1},{"PRN":33,"gnssid":1,"svid":120,"az":0.0,"el":-9.0,"ss":0.0,"used":false,"health":1}]}
{"class":"TPV","device":"/dev/ttyACM0","mode":3,"time":"2024-07-09T10:13:13.251Z","ept":0.005,"lat":52.316119882,"lon":10.561378472,"altHAE":131.8031,"altMSL":87.9046,"alt":87.9046,"epx":12.114,"epy":24.818,"epv":49.910,"track":103.1771,"magtrack":106.3965,"magvar":3.2,"speed":0.557,"climb":-0.016,"eps":0.38,"epc":396.11,"ecefx":3841070.87,"ecefy":716157.37,"ecefz":5024486.83,"ecefvx":-0.01,"ecefvy":0.55,"ecefvz":-0.09,"ecefpAcc":4.98,"ecefvAcc":0.38,"velN":-0.127,"velE":0.543,"velD":0.016,"geoidSep":43.898,"eph":24.700,"sep":48.070}
{"class":"SKY","device":"/dev/ttyACM0","time":"2024-07-09T10:13:12.999Z","gdop":2.95,"hdop":1.30,"pdop":2.53,"tdop":1.53,"xdop":0.81,"ydop":1.65,"vdop":2.17,"uSat":6}
{"class":"SKY","device":"/dev/ttyACM0","time":"2024-07-09T10:13:12.999Z","gdop":2.95,"hdop":1.30,"pdop":2.53,"tdop":1.53,"xdop":0.81,"ydop":1.65,"vdop":2.17,"uSat":6}
{"class":"TPV","device":"/dev/ttyACM0","mode":3,"time":"2024-07-09T10:13:13.251Z","ept":0.005,"lat":52.316119882,"lon":10.561378472,"altHAE":131.8031,"altMSL":87.9046,"alt":87.9046,"epx":12.114,"epy":24.818,"epv":49.910,"track":103.1771,"magtrack":106.3965,"magvar":3.2,"speed":0.557,"climb":-0.016,"eps":196.97,"epc":396.11,"ecefx":3841070.87,"ecefy":716157.37,"ecefz":5024486.83,"ecefvx":-0.01,"ecefvy":0.55,"ecefvz":-0.09,"ecefpAcc":4.98,"ecefvAcc":0.38,"velN":-0.127,"velE":0.543,"velD":0.016,"geoidSep":43.898,"eph":24.700,"sep":48.070}
{"class":"SKY","device":"/dev/ttyACM0","time":"2024-07-09T10:13:13.251Z","gdop":2.95,"hdop":1.30,"pdop":2.53,"tdop":1.53,"xdop":0.81,"ydop":1.65,"vdop":2.17,"nSat":14,"uSat":7,"satellites":[{"PRN":2,"gnssid":0,"svid":2,"az":281.0,"el":47.0,"ss":48.0,"used":true,"health":1},{"PRN":22,"gnssid":0,"svid":22,"az":333.0,"el":9.0,"ss":20.0,"used":false,"health":1},{"PRN":27,"gnssid":0,"svid":27,"az":154.0,"el":36.0,"ss":47.0,"used":true,"health":1},{"PRN":23,"gnssid":0,"svid":23,"az":51.0,"el":12.0,"ss":0.0,"used":false,"health":1},{"PRN":24,"gnssid":0,"svid":24,"az":31.0,"el":3.0,"ss":0.0,"used":false,"health":1},{"PRN":15,"gnssid":0,"svid":15,"az":0.0,"el":-9.0,"ss":0.0,"used":false,"health":1},{"PRN":14,"gnssid":0,"svid":14,"az":315.0,"el":20.0,"ss":44.0,"used":true,"health":1},{"PRN":8,"gnssid":0,"svid":8,"az":189.0,"el":65.0,"ss":49.0,"used":true,"health":1},{"PRN":10,"gnssid":0,"svid":10,"az":59.0,"el":47.0,"ss":49.0,"used":true,"health":1},{"PRN":3,"gnssid":0,"svid":3,"az":222.0,"el":4.0,"ss":0.0,"used":false,"health":1},{"PRN":32,"gnssid":0,"svid":32,"az":106.0,"el":36.0,"ss":44.0,"used":true,"health":1},{"PRN":21,"gnssid":0,"svid":21,"az":285.0,"el":66.0,"ss":47.0,"used":true,"health":1},{"PRN":17,"gnssid":0,"svid":17,"az":0.0,"el":-9.0,"ss":0.0,"used":false,"health":1},{"PRN":33,"gnssid":1,"svid":120,"az":0.0,"el":-9.0,"ss":0.0,"used":false,"health":1}]}
{"class":"TPV","device":"/dev/ttyACM0","mode":3,"time":"2024-07-09T10:13:13.499Z","ept":0.005,"lat":52.316119607,"lon":10.561381094,"altHAE":131.8014,"altMSL":87.9029,"alt":87.9029,"epx":12.114,"epy":24.818,"epv":49.910,"track":104.4989,"magtrack":107.7182,"magvar":3.2,"speed":0.853,"climb":-0.025,"eps":0.38,"epc":402.50,"ecefx":3841070.86,"ecefy":716157.55,"ecefz":5024486.81,"ecefvx":0.00,"ecefvy":0.84,"ecefvz":-0.15,"ecefpAcc":4.98,"ecefvAcc":0.38,"velN":-0.214,"velE":0.826,"velD":0.025,"geoidSep":43.898,"eph":24.700,"sep":48.070}
{"class":"SKY","device":"/dev/ttyACM0","time":"2024-07-09T10:13:13.251Z","gdop":2.95,"hdop":1.30,"pdop":2.53,"tdop":1.53,"xdop":0.81,"ydop":1.65,"vdop":2.17,"uSat":6}
{"class":"SKY","device":"/dev/ttyACM0","time":"2024-07-09T10:13:13.251Z","gdop":2.95,"hdop":1.30,"pdop":2.53,"tdop":1.53,"xdop":0.81,"ydop":1.65,"vdop":2.17,"uSat":6}
{"class":"TPV","device":"/dev/ttyACM0","mode":3,"time":"2024-07-09T10:13:13.499Z","ept":0.005,"lat":52.316119607,"lon":10.561381094,"altHAE":131.8014,"altMSL":87.9029,"alt":87.9029,"epx":12.114,"epy":24.818,"epv":49.910,"track":104.4989,"magtrack":107.7182,"magvar":3.2,"speed":0.853,"climb":-0.025,"eps":200.15,"epc":402.50,"ecefx":3841070.86,"ecefy":716157.55,"ecefz":5024486.81,"ecefvx":0.00,"ecefvy":0.84,"ecefvz":-0.15,"ecefpAcc":4.98,"ecefvAcc":0.38,"velN":-0.214,"velE":0.826,"velD":0.025,"geoidSep":43.898,"eph":24.700,"sep":48.070}
{"class":"SKY","device":"/dev/ttyACM0","time":"2024-07-09T10:13:13.499Z","gdop":2.95,"hdop":1.30,"pdop":2.53,"tdop":1.53,"xdop":0.81,"ydop":1.65,"vdop":2.17,"nSat":14,"uSat":7,"satellites":[{"PRN":2,"gnssid":0,"svid":2,"az":281.0,"el":47.0,"ss":48.0,"used":true,"health":1},{"PRN":22,"gnssid":0,"svid":22,"az":333.0,"el":9.0,"ss":23.0,"used":false,"health":1},{"PRN":27,"gnssid":0,"svid":27,"az":154.0,"el":36.0,"ss":46.0,"used":true,"health":1},{"PRN":23,"gnssid":0,"svid":23,"az":51.0,"el":12.0,"ss":0.0,"used":false,"health":1},{"PRN":24,"gnssid":0,"svid":24,"az":31.0,"el":3.0,"ss":0.0,"used":false,"health":1},{"PRN":15,"gnssid":0,"svid":15,"az":0.0,"el":-9.0,"ss":0.0,"used":false,"health":1},{"PRN":14,"gnssid":0,"svid":14,"az":315.0,"el":20.0,"ss":44.0,"used":true,"health":1},{"PRN":8,"gnssid":0,"svid":8,"az":189.0,"el":65.0,"ss":48.0,"used":true,"health":1},{"PRN":10,"gnssid":0,"svid":10,"az":59.0,"el":47.0,"ss":49.0,"used":true,"health":1},{"PRN":3,"gnssid":0,"svid":3,"az":222.0,"el":4.0,"ss":0.0,"used":false,"health":1},{"PRN":32,"gnssid":0,"svid":32,"az":106.0,"el":36.0,"ss":45.0,"used":true,"health":1},{"PRN":21,"gnssid":0,"svid":21,"az":285.0,"el":66.0,"ss":47.0,"used":true,"health":1},{"PRN":17,"gnssid":0,"svid":17,"az":0.0,"el":-9.0,"ss":0.0,"used":false,"health":1},{"PRN":33,"gnssid":1,"svid":120,"az":0.0,"el":-9.0,"ss":0.0,"used":false,"health":1}]}
{"class":"TPV","device":"/dev/ttyACM0","mode":3,"time":"2024-07-09T10:13:13.751Z","ept":0.005,"lat":52.316119148,"lon":10.561385157,"altHAE":131.8031,"altMSL":87.9046,"alt":87.9046,"epx":12.114,"epy":24.818,"epv":49.910,"track":105.2528,"magtrack":108.4722,"magvar":3.2,"speed":1.282,"climb":-0.043,"eps":0.38,"epc":396.11,"ecefx":3841070.85,"ecefy":716157.83,"ecefz":5024486.78,"ecefvx":0.01,"ecefvy":1.26,"ecefvz":-0.24,"ecefpAcc":4.98,"ecefvAcc":0.38,"velN":-0.337,"velE":1.237,"velD":0.043,"geoidSep":43.898,"eph":24.700,"sep":47.880}
{"class":"SKY","device":"/dev/ttyACM0","time":"2024-07-09T10:13:13.499Z","gdop":2.95,"hdop":1.30,"pdop":2.52,"tdop":1.53,"xdop":0.81,"ydop":1.65,"vdop":2.17,"uSat":6}
{"class":"SKY","device":"/dev/ttyACM0","time":"2024-07-09T10:13:13.499Z","gdop":2.95,"hdop":1.30,"pdop":2.52,"tdop":1.53,"xdop":0.81,"ydop":1.65,"vdop":2.17,"uSat":6}
{"class":"TPV","device":"/dev/ttyACM0","mode":3,"time":"2024-07-09T10:13:13.751Z","ept":0.005,"lat":52.316119148,"lon":10.561385157,"altHAE":131.8031,"altMSL":87.9046,"alt":87.9046,"epx":12.114,"epy":24.818,"epv":49.910,"track":105.2528,"magtrack":108.4722,"magvar":3.2,"speed":1.282,"climb":-0.043,"eps":196.97,"epc":396.11,"ecefx":3841070.85,"ecefy":716157.83,"ecefz":5024486.78,"ecefvx":0.01,"ecefvy":1.26,"ecefvz":-0.24,"ecefpAcc":4.98,"ecefvAcc":0.38,"velN":-0.337,"velE":1.237,"velD":0.043,"geoidSep":43.898,"eph":24.700,"sep":47.880}
{"class":"SKY","device":"/dev/ttyACM0","time":"2024-07-09T10:13:13.751Z","gdop":2.95,"hdop":1.30,"pdop":2.52,"tdop":1.53,"xdop":0.81,"ydop":1.65,"vdop":2.17,"nSat":14,"uSat":7,"satellites":[{"PRN":2,"gnssid":0,"svid":2,"az":281.0,"el":47.0,"ss":48.0,"used":true,"health":1},{"PRN":22,"gnssid":0,"svid":22,"az":333.0,"el":9.0,"ss":25.0,"used":false,"health":1},{"PRN":27,"gnssid":0,"svid":27,"az":154.0,"el":36.0,"ss":46.0,"used":true,"health":1},{"PRN":23,"gnssid":0,"svid":23,"az":51.0,"el":12.0,"ss":0.0,"used":false,"health":1},{"PRN":24,"gnssid":0,"svid":24,"az":31.0,"el":3.0,"ss":0.0,"used":false,"health":1},{"PRN":15,"gnssid":0,"svid":15,"az":0.0,"el":-9.0,"ss":0.0,"used":false,"health":1},{"PRN":14,"gnssid":0,"svid":14,"az":315.0,"el":20.0,"ss":42.0,"used":true,"health":1},{"PRN":8,"gnssid":0,"svid":8,"az":189.0,"el":65.0,"ss":48.0,"used":true,"health":1},{"PRN":10,"gnssid":0,"svid":10,"az":59.0,"el":47.0,"ss":48.0,"used":true,"health":1},{"PRN":3,"gnssid":0,"svid":3,"az":222.0,"el":4.0,"ss":0.0,"used":false,"health":1},{"PRN":32,"gnssid":0,"svid":32,"az":106.0,"el":36.0,"ss":45.0,"used":true,"health":1},{"PRN":21,"gnssid":0,"svid":21,"az":285.0,"el":66.0,"ss":47.0,"used":true,"health":1},{"PRN":17,"gnssid":0,"svid":17,"az":0.0,"el":-9.0,"ss":0.0,"used":false,"health":1},{"PRN":33,"gnssid":1,"svid":120,"az":0.0,"el":-9.0,"ss":0.0,"used":false,"health":1}]}
{"class":"TPV","device":"/dev/ttyACM0","mode":3,"time":"2024-07-09T10:13:13.999Z","ept":0.005,"lat":52.316118459,"lon":10.561390347,"altHAE":131.8117,"altMSL":87.9133,"alt":87.9133,"epx":12.114,"epy":24.818,"epv":49.910,"track":104.1366,"magtrack":107.3560,"magvar":3.2,"speed":1.571,"climb":-0.032,"eps":0.38,"epc":402.50,"ecefx":3841070.85,"ecefy":716158.19,"ecefz":5024486.74,"ecefvx":0.00,"ecefvy":1.55,"ecefvz":-0.26,"ecefpAcc":4.98,"ecefvAcc":0.38,"velN":-0.384,"velE":1.524,"velD":0.032,"geoidSep":43.898,"eph":24.700,"sep":48.070}
{"class":"SKY","device":"/dev/ttyACM0","time":"2024-07-09T10:13:13.751Z","gdop":2.95,"hdop":1.30,"pdop":2.53,"tdop":1.53,"xdop":0.81,"ydop":1.65,"vdop":2.17,"uSat":6}
{"class":"SKY","device":"/dev/ttyACM0","time":"2024-07-09T10:13:13.751Z","gdop":2.95,"hdop":1.30,"pdop":2.53,"tdop":1.53,"xdop":0.81,"ydop":1.65,"vdop":2.17,"uSat":6}
{"class":"TPV","device":"/dev/ttyACM0","mode":3,"time":"2024-07-09T10:13:13.999Z","ept":0.005,"lat":52.316118459,"lon":10.561390347,"altHAE":131.8117,"altMSL":87.9133,"alt":87.9133,"epx":12.114,"epy":24.818,"epv":49.910,"track":104.1366,"magtrack":107.3560,"magvar":3.2,"speed":1.571,"climb":-0.032,"eps":200.15,"epc":402.50,"ecefx":3841070.85,"ecefy":716158.19,"ecefz":5024486.74,"ecefvx":0.00,"ecefvy":1.55,"ecefvz":-0.26,"ecefpAcc":4.98,"ecefvAcc":0.38,"velN":-0.384,"velE":1.524,"velD":0.032,"geoidSep":43.898,"eph":24.700,"sep":48.070}
{"class":"SKY","device":"/dev/ttyACM0","time":"2024-07-09T10:13:13.999Z","gdop":2.95,"hdop":1.30,"pdop":2.53,"tdop":1.53,"xdop":0.81,"ydop":1.65,"vdop":2.17,"nSat":14,"uSat":7,"satellites":[{"PRN":2,"gnssid":0,"svid":2,"az":281.0,"el":47.0,"ss":48.0,"used":true,"health":1},{"PRN":22,"gnssid":0,"svid":22,"az":333.0,"el":9.0,"ss":27.0,"used":false,"health":1},{"PRN":27,"gnssid":0,"svid":27,"az":154.0,"el":36.0,"ss":45.0,"used":true,"health":1},{"PRN":23,"gnssid":0,"svid":23,"az":51.0,"el":12.0,"ss":0.0,"used":false,"health":1},{"PRN":24,"gnssid":0,"svid":24,"az":31.0,"el":3.0,"ss":0.0,"used":false,"health":1},{"PRN":15,"gnssid":0,"svid":15,"az":0.0,"el":-9.0,"ss":0.0,"used":false,"health":1},{"PRN":14,"gnssid":0,"svid":14,"az":315.0,"el":20.0,"ss":40.0,"used":true,"health":1},{"PRN":8,"gnssid":0,"svid":8,"az":189.0,"el":65.0,"ss":48.0,"used":true,"health":1},{"PRN":10,"gnssid":0,"svid":10,"az":59.0,"el":47.0,"ss":49.0,"used":true,"health":1},{"PRN":3,"gnssid":0,"svid":3,"az":222.0,"el":4.0,"ss":0.0,"used":false,"health":1},{"PRN":32,"gnssid":0,"svid":32,"az":106.0,"el":36.0,"ss":45.0,"used":true,"health":1},{"PRN":21,"gnssid":0,"svid":21,"az":285.0,"el":66.0,"ss":46.0,"used":true,"health":1},{"PRN":17,"gnssid":0,"svid":17,"az":0.0,"el":-9.0,"ss":0.0,"used":false,"health":1},{"PRN":33,"gnssid":1,"svid":120,"az":0.0,"el":-9.0,"ss":0.0,"used":false,"health":1}]}
{"class":"TPV","device":"/dev/ttyACM0","mode":3,"time":"2024-07-09T10:13:14.251Z","ept":0.005,"lat":52.316117513,"lon":10.561396546,"altHAE":131.8045,"altMSL":87.9060,"alt":87.9060,"epx":12.114,"epy":24.818,"epv":49.910,"track":106.6369,"magtrack":109.8562,"magvar":3.2,"speed":1.796,"climb":-0.058,"eps":0.38,"epc":396.11,"ecefx":3841070.85,"ecefy":716158.62,"ecefz":5024486.67,"ecefvx":0.05,"ecefvy":1.76,"ecefvz":-0.36,"ecefpAcc":4.98,"ecefvAcc":0.38,"velN":-0.514,"velE":1.721,"velD":0.058,"geoidSep":43.898,"eph":24.700,"sep":48.070}
{"class":"SKY","device":"/dev/ttyACM0","time":"2024-07-09T10:13:13.999Z","gdop":2.95,"hdop":1.30,"pdop":2.53,"tdop":1.53,"xdop":0.81,"ydop":1.65,"vdop":2.17,"uSat":6}
{"class":"SKY","device":"/dev/ttyACM0","time":"2024-07-09T10:13:13.999Z","gdop":2.95,"hdop":1.30,"pdop":2.53,"tdop":1.53,"xdop":0.81,"ydop":1.65,"vdop":2.17,"uSat":6}
{"class":"TPV","device":"/dev/ttyACM0","mode":3,"time":"2024-07-09T10:13:14.251Z","ept":0.005,"lat":52.316117513,"lon":10.561396546,"altHAE":131.8045,"altMSL":87.9060,"alt":87.9060,"epx":12.114,"epy":24.818,"epv":49.910,"track":106.6369,"magtrack":109.8562,"magvar":3.2,"speed":1.796,"climb":-0.058,"eps":196.97,"epc":396.11,"ecefx":3841070.85,"ecefy":716158.62,"ecefz":5024486.67,"ecefvx":0.05,"ecefvy":1.76,"ecefvz":-0.36,"ecefpAcc":4.98,"ecefvAcc":0.38,"velN":-0.514,"velE":1.721,"velD":0.058,"geoidSep":43.898,"eph":24.700,"sep":48.070}
{"class":"SKY","device":"/dev/ttyACM0","time":"2024-07-09T10:13:14.251Z","gdop":2.95,"hdop":1.30,"pdop":2.53,"tdop":1.53,"xdop":0.81,"ydop":1.65,"vdop":2.17,"nSat":14,"uSat":7,"satellites":[{"PRN":2,"gnssid":0,"svid":2,"az":281.0,"el":47.0,"ss":47.0,"used":true,"health":1},{"PRN":22,"gnssid":0,"svid":22,"az":333.0,"el":9.0,"ss":20.0,"used":false,"health":1},{"PRN":27,"gnssid":0,"svid":27,"az":154.0,"el":36.0,"ss":45.0,"used":true,"health":1},{"PRN":23,"gnssid":0,"svid":23,"az":51.0,"el":12.0,"ss":0.0,"used":false,"health":1},{"PRN":24,"gnssid":0,"svid":24,"az":31.0,"el":3.0,"ss":0.0,"used":false,"health":1},{"PRN":15,"gnssid":0,"svid":15,"az":0.0,"el":-9.0,"ss":0.0,"used":false,"health":1},{"PRN":14,"gnssid":0,"svid":14,"az":315.0,"el":20.0,"ss":39.0,"used":true,"health":1},{"PRN":8,"gnssid":0,"svid":8,"az":189.0,"el":65.0,"ss":48.0,"used":true,"health":1},{"PRN":10,"gnssid":0,"svid":10,"az":59.0,"el":47.0,"ss":49.0,"used":true,"health":1},{"PRN":3,"gnssid":0,"svid":3,"az":222.0,"el":4.0,"ss":0.0,"used":false,"health":1},{"PRN":32,"gnssid":0,"svid":32,"az":106.0,"el":36.0,"ss":46.0,"used":true,"health":1},{"PRN":21,"gnssid":0,"svid":21,"az":285.0,"el":66.0,"ss":47.0,"used":true,"health":1},{"PRN":17,"gnssid":0,"svid":17,"az":0.0,"el":-9.0,"ss":0.0,"used":false,"health":1},{"PRN":33,"gnssid":1,"svid":120,"az":0.0,"el":-9.0,"ss":0.0,"used":false,"health":1}]}
{"class":"TPV","device":"/dev/ttyACM0","mode":3,"time":"2024-07-09T10:13:14.499Z","ept":0.005,"lat":52.316116441,"lon":10.561403186,"altHAE":131.8714,"altMSL":87.9729,"alt":87.9729,"epx":12.114,"epy":24.818,"epv":49.910,"track":110.1555,"magtrack":113.3749,"magvar":3.2,"speed":2.038,"climb":-0.026,"eps":0.38,"epc":402.50,"ecefx":3841070.90,"ecefy":716159.09,"ecefz":5024486.65,"ecefvx":0.18,"ecefvy":1.98,"ecefvz":-0.45,"ecefpAcc":4.98,"ecefvAcc":0.38,"velN":-0.702,"velE":1.913,"velD":0.026,"geoidSep":43.898,"eph":24.700,"sep":48.070}
{"class":"SKY","device":"/dev/ttyACM0","time":"2024-07-09T10:13:14.251Z","gdop":2.95,"hdop":1.30,"pdop":2.53,"tdop":1.53,"xdop":0.81,"ydop":1.65,"vdop":2.17,"uSat":6}
{"class":"SKY","device":"/dev/ttyACM0","time":"2024-07-09T10:13:14.251Z","gdop":2.95,"hdop":1.30,"pdop":2.53,"tdop":1.53,"xdop":0.81,"ydop":1.65,"vdop":2.17,"uSat":6}
{"class":"TPV","device":"/dev/ttyACM0","mode":3,"time":"2024-07-09T10:13:14.499Z","ept":0.005,"lat":52.316116441,"lon":10.561403186,"altHAE":131.8714,"altMSL":87.9729,"alt":87.9729,"epx":12.114,"epy":24.818,"epv":49.910,"track":110.1555,"magtrack":113.3749,"magvar":3.2,"speed":2.038,"climb":-0.026,"eps":200.15,"epc":402.50,"ecefx":3841070.90,"ecefy":716159.09,"ecefz":5024486.65,"ecefvx":0.18,"ecefvy":1.98,"ecefvz":-0.45,"ecefpAcc":4.98,"ecefvAcc":0.38,"velN":-0.702,"velE":1.913,"velD":0.026,"geoidSep":43.898,"eph":24.700,"sep":48.070}
{"class":"SKY","device":"/dev/ttyACM0","time":"2024-07-09T10:13:14.499Z","gdop":2.95,"hdop":1.30,"pdop":2.53,"tdop":1.53,"xdop":0.81,"ydop":1.65,"vdop":2.17,"nSat":14,"uSat":7,"satellites":[{"PRN":2,"gnssid":0,"svid":2,"az":281.0,"el":47.0,"ss":48.0,"used":true,"health":1},{"PRN":22,"gnssid":0,"svid":22,"az":333.0,"el":9.0,"ss":20.0,"used":false,"health":1},{"PRN":27,"gnssid":0,"svid":27,"az":154.0,"el":36.0,"ss":46.0,"used":true,"health":1},{"PRN":23,"gnssid":0,"svid":23,"az":51.0,"el":12.0,"ss":0.0,"used":false,"health":1},{"PRN":24,"gnssid":0,"svid":24,"az":31.0,"el":3.0,"ss":0.0,"used":false,"health":1},{"PRN":15,"gnssid":0,"svid":15,"az":0.0,"el":-9.0,"ss":0.0,"used":false,"health":1},{"PRN":14,"gnssid":0,"svid":14,"az":315.0,"el":20.0,"ss":39.0,"used":true,"health":1},{"PRN":8,"gnssid":0,"svid":8,"az":189.0,"el":65.0,"ss":48.0,"used":true,"health":1},{"PRN":10,"gnssid":0,"svid":10,"az":59.0,"el":47.0,"ss":49.0,"used":true,"health":1},{"PRN":3,"gnssid":0,"svid":3,"az":222.0,"el":4.0,"ss":0.0,"used":false,"health":1},{"PRN":32,"gnssid":0,"svid":32,"az":106.0,"el":36.0,"ss":46.0,"used":true,"health":1},{"PRN":21,"gnssid":0,"svid":21,"az":285.0,"el":66.0,"ss":47.0,"used":true,"health":1},{"PRN":17,"gnssid":0,"svid":17,"az":0.0,"el":-9.0,"ss":0.0,"used":false,"health":1},{"PRN":33,"gnssid":1,"svid":120,"az":0.0,"el":-9.0,"ss":0.0,"used":false,"health":1}]}
{"class":"TPV","device":"/dev/ttyACM0","mode":3,"time":"2024-07-09T10:13:14.751Z","ept":0.005,"lat":52.316114770,"lon":10.561410575,"altHAE":131.8508,"altMSL":87.9523,"alt":87.9523,"epx":12.114,"epy":24.818,"epv":49.910,"track":111.2932,"magtrack":114.5126,"magvar":3.2,"speed":2.194,"climb":-0.042,"eps":0.38,"epc":396.11,"ecefx":3841070.94,"ecefy":716159.61,"ecefz":5024486.52,"ecefvx":0.22,"ecefvy":2.12,"ecefvz":-0.52,"ecefpAcc":4.98,"ecefvAcc":0.38,"velN":-0.797,"velE":2.044,"velD":0.042,"geoidSep":43.898,"eph":24.700,"sep":48.070}
{"class":"SKY","device":"/dev/ttyACM0","time":"2024-07-09T10:13:14.499Z","gdop":2.95,"hdop":1.30,"pdop":2.53,"tdop":1.53,"xdop":0.81,"ydop":1.65,"vdop":2.17,"uSat":6}
{"class":"SKY","device":"/dev/ttyACM0","time":"2024-07-09T10:13:14.499Z","gdop":2.95,"hdop":1.30,"pdop":2.53,"tdop":1.53,"xdop":0.81,"ydop":1.65,"vdop":2.17,"uSat":6}
{"class":"TPV","device":"/dev/ttyACM0","mode":3,"time":"2024-07-09T10:13:14.751Z","ept":0.005,"lat":52.316114770,"lon":10.561410575,"altHAE":131.8508,"altMSL":87.9523,"alt":87.9523,"epx":12.114,"epy":24.818,"epv":49.910,"track":111.2932,"magtrack":114.5126,"magvar":3.2,"speed":2.194,"climb":-0.042,"eps":196.97,"epc":396.11,"ecefx":3841070.94,"ecefy":716159.61,"ecefz":5024486.52,"ecefvx":0.22,"ecefvy":2.12,"ecefvz":-0.52,"ecefpAcc":4.98,"ecefvAcc":0.38,"velN":-0.797,"velE":2.044,"velD":0.042,"geoidSep":43.898,"eph":24.700,"sep":48.070}
{"class":"SKY","device":"/dev/ttyACM0","time":"2024-07-09T10:13:14.751Z","gdop":2.95,"hdop":1.30,"pdop":2.53,"tdop":1.53,"xdop":0.81,"ydop":1.65,"vdop":2.17,"nSat":14,"uSat":7,"satellites":[{"PRN":2,"gnssid":0,"svid":2,"az":281.0,"el":47.0,"ss":47.0,"used":true,"health":1},{"PRN":22,"gnssid":0,"svid":22,"az":333.0,"el":9.0,"ss":20.0,"used":false,"health":1},{"PRN":27,"gnssid":0,"svid":27,"az":154.0,"el":36.0,"ss":46.0,"used":true,"health":1},{"PRN":23,"gnssid":0,"svid":23,"az":51.0,"el":12.0,"ss":0.0,"used":false,"health":1},{"PRN":24,"gnssid":0,"svid":24,"az":31.0,"el":3.0,"ss":0.0,"used":false,"health":1},{"PRN":15,"gnssid":0,"svid":15,"az":0.0,"el":-9.0,"ss":0.0,"used":false,"health":1},{"PRN":14,"gnssid":0,"svid":14,"az":315.0,"el":20.0,"ss":41.0,"used":true,"health":1},{"PRN":8,"gnssid":0,"svid":8,"az":189.0,"el":65.0,"ss":48.0,"used":true,"health":1},{"PRN":10,"gnssid":0,"svid":10,"az":59.0,"el":47.0,"ss":49.0,"used":true,"health":1},{"PRN":3,"gnssid":0,"svid":3,"az":222.0,"el":4.0,"ss":0.0,"used":false,"health":1},{"PRN":32,"gnssid":0,"svid":32,"az":106.0,"el":36.0,"ss":45.0,"used":true,"health":1},{"PRN":21,"gnssid":0,"svid":21,"az":285.0,"el":66.0,"ss":47.0,"used":true,"health":1},{"PRN":17,"gnssid":0,"svid":17,"az":0.0,"el":-9.0,"ss":0.0,"used":false,"health":1},{"PRN":33,"gnssid":1,"svid":120,"az":0.0,"el":-9.0,"ss":0.0,"used":false,"health":1}]}
{"class":"TPV","device":"/dev/ttyACM0","mode":3,"time":"2024-07-09T10:13:14.999Z","ept":0.005,"lat":52.316112736,"lon":10.561418379,"altHAE":131.8866,"altMSL":87.9881,"alt":87.9881,"epx":12.114,"epy":24.818,"epv":49.910,"track":115.8195,"magtrack":119.0389,"magvar":3.2,"speed":2.470,"climb":-0.016,"eps":0.38,"epc":402.50,"ecefx":3841071.04,"ecefy":716160.17,"ecefz":5024486.41,"ecefvx":0.42,"ecefvy":2.34,"ecefvz":-0.67,"ecefpAcc":4.98,"ecefvAcc":0.38,"velN":-1.076,"velE":2.223,"velD":0.016,"geoidSep":43.898,"eph":24.700,"sep":48.070}
{"class":"SKY","device":"/dev/ttyACM0","time":"2024-07-09T10:13:14.751Z","gdop":2.95,"hdop":1.30,"pdop":2.53,"tdop":1.53,"xdop":0.81,"ydop":1.65,"vdop":2.17,"uSat":6}
{"class":"SKY","device":"/dev/ttyACM0","time":"2024-07-09T10:13:14.751Z","gdop":2.95,"hdop":1.30,"pdop":2.53,"tdop":1.53,"xdop":0.81,"ydop":1.65,"vdop":2.17,"uSat":6}
{"class":"TPV","device":"/dev/ttyACM0","mode":3,"time":"2024-07-09T10:13:14.999Z","ept":0.005,"lat":52.316112736,"lon":10.561418379,"altHAE":131.8866,"altMSL":87.9881,"alt":87.9881,"epx":12.114,"epy":24.818,"epv":49.910,"track":115.8195,"magtrack":119.0389,"magvar":3.2,"speed":2.470,"climb":-0.016,"eps":200.15,"epc":402.50,"ecefx":3841071.04,"ecefy":716160.17,"ecefz":5024486.41,"ecefvx":0.42,"ecefvy":2.34,"ecefvz":-0.67,"ecefpAcc":4.98,"ecefvAcc":0.38,"velN":-1.076,"velE":2.223,"velD":0.016,"geoidSep":43.898,"eph":24.700,"sep":48.070}
{"class":"SKY","device":"/dev/ttyACM0","time":"2024-07-09T10:13:14.999Z","gdop":2.95,"hdop":1.30,"pdop":2.53,"tdop":1.53,"xdop":0.81,"ydop":1.65,"vdop":2.17,"nSat":14,"uSat":7,"satellites":[{"PRN":2,"gnssid":0,"svid":2,"az":281.0,"el":47.0,"ss":47.0,"used":true,"health":1},{"PRN":22,"gnssid":0,"svid":22,"az":333.0,"el":9.0,"ss":23.0,"used":false,"health":1},{"PRN":27,"gnssid":0,"svid":27,"az":154.0,"el":36.0,"ss":47.0,"used":true,"health":1},{"PRN":23,"gnssid":0,"svid":23,"az":51.0,"el":12.0,"ss":0.0,"used":false,"health":1},{"PRN":24,"gnssid":0,"svid":24,"az":31.0,"el":3.0,"ss":0.0,"used":false,"health":1},{"PRN":15,"gnssid":0,"svid":15,"az":0.0,"el":-9.0,"ss":0.0,"used":false,"health":1},{"PRN":14,"gnssid":0,"svid":14,"az":315.0,"el":20.0,"ss":40.0,"used":true,"health":1},{"PRN":8,"gnssid":0,"svid":8,"az":189.0,"el":65.0,"ss":47.0,"used":true,"health":1},{"PRN":10,"gnssid":0,"svid":10,"az":59.0,"el":47.0,"ss":49.0,"used":true,"health":1},{"PRN":3,"gnssid":0,"svid":3,"az":222.0,"el":4.0,"ss":0.0,"used":false,"health":1},{"PRN":32,"gnssid":0,"svid":32,"az":106.0,"el":36.0,"ss":45.0,"used":true,"health":1},{"PRN":21,"gnssid":0,"svid":21,"az":285.0,"el":66.0,"ss":47.0,"used":true,"health":1},{"PRN":17,"gnssid":0,"svid":17,"az":0.0,"el":-9.0,"ss":0.0,"used":false,"health":1},{"PRN":33,"gnssid":1,"svid":120,"az":0.0,"el":-9.0,"ss":0.0,"used":false,"health":1}]}
{"class":"TPV","device":"/dev/ttyACM0","mode":3,"time":"2024-07-09T10:13:15.251Z","ept":0.005,"lat":52.316109946,"lon":10.561426679,"altHAE":131.8737,"altMSL":87.9752,"alt":87.9752,"epx":12.114,"epy":24.818,"epv":49.910,"track":121.0223,"magtrack":124.2417,"magvar":3.2,"speed":2.687,"climb":-0.042,"eps":0.38,"epc":396.11,"ecefx":3841071.17,"ecefy":716160.77,"ecefz":5024486.21,"ecefvx":0.63,"ecefvy":2.46,"ecefvz":-0.88,"ecefpAcc":4.98,"ecefvAcc":0.38,"velN":-1.385,"velE":2.303,"velD":0.042,"geoidSep":43.898,"eph":24.700,"sep":48.070}
{"class":"SKY","device":"/dev/ttyACM0","time":"2024-07-09T10:13:14.999Z","gdop":2.95,"hdop":1.30,"pdop":2.53,"tdop":1.53,"xdop":0.81,"ydop":1.65,"vdop":2.17,"uSat":6}
{"class":"SKY","device":"/dev/ttyACM0","time":"2024-07-09T10:13:14.999Z","gdop":2.95,"hdop":1.30,"pdop":2.53,"tdop":1.53,"xdop":0.81,"ydop":1.65,"vdop":2.17,"uSat":6}
{"class":"TPV","device":"/dev/ttyACM0","mode":3,"time":"2024-07-09T10:13:15.251Z","ept":0.005,"lat":52.316109946,"lon":10.561426679,"altHAE":131.8737,"altMSL":87.9752,"alt":87.9752,"epx":12.114,"epy":24.818,"epv":49.910,"track":121.0223,"magtrack":124.2417,"magvar":3.2,"speed":2.687,"climb":-0.042,"eps":196.97,"epc":396.11,"ecefx":3841071.17,"ecefy":716160.77,"ecefz":5024486.21,"ecefvx":0.63,"ecefvy":2.46,"ecefvz":-0.88,"ecefpAcc":4.98,"ecefvAcc":0.38,"velN":-1.385,"velE":2.303,"velD":0.042,"geoidSep":43.898,"eph":24.700,"sep":48.070}
{"class":"SKY","device":"/dev/ttyACM0","time":"2024-07-09T10:13:15.251Z","gdop":2.95,"hdop":1.30,"pdop":2.53,"tdop":1.53,"xdop":0.81,"ydop":1.65,"vdop":2.17,"nSat":14,"uSat":7,"satellites":[{"PRN":2,"gnssid":0,"svid":2,"az":281.0,"el":47.0,"ss":47.0,"used":true,"health":1},{"PRN":22,"gnssid":0,"svid":22,"az":333.0,"el":9.0,"ss":24.0,"used":false,"health":1},{"PRN":27,"gnssid":0,"svid":27,"az":154.0,"el":36.0,"ss":47.0,"used":true,"health":1},{"PRN":23,"gnssid":0,"svid":23,"az":51.0,"el":12.0,"ss":0.0,"used":false,"health":1},{"PRN":24,"gnssid":0,"svid":24,"az":31.0,"el":3.0,"ss":0.0,"used":false,"health":1},{"PRN":15,"gnssid":0,"svid":15,"az":0.0,"el":-9.0,"ss":0.0,"used":false,"health":1},{"PRN":14,"gnssid":0,"svid":14,"az":315.0,"el":20.0,"ss":39.0,"used":true,"health":1},{"PRN":8,"gnssid":0,"svid":8,"az":189.0,"el":65.0,"ss":47.0,"used":true,"health":1},{"PRN":10,"gnssid":0,"svid":10,"az":59.0,"el":47.0,"ss":49.0,"used":true,"health":1},{"PRN":3,"gnssid":0,"svid":3,"az":222.0,"el":4.0,"ss":0.0,"used":false,"health":1},{"PRN":32,"gnssid":0,"svid":32,"az":106.0,"el":36.0,"ss":46.0,"used":true,"health":1},{"PRN":21,"gnssid":0,"svid":21,"az":285.0,"el":66.0,"ss":47.0,"used":true,"health":1},{"PRN":17,"gnssid":0,"svid":17,"az":0.0,"el":-9.0,"ss":0.0,"used":false,"health":1},{"PRN":33,"gnssid":1,"svid":120,"az":0.0,"el":-9.0,"ss":0.0,"used":false,"health":1}]}
{"class":"TPV","device":"/dev/ttyACM0","mode":3,"time":"2024-07-09T10:13:15.499Z","ept":0.005,"lat":52.316106616,"lon":10.561435133,"altHAE":131.8693,"altMSL":87.9708,"alt":87.9708,"epx":12.114,"epy":24.818,"epv":49.910,"track":123.8877,"magtrack":127.1070,"magvar":3.2,"speed":2.881,"climb":-0.035,"eps":0.37,"epc":402.50,"ecefx":3841071.35,"ecefy":716161.39,"ecefz":5024485.98,"ecefvx":0.79,"ecefvy":2.58,"ecefvz":-1.01,"ecefpAcc":4.97,"ecefvAcc":0.37,"velN":-1.606,"velE":2.391,"velD":0.035,"geoidSep":43.898,"eph":24.700,"sep":48.070}
{"class":"SKY","device":"/dev/ttyACM0","time":"2024-07-09T10:13:15.251Z","gdop":2.95,"hdop":1.30,"pdop":2.53,"tdop":1.53,"xdop":0.81,"ydop":1.65,"vdop":2.17,"uSat":6}
{"class":"SKY","device":"/dev/ttyACM0","time":"2024-07-09T10:13:15.251Z","gdop":2.95,"hdop":1.30,"pdop":2.53,"tdop":1.53,"xdop":0.81,"ydop":1.65,"vdop":2.17,"uSat":6}
{"class":"TPV","device":"/dev/ttyACM0","mode":3,"time":"2024-07-09T10:13:15.499Z","ept":0.005,"lat":52.316106616,"lon":10.561435133,"altHAE":131.8693,"altMSL":87.9708,"alt":87.9708,"epx":12.114,"epy":24.818,"epv":49.910,"track":123.8877,"magtrack":127.1070,"magvar":3.2,"speed":2.881,"climb":-0.035,"eps":200.15,"epc":402.50,"ecefx":3841071.35,"ecefy":716161.39,"ecefz":5024485.98,"ecefvx":0.79,"ecefvy":2.58,"ecefvz":-1.01,"ecefpAcc":4.97,"ecefvAcc":0.37,"velN":-1.606,"velE":2.391,"velD":0.035,"geoidSep":43.898,"eph":24.700,"sep":48.070}
{"class":"SKY","device":"/dev/ttyACM0","time":"2024-07-09T10:13:15.499Z","gdop":2.95,"hdop":1.30,"pdop":2.53,"tdop":1.53,"xdop":0.81,"ydop":1.65,"vdop":2.17,"nSat":14,"uSat":7,"satellites":[{"PRN":2,"gnssid":0,"svid":2,"az":281.0,"el":47.0,"ss":48.0,"used":true,"health":1},{"PRN":22,"gnssid":0,"svid":22,"az":333.0,"el":9.0,"ss":24.0,"used":false,"health":1},{"PRN":27,"gnssid":0,"svid":27,"az":154.0,"el":36.0,"ss":47.0,"used":true,"health":1},{"PRN":23,"gnssid":0,"svid":23,"az":51.0,"el":12.0,"ss":0.0,"used":false,"health":1},{"PRN":24,"gnssid":0,"svid":24,"az":31.0,"el":3.0,"ss":0.0,"used":false,"health":1},{"PRN":15,"gnssid":0,"svid":15,"az":0.0,"el":-9.0,"ss":0.0,"used":false,"health":1},{"PRN":14,"gnssid":0,"svid":14,"az":315.0,"el":20.0,"ss":40.0,"used":true,"health":1},{"PRN":8,"gnssid":0,"svid":8,"az":189.0,"el":65.0,"ss":48.0,"used":true,"health":1},{"PRN":10,"gnssid":0,"svid":10,"az":59.0,"el":47.0,"ss":48.0,"used":true,"health":1},{"PRN":3,"gnssid":0,"svid":3,"az":222.0,"el":4.0,"ss":0.0,"used":false,"health":1},{"PRN":32,"gnssid":0,"svid":32,"az":106.0,"el":36.0,"ss":46.0,"used":true,"health":1},{"PRN":21,"gnssid":0,"svid":21,"az":285.0,"el":66.0,"ss":47.0,"used":true,"health":1},{"PRN":17,"gnssid":0,"svid":17,"az":0.0,"el":-9.0,"ss":0.0,"used":false,"health":1},{"PRN":33,"gnssid":1,"svid":120,"az":0.0,"el":-9.0,"ss":0.0,"used":false,"health":1}]}
{"class":"TPV","device":"/dev/ttyACM0","mode":3,"time":"2024-07-09T10:13:15.751Z","ept":0.005,"lat":52.316102636,"lon":10.561443740,"altHAE":131.8576,"altMSL":87.9592,"alt":87.9592,"epx":12.114,"epy":24.818,"epv":49.910,"track":128.6912,"magtrack":131.9106,"magvar":3.2,"speed":2.941,"climb":-0.033,"eps":0.37,"epc":396.11,"ecefx":3841071.58,"ecefy":716162.03,"ecefz":5024485.70,"ecefvx":0.99,"ecefvy":2.52,"ecefvz":-1.15,"ecefpAcc":4.97,"ecefvAcc":0.37,"velN":-1.839,"velE":2.296,"velD":0.033,"geoidSep":43.898,"eph":24.700,"sep":48.070}
{"class":"SKY","device":"/dev/ttyACM0","time":"2024-07-09T10:13:15.499Z","gdop":2.95,"hdop":1.30,"pdop":2.53,"tdop":1.53,"xdop":0.81,"ydop":1.65,"vdop":2.17,"uSat":6}
{"class":"SKY","device":"/dev/ttyACM0","time":"2024-07-09T10:13:15.499Z","gdop":2.95,"hdop":1.30,"pdop":2.53,"tdop":1.53,"xdop":0.81,"ydop":1.65,"vdop":2.17,"uSat":6}
{"class":"TPV","device":"/dev/ttyACM0","mode":3,"time":"2024-07-09T10:13:15.751Z","ept":0.005,"lat":52.316102636,"lon":10.561443740,"altHAE":131.8576,"altMSL":87.9592,"alt":87.9592,"epx":12.114,"epy":24.818,"epv":49.910,"track":128.6912,"magtrack":131.9106,"magvar":3.2,"speed":2.941,"climb":-0.033,"eps":196.97,"epc":396.11,"ecefx":3841071.58,"ecefy":716162.03,"ecefz":5024485.70,"ecefvx":0.99,"ecefvy":2.52,"ecefvz":-1.15,"ecefpAcc":4.97,"ecefvAcc":0.37,"velN":-1.839,"velE":2.296,"velD":0.033,"geoidSep":43.898,"eph":24.700,"sep":48.070}
{"class":"SKY","device":"/dev/ttyACM0","time":"2024-07-09T10:13:15.751Z","gdop":2.95,"hdop":1.30,"pdop":2.53,"tdop":1.53,"xdop":0.81,"ydop":1.65,"vdop":2.17,"nSat":14,"uSat":7,"satellites":[{"PRN":2,"gnssid":0,"svid":2,"az":281.0,"el":47.0,"ss":48.0,"used":true,"health":1},{"PRN":22,"gnssid":0,"svid":22,"az":333.0,"el":9.0,"ss":26.0,"used":false,"health":1},{"PRN":27,"gnssid":0,"svid":27,"az":154.0,"el":36.0,"ss":46.0,"used":true,"health":1},{"PRN":23,"gnssid":0,"svid":23,"az":51.0,"el":12.0,"ss":0.0,"used":false,"health":1},{"PRN":24,"gnssid":0,"svid":24,"az":31.0,"el":3.0,"ss":0.0,"used":false,"health":1},{"PRN":15,"gnssid":0,"svid":15,"az":0.0,"el":-9.0,"ss":0.0,"used":false,"health":1},{"PRN":14,"gnssid":0,"svid":14,"az":315.0,"el":20.0,"ss":41.0,"used":true,"health":1},{"PRN":8,"gnssid":0,"svid":8,"az":189.0,"el":65.0,"ss":48.0,"used":true,"health":1},{"PRN":10,"gnssid":0,"svid":10,"az":59.0,"el":47.0,"ss":48.0,"used":true,"health":1},{"PRN":3,"gnssid":0,"svid":3,"az":222.0,"el":4.0,"ss":0.0,"used":false,"health":1},{"PRN":32,"gnssid":0,"svid":32,"az":106.0,"el":36.0,"ss":47.0,"used":true,"health":1},{"PRN":21,"gnssid":0,"svid":21,"az":285.0,"el":66.0,"ss":48.0,"used":true,"health":1},{"PRN":17,"gnssid":0,"svid":17,"az":0.0,"el":-9.0,"ss":0.0,"used":false,"health":1},{"PRN":33,"gnssid":1,"svid":120,"az":0.0,"el":-9.0,"ss":0.0,"used":false,"health":1}]}
{"class":"TPV","device":"/dev/ttyACM0","mode":3,"time":"2024-07-09T10:13:15.999Z","ept":0.005,"lat":52.316097912,"lon":10.561451124,"altHAE":131.8466,"altMSL":87.9482,"alt":87.9482,"epx":12.114,"epy":24.818,"epv":49.910,"track":140.6777,"magtrack":143.8971,"magvar":3.2,"speed":2.981,"climb":-0.013,"eps":0.37,"epc":402.50,"ecefx":3841071.89,"ecefy":716162.60,"ecefz":5024485.37,"ecefvx":1.44,"ecefvy":2.19,"ecefvz":-1.42,"ecefpAcc":4.97,"ecefvAcc":0.37,"velN":-2.306,"velE":1.889,"velD":0.013,"geoidSep":43.898,"eph":24.700,"sep":47.880}
{"class":"SKY","device":"/dev/ttyACM0","time":"2024-07-09T10:13:15.751Z","gdop":2.95,"hdop":1.30,"pdop":2.52,"tdop":1.53,"xdop":0.81,"ydop":1.65,"vdop":2.17,"uSat":6}
{"class":"SKY","device":"/dev/ttyACM0","time":"2024-07-09T10:13:15.751Z","gdop":2.95,"hdop":1.29,"pdop":2.52,"tdop":1.53,"xdop":0.81,"ydop":1.65,"vdop":2.17,"uSat":6}
{"class":"TPV","device":"/dev/ttyACM0","mode":3,"time":"2024-07-09T10:13:15.999Z","ept":0.005,"lat":52.316097912,"lon":10.561451124,"altHAE":131.8466,"altMSL":87.9482,"alt":87.9482,"epx":12.114,"epy":24.818,"epv":49.910,"track":140.6777,"magtrack":143.8971,"magvar":3.2,"speed":2.981,"climb":-0.013,"eps":200.15,"epc":402.50,"ecefx":3841071.89,"ecefy":716162.60,"ecefz":5024485.37,"ecefvx":1.44,"ecefvy":2.19,"ecefvz":-1.42,"ecefpAcc":4.97,"ecefvAcc":0.37,"velN":-2.306,"velE":1.889,"velD":0.013,"geoidSep":43.898,"eph":24.700,"sep":47.880}
{"class":"SKY","device":"/dev/ttyACM0","time":"2024-07-09T10:13:15.999Z","gdop":2.95,"hdop":1.29,"pdop":2.52,"tdop":1.53,"xdop":0.81,"ydop":1.65,"vdop":2.17,"nSat":14,"uSat":7,"satellites":[{"PRN":2,"gnssid":0,"svid":2,"az":281.0,"el":47.0,"ss":47.0,"used":true,"health":1},{"PRN":22,"gnssid":0,"svid":22,"az":333.0,"el":9.0,"ss":25.0,"used":false,"health":1},{"PRN":27,"gnssid":0,"svid":27,"az":154.0,"el":36.0,"ss":46.0,"used":true,"health":1},{"PRN":23,"gnssid":0,"svid":23,"az":51.0,"el":12.0,"ss":0.0,"used":false,"health":1},{"PRN":24,"gnssid":0,"svid":24,"az":31.0,"el":3.0,"ss":0.0,"used":false,"health":1},{"PRN":15,"gnssid":0,"svid":15,"az":0.0,"el":-9.0,"ss":0.0,"used":false,"health":1},{"PRN":14,"gnssid":0,"svid":14,"az":315.0,"el":20.0,"ss":40.0,"used":true,"health":1},{"PRN":8,"gnssid":0,"svid":8,"az":189.0,"el":65.0,"ss":48.0,"used":true,"health":1},{"PRN":10,"gnssid":0,"svid":10,"az":59.0,"el":47.0,"ss":50.0,"used":true,"health":1},{"PRN":3,"gnssid":0,"svid":3,"az":222.0,"el":4.0,"ss":0.0,"used":false,"health":1},{"PRN":32,"gnssid":0,"svid":32,"az":106.0,"el":36.0,"ss":47.0,"used":true,"health":1},{"PRN":21,"gnssid":0,"svid":21,"az":285.0,"el":66.0,"ss":47.0,"used":true,"health":1},{"PRN":17,"gnssid":0,"svid":17,"az":0.0,"el":-9.0,"ss":0.0,"used":false,"health":1},{"PRN":33,"gnssid":1,"svid":120,"az":0.0,"el":-9.0,"ss":0.0,"used":false,"health":1}]}
{"class":"TPV","device":"/dev/ttyACM0","mode":3,"time":"2024-07-09T10:13:16.251Z","ept":0.005,"lat":52.316092408,"lon":10.561457481,"altHAE":131.8017,"altMSL":87.9032,"alt":87.9032,"epx":12.114,"epy":24.818,"epv":49.910,"track":145.9122,"magtrack":149.1316,"magvar":3.2,"speed":2.988,"climb":-0.047,"eps":0.40,"epc":396.11,"ecefx":3841072.26,"ecefy":716163.11,"ecefz":5024484.96,"ecefvx":1.59,"ecefvy":2.00,"ecefvz":-1.55,"ecefpAcc":4.97,"ecefvAcc":0.40,"velN":-2.475,"velE":1.675,"velD":0.047,"geoidSep":43.898,"eph":24.510,"sep":48.070}
