{"class":"VERSION","release":"3.25","rev":"3.25","proto_major":3,"proto_minor":15}
{"class":"DEVICES","devices":[{"class":"DEVICE","path":"/dev/ttyACM0","driver":"u-blox","subtype":"SW 5.00    May 11 2006 14:40:17,HW 00040001","subtype1":"M4T1.2  May 11 2006 14:40:17","activated":"2024-07-09T10:13:34.499Z","flags":1,"native":1,"bps":57600,"parity":"N","stopbits":1,"cycle":1.00,"mincycle":0.02}]}
{"class":"WATCH","enable":true,"json":true,"nmea":false,"raw":0,"scaled":false,"timing":false,"split24":false,"pps":false}
{"class":"TPV","device":"/dev/ttyACM0","mode":3,"time":"2024-07-09T10:11:46.750Z","ept":0.005,"lat":52.315966300,"lon":10.561119838,"altHAE":131.6226,"altMSL":87.7236,"alt":87.7236,"epx":12.114,"epy":24.818,"epv":41.860,"track":0.0000,"magtrack":3.2193,"magvar":3.2,"speed":0.006,"climb":0.008,"eps":0.37,"epc":332.22,"ecefx":3841087.29,"ecefy":716142.49,"ecefz":5024476.24,"ecefvx":0.00,"ecefvy":0.00,"ecefvz":0.01,"ecefpAcc":5.15,"ecefvAcc":0.37,"velN":0.006,"velE":0.000,"velD":-0.008,"geoidSep":43.899,"eph":24.510,"sep":42.370}
{"class":"SKY","device":"/dev/ttyACM0","time":"2024-07-09T10:11:46.498Z","gdop":2.55,"hdop":1.29,"pdop":2.23,"tdop":1.23,"xdop":0.81,"ydop":1.65,"vdop":1.82,"uSat":6}
{"class":"SKY","device":"/dev/ttyACM0","time":"2024-07-09T10:11:46.498Z","gdop":2.55,"hdop":1.29,"pdop":2.23,"tdop":1.23,"xdop":0.81,"ydop":1.65,"vdop":1.82,"uSat":6}
{"class":"TPV","device":"/dev/ttyACM0","mode":3,"time":"2024-07-09T10:11:46.750Z","ept":0.005,"lat":52.315966300,"lon":10.561119838,"altHAE":131.6226,"altMSL":87.7236,"alt":87.7236,"epx":12.114,"epy":24.818,"epv":41.860,"track":0.0000,"magtrack":3.2193,"magvar":3.2,"speed":0.006,"climb":0.008,"eps":196.97,"epc":332.22,"ecefx":3841087.29,"ecefy":716142.49,"ecefz":5024476.24,"ecefvx":0.00,"ecefvy":0.00,"ecefvz":0.01,"ecefpAcc":5.15,"ecefvAcc":0.37,"velN":0.006,"velE":0.000,"velD":-0.008,"geoidSep":43.899,"eph":24.510,"sep":42.370}
{"class":"SKY","device":"/dev/ttyACM0","time":"2024-07-09T10:11:46.750Z","gdop":2.55,"hdop":1.29,"pdop":2.23,"tdop":1.23,"xdop":0.81,"ydop":1.65,"vdop":1.82,"nSat":14,"uSat":8,"satellites":[{"PRN":2,"gnssid":0,"svid":2,"az":281.0,"el":47.0,"ss":46.0,"used":true,"health":1},{"PRN":22,"gnssid":0,"svid":22,"az":333.0,"el":9.0,"ss":42.0,"used":true,"health":1},{"PRN":27,"gnssid":0,"svid":27,"az":154.0,"el":37.0,"ss":33.0,"used":true,"health":1},{"PRN":23,"gnssid":0,"svid":23,"az":51.0,"el":13.0,"ss":0.0,"used":false,"health":1},{"PRN":24,"gnssid":0,"svid":24,"az":31.0,"el":3.0,"ss":0.0,"used":false,"health":1},{"PRN":13,"gnssid":0,"svid":13,"az":0.0,"el":-9.0,"ss":0.0,"used":false,"health":1},{"PRN":14,"gnssid":0,"svid":14,"az":316.0,"el":20.0,"ss":36.0,"used":true,"health":1},{"PRN":8,"gnssid":0,"svid":8,"az":190.0,"el":66.0,"ss":52.0,"used":true,"health":1},{"PRN":10,"gnssid":0,"svid":10,"az":59.0,"el":47.0,"ss":46.0,"used":true,"health":1},{"PRN":3,"gnssid":0,"svid":3,"az":222.0,"el":4.0,"ss":0.0,"used":false,"health":1},{"PRN":32,"gnssid":0,"svid":32,"az":107.0,"el":36.0,"ss":45.0,"used":true,"health":1},{"PRN":21,"gnssid":0,"svid":21,"az":284.0,"el":65.0,"ss":50.0,"used":true,"health":1},{"PRN":11,"gnssid":0,"svid":11,"az":0.0,"el":-9.0,"ss":0.0,"used":false,"health":1},{"PRN":12,"gnssid":0,"svid":12,"az":0.0,"el":-9.0,"ss":0.0,"used":false,"health":1}]}
{"class":"TPV","device":"/dev/ttyACM0","mode":3,"time":"2024-07-09T10:11:46.998Z","ept":0.005,"lat":52.315966469,"lon":10.561120180,"altHAE":131.6207,"altMSL":87.7218,"alt":87.7218,"epx":12.114,"epy":24.818,"epv":41.860,"track":180.0000,"magtrack":183.2193,"magvar":3.2,"speed":0.006,"climb":-0.008,"eps":0.36,"epc":337.58,"ecefx":3841087.27,"ecefy":716142.51,"ecefz":5024476.25,"ecefvx":0.00,"ecefvy":0.00,"ecefvz":-0.01,"ecefpAcc":5.15,"ecefvAcc":0.36,"velN":-0.006,"velE":0.000,"velD":0.008,"geoidSep":43.899,"eph":24.510,"sep":42.370}
{"class":"SKY","device":"/dev/ttyACM0","time":"2024-07-09T10:11:46.750Z","gdop":2.55,"hdop":1.29,"pdop":2.23,"tdop":1.23,"xdop":0.81,"ydop":1.65,"vdop":1.82,"uSat":6}
{"class":"SKY","device":"/dev/ttyACM0","time":"2024-07-09T10:11:46.750Z","gdop":2.55,"hdop":1.29,"pdop":2.23,"tdop":1.23,"xdop":0.81,"ydop":1.65,"vdop":1.82,"uSat":6}
{"class":"TPV","device":"/dev/ttyACM0","mode":3,"time":"2024-07-09T10:11:46.998Z","ept":0.005,"lat":52.315966469,"lon":10.561120180,"altHAE":131.6207,"altMSL":87.7218,"alt":87.7218,"epx":12.114,"epy":24.818,"epv":41.860,"track":180.0000,"magtrack":183.2193,"magvar":3.2,"speed":0.006,"climb":-0.008,"eps":200.15,"epc":337.58,"ecefx":3841087.27,"ecefy":716142.51,"ecefz":5024476.25,"ecefvx":0.00,"ecefvy":0.00,"ecefvz":-0.01,"ecefpAcc":5.15,"ecefvAcc":0.36,"velN":-0.006,"velE":0.000,"velD":0.008,"geoidSep":43.899,"eph":24.510,"sep":42.370}
{"class":"SKY","device":"/dev/ttyACM0","time":"2024-07-09T10:11:46.998Z","gdop":2.55,"hdop":1.29,"pdop":2.23,"tdop":1.23,"xdop":0.81,"ydop":1.65,"vdop":1.82,"nSat":14,"uSat":8,"satellites":[{"PRN":2,"gnssid":0,"svid":2,"az":281.0,"el":47.0,"ss":46.0,"used":true,"health":1},{"PRN":22,"gnssid":0,"svid":22,"az":333.0,"el":9.0,"ss":42.0,"used":true,"health":1},{"PRN":27,"gnssid":0,"svid":27,"az":154.0,"el":37.0,"ss":34.0,"used":true,"health":1},{"PRN":23,"gnssid":0,"svid":23,"az":51.0,"el":13.0,"ss":0.0,"used":false,"health":1},{"PRN":24,"gnssid":0,"svid":24,"az":31.0,"el":3.0,"ss":0.0,"used":false,"health":1},{"PRN":13,"gnssid":0,"svid":13,"az":0.0,"el":-9.0,"ss":0.0,"used":false,"health":1},{"PRN":14,"gnssid":0,"svid":14,"az":316.0,"el":20.0,"ss":36.0,"used":true,"health":1},{"PRN":8,"gnssid":0,"svid":8,"az":190.0,"el":66.0,"ss":52.0,"used":true,"health":1},{"PRN":10,"gnssid":0,"svid":10,"az":59.0,"el":47.0,"ss":46.0,"used":true,"health":1},{"PRN":3,"gnssid":0,"svid":3,"az":222.0,"el":4.0,"ss":0.0,"used":false,"health":1},{"PRN":32,"gnssid":0,"svid":32,"az":107.0,"el":36.0,"ss":45.0,"used":true,"health":1},{"PRN":21,"gnssid":0,"svid":21,"az":284.0,"el":65.0,"ss":50.0,"used":true,"health":1},{"PRN":11,"gnssid":0,"svid":11,"az":0.0,"el":-9.0,"ss":0.0,"used":false,"health":1},{"PRN":12,"gnssid":0,"svid":12,"az":0.0,"el":-9.0,"ss":0.0,"used":false,"health":1}]}
{"class":"TPV","device":"/dev/ttyACM0","mode":3,"time":"2024-07-09T10:11:47.250Z","ept":0.005,"lat":52.315966583,"lon":10.561120522,"altHAE":131.6110,"altMSL":87.7120,"alt":87.7120,"epx":12.114,"epy":24.818,"epv":41.860,"track":180.0000,"magtrack":183.2193,"magvar":3.2,"speed":0.012,"climb":-0.016,"eps":0.36,"epc":332.22,"ecefx":3841087.25,"ecefy":716142.53,"ecefz":5024476.25,"ecefvx":0.00,"ecefvy":0.00,"ecefvz":-0.02,"ecefpAcc":5.15,"ecefvAcc":0.36,"velN":-0.012,"velE":0.000,"velD":0.016,"geoidSep":43.899,"eph":24.510,"sep":42.370}
{"class":"SKY","device":"/dev/ttyACM0","time":"2024-07-09T10:11:46.998Z","gdop":2.55,"hdop":1.29,"pdop":2.23,"tdop":1.23,"xdop":0.81,"ydop":1.65,"vdop":1.82,"uSat":6}
{"class":"SKY","device":"/dev/ttyACM0","time":"2024-07-09T10:11:46.998Z","gdop":2.55,"hdop":1.29,"pdop":2.23,"tdop":1.23,"xdop":0.81,"ydop":1.65,"vdop":1.82,"uSat":6}
{"class":"TPV","device":"/dev/ttyACM0","mode":3,"time":"2024-07-09T10:11:47.250Z","ept":0.005,"lat":52.315966583,"lon":10.561120522,"altHAE":131.6110,"altMSL":87.7120,"alt":87.7120,"epx":12.114,"epy":24.818,"epv":41.860,"track":180.0000,"magtrack":183.2193,"magvar":3.2,"speed":0.012,"climb":-0.016,"eps":196.97,"epc":332.22,"ecefx":3841087.25,"ecefy":716142.53,"ecefz":5024476.25,"ecefvx":0.00,"ecefvy":0.00,"ecefvz":-0.02,"ecefpAcc":5.15,"ecefvAcc":0.36,"velN":-0.012,"velE":0.000,"velD":0.016,"geoidSep":43.899,"eph":24.510,"sep":42.370}
{"class":"SKY","device":"/dev/ttyACM0","time":"2024-07-09T10:11:47.250Z","gdop":2.55,"hdop":1.29,"pdop":2.23,"tdop":1.23,"xdop":0.81,"ydop":1.65,"vdop":1.82,"nSat":14,"uSat":8,"satellites":[{"PRN":2,"gnssid":0,"svid":2,"az":281.0,"el":47.0,"ss":45.0,"used":true,"health":1},{"PRN":22,"gnssid":0,"svid":22,"az":333.0,"el":9.0,"ss":42.0,"used":true,"health":1},{"PRN":27,"gnssid":0,"svid":27,"az":154.0,"el":37.0,"ss":34.0,"used":true,"health":1},{"PRN":23,"gnssid":0,"svid":23,"az":51.0,"el":13.0,"ss":0.0,"used":false,"health":1},{"PRN":24,"gnssid":0,"svid":24,"az":31.0,"el":3.0,"ss":0.0,"used":false,"health":1},{"PRN":13,"gnssid":0,"svid":13,"az":0.0,"el":-9.0,"ss":0.0,"used":false,"health":1},{"PRN":14,"gnssid":0,"svid":14,"az":316.0,"el":20.0,"ss":36.0,"used":true,"health":1},{"PRN":8,"gnssid":0,"svid":8,"az":190.0,"el":66.0,"ss":52.0,"used":true,"health":1},{"PRN":10,"gnssid":0,"svid":10,"az":59.0,"el":47.0,"ss":47.0,"used":true,"health":1},{"PRN":3,"gnssid":0,"svid":3,"az":222.0,"el":4.0,"ss":0.0,"used":false,"health":1},{"PRN":32,"gnssid":0,"svid":32,"az":107.0,"el":36.0,"ss":45.0,"used":true,"health":1},{"PRN":21,"gnssid":0,"svid":21,"az":284.0,"el":65.0,"ss":50.0,"used":true,"health":1},{"PRN":11,"gnssid":0,"svid":11,"az":0.0,"el":-9.0,"ss":0.0,"used":false,"health":1},{"PRN":12,"gnssid":0,"svid":12,"az":0.0,"el":-9.0,"ss":0.0,"used":false,"health":1}]}
{"class":"TPV","device":"/dev/ttyACM0","mode":3,"time":"2024-07-09T10:11:47.498Z","ept":0.005,"lat":52.315966627,"lon":10.561120838,"altHAE":131.6072,"altMSL":87.7082,"alt":87.7082,"epx":12.114,"epy":24.818,"epv":41.860,"track":244.6254,"magtrack":247.8447,"magvar":3.2,"speed":0.011,"climb":-0.009,"eps":0.36,"epc":337.58,"ecefx":3841087.24,"ecefy":716142.55,"ecefz":5024476.25,"ecefvx":0.00,"ecefvy":-0.01,"ecefvz":-0.01,"ecefpAcc":5.15,"ecefvAcc":0.36,"velN":-0.005,"velE":-0.010,"velD":0.009,"geoidSep":43.899,"eph":24.510,"sep":42.370}
{"class":"SKY","device":"/dev/ttyACM0","time":"2024-07-09T10:11:47.250Z","gdop":2.55,"hdop":1.29,"pdop":2.23,"tdop":1.23,"xdop":0.81,"ydop":1.65,"vdop":1.82,"uSat":6}
{"class":"SKY","device":"/dev/ttyACM0","time":"2024-07-09T10:11:47.250Z","gdop":2.55,"hdop":1.29,"pdop":2.23,"tdop":1.23,"xdop":0.81,"ydop":1.65,"vdop":1.82,"uSat":6}
{"class":"TPV","device":"/dev/ttyACM0","mode":3,"time":"2024-07-09T10:11:47.498Z","ept":0.005,"lat":52.315966627,"lon":10.561120838,"altHAE":131.6072,"altMSL":87.7082,"alt":87.7082,"epx":12.114,"epy":24.818,"epv":41.860,"track":244.6254,"magtrack":247.8447,"magvar":3.2,"speed":0.011,"climb":-0.009,"eps":200.15,"epc":337.58,"ecefx":3841087.24,"ecefy":716142.55,"ecefz":5024476.25,"ecefvx":0.00,"ecefvy":-0.01,"ecefvz":-0.01,"ecefpAcc":5.15,"ecefvAcc":0.36,"velN":-0.005,"velE":-0.010,"velD":0.009,"geoidSep":43.899,"eph":24.510,"sep":42.370}
{"class":"SKY","device":"/dev/ttyACM0","time":"2024-07-09T10:11:47.498Z","gdop":2.55,"hdop":1.29,"pdop":2.23,"tdop":1.23,"xdop":0.81,"ydop":1.65,"vdop":1.82,"nSat":14,"uSat":8,"satellites":[{"PRN":2,"gnssid":0,"svid":2,"az":281.0,"el":47.0,"ss":45.0,"used":true,"health":1},{"PRN":22,"gnssid":0,"svid":22,"az":333.0,"el":9.0,"ss":42.0,"used":true,"health":1},{"PRN":27,"gnssid":0,"svid":27,"az":154.0,"el":37.0,"ss":34.0,"used":true,"health":1},{"PRN":23,"gnssid":0,"svid":23,"az":51.0,"el":13.0,"ss":0.0,"used":false,"health":1},{"PRN":24,"gnssid":0,"svid":24,"az":31.0,"el":3.0,"ss":0.0,"used":false,"health":1},{"PRN":13,"gnssid":0,"svid":13,"az":0.0,"el":-9.0,"ss":0.0,"used":false,"health":1},{"PRN":14,"gnssid":0,"svid":14,"az":316.0,"el":20.0,"ss":36.0,"used":true,"health":1},{"PRN":8,"gnssid":0,"svid":8,"az":190.0,"el":66.0,"ss":52.0,"used":true,"health":1},{"PRN":10,"gnssid":0,"svid":10,"az":59.0,"el":47.0,"ss":47.0,"used":true,"health":1},{"PRN":3,"gnssid":0,"svid":3,"az":222.0,"el":4.0,"ss":0.0,"used":false,"health":1},{"PRN":32,"gnssid":0,"svid":32,"az":107.0,"el":36.0,"ss":45.0,"used":true,"health":1},{"PRN":21,"gnssid":0,"svid":21,"az":284.0,"el":65.0,"ss":50.0,"used":true,"health":1},{"PRN":11,"gnssid":0,"svid":11,"az":0.0,"el":-9.0,"ss":0.0,"used":false,"health":1},{"PRN":12,"gnssid":0,"svid":12,"az":0.0,"el":-9.0,"ss":0.0,"used":false,"health":1}]}
{"class":"TPV","device":"/dev/ttyACM0","mode":3,"time":"2024-07-09T10:11:47.750Z","ept":0.005,"lat":52.315966740,"lon":10.561121180,"altHAE":131.5974,"altMSL":87.6985,"alt":87.6985,"epx":12.114,"epy":24.818,"epv":41.860,"track":182.7366,"magtrack":185.9559,"magvar":3.2,"speed":0.038,"climb":-0.034,"eps":0.36,"epc":332.22,"ecefx":3841087.22,"ecefy":716142.57,"ecefz":5024476.25,"ecefvx":0.01,"ecefvy":0.00,"ecefvz":-0.05,"ecefpAcc":5.15,"ecefvAcc":0.36,"velN":-0.038,"velE":-0.002,"velD":0.034,"geoidSep":43.899,"eph":24.510,"sep":42.370}
{"class":"SKY","device":"/dev/ttyACM0","time":"2024-07-09T10:11:47.498Z","gdop":2.55,"hdop":1.29,"pdop":2.23,"tdop":1.23,"xdop":0.81,"ydop":1.65,"vdop":1.82,"uSat":6}
{"class":"SKY","device":"/dev/ttyACM0","time":"2024-07-09T10:11:47.498Z","gdop":2.55,"hdop":1.29,"pdop":2.23,"tdop":1.23,"xdop":0.81,"ydop":1.65,"vdop":1.82,"uSat":6}
{"class":"TPV","device":"/dev/ttyACM0","mode":3,"time":"2024-07-09T10:11:47.750Z","ept":0.005,"lat":52.315966740,"lon":10.561121180,"altHAE":131.5974,"altMSL":87.6985,"alt":87.6985,"epx":12.114,"epy":24.818,"epv":41.860,"track":182.7366,"magtrack":185.9559,"magvar":3.2,"speed":0.038,"climb":-0.034,"eps":196.97,"epc":332.22,"ecefx":3841087.22,"ecefy":716142.57,"ecefz":5024476.25,"ecefvx":0.01,"ecefvy":0.00,"ecefvz":-0.05,"ecefpAcc":5.15,"ecefvAcc":0.36,"velN":-0.038,"velE":-0.002,"velD":0.034,"geoidSep":43.899,"eph":24.510,"sep":42.370}
{"class":"SKY","device":"/dev/ttyACM0","time":"2024-07-09T10:11:47.750Z","gdop":2.55,"hdop":1.29,"pdop":2.23,"tdop":1.23,"xdop":0.81,"ydop":1.65,"vdop":1.82,"nSat":14,"uSat":8,"satellites":[{"PRN":2,"gnssid":0,"svid":2,"az":281.0,"el":47.0,"ss":45.0,"used":true,"health":1},{"PRN":22,"gnssid":0,"svid":22,"az":333.0,"el":9.0,"ss":41.0,"used":true,"health":1},{"PRN":27,"gnssid":0,"svid":27,"az":154.0,"el":37.0,"ss":34.0,"used":true,"health":1},{"PRN":23,"gnssid":0,"svid":23,"az":51.0,"el":13.0,"ss":0.0,"used":false,"health":1},{"PRN":24,"gnssid":0,"svid":24,"az":31.0,"el":3.0,"ss":0.0,"used":false,"health":1},{"PRN":13,"gnssid":0,"svid":13,"az":0.0,"el":-9.0,"ss":0.0,"used":false,"health":1},{"PRN":14,"gnssid":0,"svid":14,"az":316.0,"el":20.0,"ss":36.0,"used":true,"health":1},{"PRN":8,"gnssid":0,"svid":8,"az":190.0,"el":66.0,"ss":52.0,"used":true,"health":1},{"PRN":10,"gnssid":0,"svid":10,"az":59.0,"el":47.0,"ss":47.0,"used":true,"health":1},{"PRN":3,"gnssid":0,"svid":3,"az":222.0,"el":4.0,"ss":0.0,"used":false,"health":1},{"PRN":32,"gnssid":0,"svid":32,"az":107.0,"el":36.0,"ss":45.0,"used":true,"health":1},{"PRN":21,"gnssid":0,"svid":21,"az":284.0,"el":65.0,"ss":50.0,"used":true,"health":1},{"PRN":11,"gnssid":0,"svid":11,"az":0.0,"el":-9.0,"ss":0.0,"used":false,"health":1},{"PRN":12,"gnssid":0,"svid":12,"az":0.0,"el":-9.0,"ss":0.0,"used":false,"health":1}]}
{"class":"TPV","device":"/dev/ttyACM0","mode":3,"time":"2024-07-09T10:11:47.998Z","ept":0.005,"lat":52.315966784,"lon":10.561121495,"altHAE":131.5937,"altMSL":87.6947,"alt":87.6947,"epx":12.114,"epy":24.818,"epv":41.860,"track":13.2565,"magtrack":16.4757,"magvar":3.2,"speed":0.008,"climb":-0.006,"eps":0.34,"epc":337.58,"ecefx":3841087.21,"ecefy":716142.59,"ecefz":5024476.25,"ecefvx":-0.01,"ecefvy":0.00,"ecefvz":0.00,"ecefpAcc":5.15,"ecefvAcc":0.34,"velN":0.008,"velE":0.002,"velD":0.006,"geoidSep":43.899,"eph":24.510,"sep":42.370}
{"class":"SKY","device":"/dev/ttyACM0","time":"2024-07-09T10:11:47.750Z","gdop":2.55,"hdop":1.29,"pdop":2.23,"tdop":1.23,"xdop":0.81,"ydop":1.65,"vdop":1.82,"uSat":6}
{"class":"SKY","device":"/dev/ttyACM0","time":"2024-07-09T10:11:47.750Z","gdop":2.55,"hdop":1.29,"pdop":2.23,"tdop":1.23,"xdop":0.81,"ydop":1.65,"vdop":1.82,"uSat":6}
{"class":"TPV","device":"/dev/ttyACM0","mode":3,"time":"2024-07-09T10:11:47.998Z","ept":0.005,"lat":52.315966784,"lon":10.561121495,"altHAE":131.5937,"altMSL":87.6947,"alt":87.6947,"epx":12.114,"epy":24.818,"epv":41.860,"track":13.2565,"magtrack":16.4757,"magvar":3.2,"speed":0.008,"climb":-0.006,"eps":200.15,"epc":337.58,"ecefx":3841087.21,"ecefy":716142.59,"ecefz":5024476.25,"ecefvx":-0.01,"ecefvy":0.00,"ecefvz":0.00,"ecefpAcc":5.15,"ecefvAcc":0.34,"velN":0.008,"velE":0.002,"velD":0.006,"geoidSep":43.899,"eph":24.510,"sep":42.370}
{"class":"SKY","device":"/dev/ttyACM0","time":"2024-07-09T10:11:47.998Z","gdop":2.55,"hdop":1.29,"pdop":2.23,"tdop":1.23,"xdop":0.81,"ydop":1.65,"vdop":1.82,"nSat":14,"uSat":8,"satellites":[{"PRN":2,"gnssid":0,"svid":2,"az":281.0,"el":47.0,"ss":45.0,"used":true,"health":1},{"PRN":22,"gnssid":0,"svid":22,"az":333.0,"el":9.0,"ss":41.0,"used":true,"health":1},{"PRN":27,"gnssid":0,"svid":27,"az":154.0,"el":37.0,"ss":35.0,"used":true,"health":1},{"PRN":23,"gnssid":0,"svid":23,"az":51.0,"el":13.0,"ss":0.0,"used":false,"health":1},{"PRN":24,"gnssid":0,"svid":24,"az":31.0,"el":3.0,"ss":0.0,"used":false,"health":1},{"PRN":13,"gnssid":0,"svid":13,"az":0.0,"el":-9.0,"ss":0.0,"used":false,"health":1},{"PRN":14,"gnssid":0,"svid":14,"az":316.0,"el":20.0,"ss":36.0,"used":true,"health":1},{"PRN":8,"gnssid":0,"svid":8,"az":190.0,"el":66.0,"ss":52.0,"used":true,"health":1},{"PRN":10,"gnssid":0,"svid":10,"az":59.0,"el":47.0,"ss":47.0,"used":true,"health":1},{"PRN":3,"gnssid":0,"svid":3,"az":222.0,"el":4.0,"ss":0.0,"used":false,"health":1},{"PRN":32,"gnssid":0,"svid":32,"az":107.0,"el":36.0,"ss":45.0,"used":true,"health":1},{"PRN":21,"gnssid":0,"svid":21,"az":284.0,"el":65.0,"ss":50.0,"used":true,"health":1},{"PRN":11,"gnssid":0,"svid":11,"az":0.0,"el":-9.0,"ss":0.0,"used":false,"health":1},{"PRN":12,"gnssid":0,"svid":12,"az":0.0,"el":-9.0,"ss":0.0,"used":false,"health":1}]}
{"class":"TPV","device":"/dev/ttyACM0","mode":3,"time":"2024-07-09T10:11:48.250Z","ept":0.005,"lat":52.315966883,"lon":10.561121810,"altHAE":131.5978,"altMSL":87.6988,"alt":87.6988,"epx":12.114,"epy":24.818,"epv":41.860,"track":168.0928,"magtrack":171.3121,"magvar":3.2,"speed":0.060,"climb":-0.005,"eps":0.36,"epc":332.22,"ecefx":3841087.20,"ecefy":716142.61,"ecefz":5024476.26,"ecefvx":0.04,"ecefvy":0.02,"ecefvz":-0.04,"ecefpAcc":5.15,"ecefvAcc":0.36,"velN":-0.058,"velE":0.012,"velD":0.005,"geoidSep":43.899,"eph":24.510,"sep":42.370}
{"class":"SKY","device":"/dev/ttyACM0","time":"2024-07-09T10:11:47.998Z","gdop":2.55,"hdop":1.29,"pdop":2.23,"tdop":1.23,"xdop":0.81,"ydop":1.65,"vdop":1.82,"uSat":6}
{"class":"SKY","device":"/dev/ttyACM0","time":"2024-07-09T10:11:47.998Z","gdop":2.55,"hdop":1.29,"pdop":2.23,"tdop":1.23,"xdop":0.81,"ydop":1.65,"vdop":1.82,"uSat":6}
{"class":"TPV","device":"/dev/ttyACM0","mode":3,"time":"2024-07-09T10:11:48.250Z","ept":0.005,"lat":52.315966883,"lon":10.561121810,"altHAE":131.5978,"altMSL":87.6988,"alt":87.6988,"epx":12.114,"epy":24.818,"epv":41.860,"track":168.0928,"magtrack":171.3121,"magvar":3.2,"speed":0.060,"climb":-0.005,"eps":196.97,"epc":332.22,"ecefx":3841087.20,"ecefy":716142.61,"ecefz":5024476.26,"ecefvx":0.04,"ecefvy":0.02,"ecefvz":-0.04,"ecefpAcc":5.15,"ecefvAcc":0.36,"velN":-0.058,"velE":0.012,"velD":0.005,"geoidSep":43.899,"eph":24.510,"sep":42.370}
{"class":"SKY","device":"/dev/ttyACM0","time":"2024-07-09T10:11:48.250Z","gdop":2.55,"hdop":1.29,"pdop":2.23,"tdop":1.23,"xdop":0.81,"ydop":1.65,"vdop":1.82,"nSat":14,"uSat":8,"satellites":[{"PRN":2,"gnssid":0,"svid":2,"az":281.0,"el":47.0,"ss":45.0,"used":true,"health":1},{"PRN":22,"gnssid":0,"svid":22,"az":333.0,"el":9.0,"ss":42.0,"used":true,"health":1},{"PRN":27,"gnssid":0,"svid":27,"az":154.0,"el":37.0,"ss":34.0,"used":true,"health":1},{"PRN":23,"gnssid":0,"svid":23,"az":51.0,"el":13.0,"ss":0.0,"used":false,"health":1},{"PRN":24,"gnssid":0,"svid":24,"az":31.0,"el":3.0,"ss":0.0,"used":false,"health":1},{"PRN":13,"gnssid":0,"svid":13,"az":0.0,"el":-9.0,"ss":0.0,"used":false,"health":1},{"PRN":14,"gnssid":0,"svid":14,"az":316.0,"el":20.0,"ss":35.0,"used":true,"health":1},{"PRN":8,"gnssid":0,"svid":8,"az":190.0,"el":66.0,"ss":52.0,"used":true,"health":1},{"PRN":10,"gnssid":0,"svid":10,"az":59.0,"el":47.0,"ss":46.0,"used":true,"health":1},{"PRN":3,"gnssid":0,"svid":3,"az":222.0,"el":4.0,"ss":0.0,"used":false,"health":1},{"PRN":32,"gnssid":0,"svid":32,"az":107.0,"el":36.0,"ss":45.0,"used":true,"health":1},{"PRN":21,"gnssid":0,"svid":21,"az":284.0,"el":65.0,"ss":50.0,"used":true,"health":1},{"PRN":11,"gnssid":0,"svid":11,"az":0.0,"el":-9.0,"ss":0.0,"used":false,"health":1},{"PRN":12,"gnssid":0,"svid":12,"az":0.0,"el":-9.0,"ss":0.0,"used":false,"health":1}]}
{"class":"TPV","device":"/dev/ttyACM0","mode":3,"time":"2024-07-09T10:11:48.498Z","ept":0.005,"lat":52.315967118,"lon":10.561121837,"altHAE":131.6155,"altMSL":87.7166,"alt":87.7166,"epx":12.114,"epy":24.818,"epv":41.860,"track":264.4272,"magtrack":267.6465,"magvar":3.2,"speed":0.124,"climb":-0.003,"eps":0.36,"epc":337.58,"ecefx":3841087.19,"ecefy":716142.61,"ecefz":5024476.29,"ecefvx":0.03,"ecefvy":-0.12,"ecefvz":-0.01,"ecefpAcc":5.15,"ecefvAcc":0.36,"velN":-0.012,"velE":-0.123,"velD":0.003,"geoidSep":43.899,"eph":24.510,"sep":43.890}
{"class":"SKY","device":"/dev/ttyACM0","time":"2024-07-09T10:11:48.250Z","gdop":2.55,"hdop":1.29,"pdop":2.31,"tdop":1.23,"xdop":0.81,"ydop":1.65,"vdop":1.82,"uSat":6}
{"class":"SKY","device":"/dev/ttyACM0","time":"2024-07-09T10:11:48.250Z","gdop":2.66,"hdop":1.31,"pdop":2.31,"tdop":1.32,"xdop":0.81,"ydop":1.65,"vdop":1.90,"uSat":6}
{"class":"TPV","device":"/dev/ttyACM0","mode":3,"time":"2024-07-09T10:11:48.498Z","ept":0.005,"lat":52.315967118,"lon":10.561121837,"altHAE":131.6155,"altMSL":87.7166,"alt":87.7166,"epx":12.114,"epy":24.818,"epv":41.860,"track":264.4272,"magtrack":267.6465,"magvar":3.2,"speed":0.124,"climb":-0.003,"eps":200.15,"epc":337.58,"ecefx":3841087.19,"ecefy":716142.61,"ecefz":5024476.29,"ecefvx":0.03,"ecefvy":-0.12,"ecefvz":-0.01,"ecefpAcc":5.15,"ecefvAcc":0.36,"velN":-0.012,"velE":-0.123,"velD":0.003,"geoidSep":43.899,"eph":24.510,"sep":43.890}
{"class":"SKY","device":"/dev/ttyACM0","time":"2024-07-09T10:11:48.498Z","gdop":2.66,"hdop":1.31,"pdop":2.31,"tdop":1.32,"xdop":0.81,"ydop":1.65,"vdop":1.90,"nSat":14,"uSat":7,"satellites":[{"PRN":2,"gnssid":0,"svid":2,"az":281.0,"el":47.0,"ss":46.0,"used":true,"health":1},{"PRN":22,"gnssid":0,"svid":22,"az":333.0,"el":9.0,"ss":42.0,"used":true,"health":1},{"PRN":27,"gnssid":0,"svid":27,"az":154.0,"el":37.0,"ss":34.0,"used":true,"health":1},{"PRN":23,"gnssid":0,"svid":23,"az":51.0,"el":13.0,"ss":0.0,"used":false,"health":1},{"PRN":24,"gnssid":0,"svid":24,"az":31.0,"el":3.0,"ss":0.0,"used":false,"health":1},{"PRN":13,"gnssid":0,"svid":13,"az":0.0,"el":-9.0,"ss":0.0,"used":false,"health":1},{"PRN":14,"gnssid":0,"svid":14,"az":316.0,"el":20.0,"ss":33.0,"used":false,"health":1},{"PRN":8,"gnssid":0,"svid":8,"az":190.0,"el":66.0,"ss":52.0,"used":true,"health":1},{"PRN":10,"gnssid":0,"svid":10,"az":59.0,"el":47.0,"ss":46.0,"used":true,"health":1},{"PRN":3,"gnssid":0,"svid":3,"az":222.0,"el":4.0,"ss":0.0,"used":false,"health":1},{"PRN":32,"gnssid":0,"svid":32,"az":107.0,"el":36.0,"ss":46.0,"used":true,"health":1},{"PRN":21,"gnssid":0,"svid":21,"az":284.0,"el":65.0,"ss":50.0,"used":true,"health":1},{"PRN":11,"gnssid":0,"svid":11,"az":0.0,"el":-9.0,"ss":0.0,"used":false,"health":1},{"PRN":12,"gnssid":0,"svid":12,"az":0.0,"el":-9.0,"ss":0.0,"used":false,"health":1}]}
{"class":"TPV","device":"/dev/ttyACM0","mode":3,"time":"2024-07-09T10:11:48.750Z","ept":0.005,"lat":52.315967375,"lon":10.561121233,"altHAE":131.6566,"altMSL":87.7577,"alt":87.7577,"epx":12.114,"epy":24.818,"epv":43.700,"track":272.2219,"magtrack":275.4411,"magvar":3.2,"speed":0.314,"climb":0.003,"eps":0.49,"epc":339.52,"ecefx":3841087.20,"ecefy":716142.57,"ecefz":5024476.34,"ecefvx":0.05,"ecefvy":-0.31,"ecefvz":0.01,"ecefpAcc":5.15,"ecefvAcc":0.49,"velN":0.012,"velE":-0.314,"velD":-0.003,"geoidSep":43.899,"eph":24.890,"sep":42.370}
{"class":"SKY","device":"/dev/ttyACM0","time":"2024-07-09T10:11:48.498Z","gdop":2.66,"hdop":1.31,"pdop":2.23,"tdop":1.32,"xdop":0.81,"ydop":1.65,"vdop":1.90,"uSat":6}
{"class":"SKY","device":"/dev/ttyACM0","time":"2024-07-09T10:11:48.498Z","gdop":2.55,"hdop":1.29,"pdop":2.23,"tdop":1.23,"xdop":0.81,"ydop":1.65,"vdop":1.82,"uSat":6}
{"class":"TPV","device":"/dev/ttyACM0","mode":3,"time":"2024-07-09T10:11:48.750Z","ept":0.005,"lat":52.315967375,"lon":10.561121233,"altHAE":131.6566,"altMSL":87.7577,"alt":87.7577,"epx":12.114,"epy":24.818,"epv":43.700,"track":272.2219,"magtrack":275.4411,"magvar":3.2,"speed":0.314,"climb":0.003,"eps":196.97,"epc":339.52,"ecefx":3841087.20,"ecefy":716142.57,"ecefz":5024476.34,"ecefvx":0.05,"ecefvy":-0.31,"ecefvz":0.01,"ecefpAcc":5.15,"ecefvAcc":0.49,"velN":0.012,"velE":-0.314,"velD":-0.003,"geoidSep":43.899,"eph":24.890,"sep":42.370}
{"class":"SKY","device":"/dev/ttyACM0","time":"2024-07-09T10:11:48.750Z","gdop":2.55,"hdop":1.29,"pdop":2.23,"tdop":1.23,"xdop":0.81,"ydop":1.65,"vdop":1.82,"nSat":14,"uSat":8,"satellites":[{"PRN":2,"gnssid":0,"svid":2,"az":281.0,"el":47.0,"ss":47.0,"used":true,"health":1},{"PRN":22,"gnssid":0,"svid":22,"az":333.0,"el":9.0,"ss":38.0,"used":true,"health":1},{"PRN":27,"gnssid":0,"svid":27,"az":154.0,"el":37.0,"ss":32.0,"used":true,"health":1},{"PRN":23,"gnssid":0,"svid":23,"az":51.0,"el":13.0,"ss":0.0,"used":false,"health":1},{"PRN":24,"gnssid":0,"svid":24,"az":31.0,"el":3.0,"ss":0.0,"used":false,"health":1},{"PRN":13,"gnssid":0,"svid":13,"az":0.0,"el":-9.0,"ss":0.0,"used":false,"health":1},{"PRN":14,"gnssid":0,"svid":14,"az":316.0,"el":20.0,"ss":37.0,"used":true,"health":1},{"PRN":8,"gnssid":0,"svid":8,"az":190.0,"el":66.0,"ss":52.0,"used":true,"health":1},{"PRN":10,"gnssid":0,"svid":10,"az":59.0,"el":47.0,"ss":47.0,"used":true,"health":1},{"PRN":3,"gnssid":0,"svid":3,"az":222.0,"el":4.0,"ss":0.0,"used":false,"health":1},{"PRN":32,"gnssid":0,"svid":32,"az":107.0,"el":36.0,"ss":47.0,"used":true,"health":1},{"PRN":21,"gnssid":0,"svid":21,"az":284.0,"el":65.0,"ss":49.0,"used":true,"health":1},{"PRN":11,"gnssid":0,"svid":11,"az":0.0,"el":-9.0,"ss":0.0,"used":false,"health":1},{"PRN":12,"gnssid":0,"svid":12,"az":0.0,"el":-9.0,"ss":0.0,"used":false,"health":1}]}
{"class":"TPV","device":"/dev/ttyACM0","mode":3,"time":"2024-07-09T10:11:48.998Z","ept":0.005,"lat":52.315967406,"lon":10.561119477,"altHAE":131.6413,"altMSL":87.7423,"alt":87.7423,"epx":12.114,"epy":24.818,"epv":41.860,"track":265.6943,"magtrack":268.9136,"magvar":3.2,"speed":0.617,"climb":-0.015,"eps":0.39,"epc":345.00,"ecefx":3841087.21,"ecefy":716142.45,"ecefz":5024476.33,"ecefvx":0.14,"ecefvy":-0.60,"ecefvz":-0.04,"ecefpAcc":5.15,"ecefvAcc":0.39,"velN":-0.046,"velE":-0.615,"velD":0.015,"geoidSep":43.899,"eph":24.510,"sep":48.260}
{"class":"SKY","device":"/dev/ttyACM0","time":"2024-07-09T10:11:48.750Z","gdop":2.55,"hdop":1.29,"pdop":2.54,"tdop":1.23,"xdop":0.81,"ydop":1.65,"vdop":1.82,"uSat":6}
{"class":"SKY","device":"/dev/ttyACM0","time":"2024-07-09T10:11:48.750Z","gdop":2.97,"hdop":1.31,"pdop":2.54,"tdop":1.53,"xdop":0.81,"ydop":1.65,"vdop":2.17,"uSat":6}
{"class":"TPV","device":"/dev/ttyACM0","mode":3,"time":"2024-07-09T10:11:48.998Z","ept":0.005,"lat":52.315967406,"lon":10.561119477,"altHAE":131.6413,"altMSL":87.7423,"alt":87.7423,"epx":12.114,"epy":24.818,"epv":41.860,"track":265.6943,"magtrack":268.9136,"magvar":3.2,"speed":0.617,"climb":-0.015,"eps":200.15,"epc":345.00,"ecefx":3841087.21,"ecefy":716142.45,"ecefz":5024476.33,"ecefvx":0.14,"ecefvy":-0.60,"ecefvz":-0.04,"ecefpAcc":5.15,"ecefvAcc":0.39,"velN":-0.046,"velE":-0.615,"velD":0.015,"geoidSep":43.899,"eph":24.510,"sep":48.260}
{"class":"SKY","device":"/dev/ttyACM0","time":"2024-07-09T10:11:48.998Z","gdop":2.97,"hdop":1.31,"pdop":2.54,"tdop":1.53,"xdop":0.81,"ydop":1.65,"vdop":2.17,"nSat":14,"uSat":7,"satellites":[{"PRN":2,"gnssid":0,"svid":2,"az":281.0,"el":47.0,"ss":46.0,"used":true,"health":1},{"PRN":22,"gnssid":0,"svid":22,"az":333.0,"el":9.0,"ss":33.0,"used":false,"health":1},{"PRN":27,"gnssid":0,"svid":27,"az":154.0,"el":37.0,"ss":35.0,"used":true,"health":1},{"PRN":23,"gnssid":0,"svid":23,"az":51.0,"el":13.0,"ss":0.0,"used":false,"health":1},{"PRN":24,"gnssid":0,"svid":24,"az":31.0,"el":3.0,"ss":0.0,"used":false,"health":1},{"PRN":13,"gnssid":0,"svid":13,"az":0.0,"el":-9.0,"ss":0.0,"used":false,"health":1},{"PRN":14,"gnssid":0,"svid":14,"az":316.0,"el":20.0,"ss":40.0,"used":true,"health":1},{"PRN":8,"gnssid":0,"svid":8,"az":190.0,"el":66.0,"ss":52.0,"used":true,"health":1},{"PRN":10,"gnssid":0,"svid":10,"az":59.0,"el":47.0,"ss":46.0,"used":true,"health":1},{"PRN":3,"gnssid":0,"svid":3,"az":222.0,"el":4.0,"ss":0.0,"used":false,"health":1},{"PRN":32,"gnssid":0,"svid":32,"az":107.0,"el":36.0,"ss":48.0,"used":true,"health":1},{"PRN":21,"gnssid":0,"svid":21,"az":284.0,"el":65.0,"ss":48.0,"used":true,"health":1},{"PRN":11,"gnssid":0,"svid":11,"az":0.0,"el":-9.0,"ss":0.0,"used":false,"health":1},{"PRN":12,"gnssid":0,"svid":12,"az":0.0,"el":-9.0,"ss":0.0,"used":false,"health":1}]}
{"class":"TPV","device":"/dev/ttyACM0","mode":3,"time":"2024-07-09T10:11:49.250Z","ept":0.005,"lat":52.315967666,"lon":10.561116828,"altHAE":131.6569,"altMSL":87.7579,"alt":87.7579,"epx":12.114,"epy":24.818,"epv":49.910,"track":285.4220,"magtrack":288.6413,"magvar":3.2,"speed":0.918,"climb":-0.037,"eps":2.50,"epc":364.17,"ecefx":3841087.23,"ecefy":716142.27,"ecefz":5024476.36,"ecefvx":-0.05,"ecefvy":-0.91,"ecefvz":0.12,"ecefpAcc":5.15,"ecefvAcc":2.50,"velN":0.244,"velE":-0.885,"velD":0.037,"geoidSep":43.899,"eph":24.890,"sep":58.140}
{"class":"SKY","device":"/dev/ttyACM0","time":"2024-07-09T10:11:48.998Z","gdop":2.97,"hdop":1.31,"pdop":3.06,"tdop":1.53,"xdop":0.81,"ydop":1.65,"vdop":2.17,"uSat":6}
{"class":"SKY","device":"/dev/ttyACM0","time":"2024-07-09T10:11:48.998Z","gdop":3.56,"hdop":1.83,"pdop":3.06,"tdop":1.83,"xdop":0.81,"ydop":1.65,"vdop":2.45,"uSat":6}
{"class":"TPV","device":"/dev/ttyACM0","mode":3,"time":"2024-07-09T10:11:49.250Z","ept":0.005,"lat":52.315967666,"lon":10.561116828,"altHAE":131.6569,"altMSL":87.7579,"alt":87.7579,"epx":12.114,"epy":24.818,"epv":49.910,"track":285.4220,"magtrack":288.6413,"magvar":3.2,"speed":0.918,"climb":-0.037,"eps":196.97,"epc":364.17,"ecefx":3841087.23,"ecefy":716142.27,"ecefz":5024476.36,"ecefvx":-0.05,"ecefvy":-0.91,"ecefvz":0.12,"ecefpAcc":5.15,"ecefvAcc":2.50,"velN":0.244,"velE":-0.885,"velD":0.037,"geoidSep":43.899,"eph":24.890,"sep":58.140}
{"class":"SKY","device":"/dev/ttyACM0","time":"2024-07-09T10:11:49.250Z","gdop":3.56,"hdop":1.83,"pdop":3.06,"tdop":1.83,"xdop":0.81,"ydop":1.65,"vdop":2.45,"nSat":14,"uSat":7,"satellites":[{"PRN":2,"gnssid":0,"svid":2,"az":281.0,"el":47.0,"ss":46.0,"used":true,"health":1},{"PRN":22,"gnssid":0,"svid":22,"az":333.0,"el":9.0,"ss":37.0,"used":true,"health":1},{"PRN":27,"gnssid":0,"svid":27,"az":154.0,"el":37.0,"ss":34.0,"used":false,"health":1},{"PRN":23,"gnssid":0,"svid":23,"az":51.0,"el":13.0,"ss":0.0,"used":false,"health":1},{"PRN":24,"gnssid":0,"svid":24,"az":31.0,"el":3.0,"ss":0.0,"used":false,"health":1},{"PRN":13,"gnssid":0,"svid":13,"az":0.0,"el":-9.0,"ss":0.0,"used":false,"health":1},{"PRN":14,"gnssid":0,"svid":14,"az":316.0,"el":20.0,"ss":39.0,"used":true,"health":1},{"PRN":8,"gnssid":0,"svid":8,"az":190.0,"el":66.0,"ss":50.0,"used":true,"health":1},{"PRN":10,"gnssid":0,"svid":10,"az":59.0,"el":47.0,"ss":48.0,"used":true,"health":1},{"PRN":3,"gnssid":0,"svid":3,"az":222.0,"el":4.0,"ss":0.0,"used":false,"health":1},{"PRN":32,"gnssid":0,"svid":32,"az":107.0,"el":36.0,"ss":48.0,"used":true,"health":1},{"PRN":21,"gnssid":0,"svid":21,"az":284.0,"el":65.0,"ss":48.0,"used":true,"health":1},{"PRN":11,"gnssid":0,"svid":11,"az":0.0,"el":-9.0,"ss":0.0,"used":false,"health":1},{"PRN":12,"gnssid":0,"svid":12,"az":0.0,"el":-9.0,"ss":0.0,"used":false,"health":1}]}
{"class":"TPV","device":"/dev/ttyACM0","mode":3,"time":"2024-07-09T10:11:49.498Z","ept":0.005,"lat":52.315968585,"lon":10.561113539,"altHAE":131.7042,"altMSL":87.8053,"alt":87.8053,"epx":12.114,"epy":24.818,"epv":56.350,"track":290.1985,"magtrack":293.4178,"magvar":3.2,"speed":1.127,"climb":-0.035,"eps":0.54,"epc":428.47,"ecefx":3841087.22,"ecefy":716142.04,"ecefz":5024476.46,"ecefvx":-0.13,"ecefvy":-1.10,"ecefvz":0.21,"ecefpAcc":5.16,"ecefvAcc":0.54,"velN":0.389,"velE":-1.058,"velD":0.035,"geoidSep":43.899,"eph":34.770,"sep":42.370}
{"class":"SKY","device":"/dev/ttyACM0","time":"2024-07-09T10:11:49.250Z","gdop":3.56,"hdop":1.83,"pdop":2.23,"tdop":1.83,"xdop":0.81,"ydop":1.65,"vdop":2.45,"uSat":6}
{"class":"SKY","device":"/dev/ttyACM0","time":"2024-07-09T10:11:49.250Z","gdop":2.55,"hdop":1.29,"pdop":2.23,"tdop":1.23,"xdop":0.81,"ydop":1.65,"vdop":1.82,"uSat":6}
{"class":"TPV","device":"/dev/ttyACM0","mode":3,"time":"2024-07-09T10:11:49.498Z","ept":0.005,"lat":52.315968585,"lon":10.561113539,"altHAE":131.7042,"altMSL":87.8053,"alt":87.8053,"epx":12.114,"epy":24.818,"epv":56.350,"track":290.1985,"magtrack":293.4178,"magvar":3.2,"speed":1.127,"climb":-0.035,"eps":200.15,"epc":428.47,"ecefx":3841087.22,"ecefy":716142.04,"ecefz":5024476.46,"ecefvx":-0.13,"ecefvy":-1.10,"ecefvz":0.21,"ecefpAcc":5.16,"ecefvAcc":0.54,"velN":0.389,"velE":-1.058,"velD":0.035,"geoidSep":43.899,"eph":34.770,"sep":42.370}
{"class":"SKY","device":"/dev/ttyACM0","time":"2024-07-09T10:11:49.498Z","gdop":2.55,"hdop":1.29,"pdop":2.23,"tdop":1.23,"xdop":0.81,"ydop":1.65,"vdop":1.82,"nSat":14,"uSat":8,"satellites":[{"PRN":2,"gnssid":0,"svid":2,"az":281.0,"el":47.0,"ss":45.0,"used":true,"health":1},{"PRN":22,"gnssid":0,"svid":22,"az":333.0,"el":9.0,"ss":39.0,"used":true,"health":1},{"PRN":27,"gnssid":0,"svid":27,"az":154.0,"el":37.0,"ss":32.0,"used":true,"health":1},{"PRN":23,"gnssid":0,"svid":23,"az":51.0,"el":13.0,"ss":0.0,"used":false,"health":1},{"PRN":24,"gnssid":0,"svid":24,"az":31.0,"el":3.0,"ss":0.0,"used":false,"health":1},{"PRN":13,"gnssid":0,"svid":13,"az":0.0,"el":-9.0,"ss":0.0,"used":false,"health":1},{"PRN":14,"gnssid":0,"svid":14,"az":316.0,"el":20.0,"ss":40.0,"used":true,"health":1},{"PRN":8,"gnssid":0,"svid":8,"az":190.0,"el":66.0,"ss":50.0,"used":true,"health":1},{"PRN":10,"gnssid":0,"svid":10,"az":59.0,"el":47.0,"ss":49.0,"used":true,"health":1},{"PRN":3,"gnssid":0,"svid":3,"az":222.0,"el":4.0,"ss":0.0,"used":false,"health":1},{"PRN":32,"gnssid":0,"svid":32,"az":107.0,"el":36.0,"ss":48.0,"used":true,"health":1},{"PRN":21,"gnssid":0,"svid":21,"az":284.0,"el":65.0,"ss":48.0,"used":true,"health":1},{"PRN":11,"gnssid":0,"svid":11,"az":0.0,"el":-9.0,"ss":0.0,"used":false,"health":1},{"PRN":12,"gnssid":0,"svid":12,"az":0.0,"el":-9.0,"ss":0.0,"used":false,"health":1}]}
{"class":"TPV","device":"/dev/ttyACM0","mode":3,"time":"2024-07-09T10:11:49.750Z","ept":0.005,"lat":52.315969765,"lon":10.561109349,"altHAE":131.7039,"altMSL":87.8049,"alt":87.8049,"epx":12.114,"epy":24.818,"epv":41.860,"track":294.3896,"magtrack":297.6089,"magvar":3.2,"speed":1.294,"climb":-0.034,"eps":1.03,"epc":389.72,"ecefx":3841087.17,"ecefy":716141.74,"ecefz":5024476.54,"ecefvx":-0.22,"ecefvy":-1.24,"ecefvz":0.30,"ecefpAcc":5.16,"ecefvAcc":1.03,"velN":0.534,"velE":-1.179,"velD":0.034,"geoidSep":43.899,"eph":24.510,"sep":48.260}
{"class":"SKY","device":"/dev/ttyACM0","time":"2024-07-09T10:11:49.498Z","gdop":2.55,"hdop":1.29,"pdop":2.54,"tdop":1.23,"xdop":0.81,"ydop":1.65,"vdop":1.82,"uSat":6}
{"class":"SKY","device":"/dev/ttyACM0","time":"2024-07-09T10:11:49.498Z","gdop":2.96,"hdop":1.31,"pdop":2.54,"tdop":1.53,"xdop":0.81,"ydop":1.65,"vdop":2.17,"uSat":6}
{"class":"TPV","device":"/dev/ttyACM0","mode":3,"time":"2024-07-09T10:11:49.750Z","ept":0.005,"lat":52.315969765,"lon":10.561109349,"altHAE":131.7039,"altMSL":87.8049,"alt":87.8049,"epx":12.114,"epy":24.818,"epv":41.860,"track":294.3896,"magtrack":297.6089,"magvar":3.2,"speed":1.294,"climb":-0.034,"eps":196.97,"epc":389.72,"ecefx":3841087.17,"ecefy":716141.74,"ecefz":5024476.54,"ecefvx":-0.22,"ecefvy":-1.24,"ecefvz":0.30,"ecefpAcc":5.16,"ecefvAcc":1.03,"velN":0.534,"velE":-1.179,"velD":0.034,"geoidSep":43.899,"eph":24.510,"sep":48.260}
{"class":"SKY","device":"/dev/ttyACM0","time":"2024-07-09T10:11:49.750Z","gdop":2.96,"hdop":1.31,"pdop":2.54,"tdop":1.53,"xdop":0.81,"ydop":1.65,"vdop":2.17,"nSat":14,"uSat":7,"satellites":[{"PRN":2,"gnssid":0,"svid":2,"az":281.0,"el":47.0,"ss":46.0,"used":true,"health":1},{"PRN":22,"gnssid":0,"svid":22,"az":333.0,"el":9.0,"ss":42.0,"used":false,"health":1},{"PRN":27,"gnssid":0,"svid":27,"az":154.0,"el":37.0,"ss":29.0,"used":true,"health":1},{"PRN":23,"gnssid":0,"svid":23,"az":51.0,"el":13.0,"ss":0.0,"used":false,"health":1},{"PRN":24,"gnssid":0,"svid":24,"az":31.0,"el":3.0,"ss":0.0,"used":false,"health":1},{"PRN":13,"gnssid":0,"svid":13,"az":0.0,"el":-9.0,"ss":0.0,"used":false,"health":1},{"PRN":14,"gnssid":0,"svid":14,"az":316.0,"el":20.0,"ss":40.0,"used":true,"health":1},{"PRN":8,"gnssid":0,"svid":8,"az":190.0,"el":66.0,"ss":50.0,"used":true,"health":1},{"PRN":10,"gnssid":0,"svid":10,"az":59.0,"el":47.0,"ss":49.0,"used":true,"health":1},{"PRN":3,"gnssid":0,"svid":3,"az":222.0,"el":4.0,"ss":0.0,"used":false,"health":1},{"PRN":32,"gnssid":0,"svid":32,"az":107.0,"el":36.0,"ss":48.0,"used":true,"health":1},{"PRN":21,"gnssid":0,"svid":21,"az":284.0,"el":65.0,"ss":48.0,"used":true,"health":1},{"PRN":11,"gnssid":0,"svid":11,"az":0.0,"el":-9.0,"ss":0.0,"used":false,"health":1},{"PRN":16,"gnssid":0,"svid":16,"az":0.0,"el":-9.0,"ss":0.0,"used":false,"health":1}]}
{"class":"TPV","device":"/dev/ttyACM0","mode":3,"time":"2024-07-09T10:11:49.998Z","ept":0.005,"lat":52.315970911,"lon":10.561104763,"altHAE":131.7570,"altMSL":87.8580,"alt":87.8580,"epx":12.114,"epy":24.818,"epv":49.910,"track":292.2600,"magtrack":295.4793,"magvar":3.2,"speed":1.439,"climb":-0.017,"eps":1.17,"epc":370.04,"ecefx":3841087.16,"ecefy":716141.42,"ecefz":5024476.66,"ecefvx":-0.19,"ecefvy":-1.39,"ecefvz":0.32,"ecefpAcc":5.16,"ecefvAcc":1.17,"velN":0.545,"velE":-1.332,"velD":0.017,"geoidSep":43.899,"eph":24.890,"sep":58.140}
{"class":"SKY","device":"/dev/ttyACM0","time":"2024-07-09T10:11:49.750Z","gdop":2.96,"hdop":1.31,"pdop":3.06,"tdop":1.53,"xdop":0.81,"ydop":1.65,"vdop":2.17,"uSat":6}
{"class":"SKY","device":"/dev/ttyACM0","time":"2024-07-09T10:11:49.750Z","gdop":3.56,"hdop":1.83,"pdop":3.06,"tdop":1.83,"xdop":0.81,"ydop":1.65,"vdop":2.45,"uSat":6}
{"class":"TPV","device":"/dev/ttyACM0","mode":3,"time":"2024-07-09T10:11:49.998Z","ept":0.005,"lat":52.315970911,"lon":10.561104763,"altHAE":131.7570,"altMSL":87.8580,"alt":87.8580,"epx":12.114,"epy":24.818,"epv":49.910,"track":292.2600,"magtrack":295.4793,"magvar":3.2,"speed":1.439,"climb":-0.017,"eps":200.15,"epc":370.04,"ecefx":3841087.16,"ecefy":716141.42,"ecefz":5024476.66,"ecefvx":-0.19,"ecefvy":-1.39,"ecefvz":0.32,"ecefpAcc":5.16,"ecefvAcc":1.17,"velN":0.545,"velE":-1.332,"velD":0.017,"geoidSep":43.899,"eph":24.890,"sep":58.140}
{"class":"SKY","device":"/dev/ttyACM0","time":"2024-07-09T10:11:49.998Z","gdop":3.56,"hdop":1.83,"pdop":3.06,"tdop":1.83,"xdop":0.81,"ydop":1.65,"vdop":2.45,"nSat":14,"uSat":7,"satellites":[{"PRN":2,"gnssid":0,"svid":2,"az":281.0,"el":47.0,"ss":46.0,"used":true,"health":1},{"PRN":22,"gnssid":0,"svid":22,"az":333.0,"el":9.0,"ss":43.0,"used":true,"health":1},{"PRN":27,"gnssid":0,"svid":27,"az":154.0,"el":37.0,"ss":30.0,"used":false,"health":1},{"PRN":23,"gnssid":0,"svid":23,"az":51.0,"el":13.0,"ss":0.0,"used":false,"health":1},{"PRN":24,"gnssid":0,"svid":24,"az":31.0,"el":3.0,"ss":0.0,"used":false,"health":1},{"PRN":13,"gnssid":0,"svid":13,"az":0.0,"el":-9.0,"ss":0.0,"used":false,"health":1},{"PRN":14,"gnssid":0,"svid":14,"az":316.0,"el":20.0,"ss":39.0,"used":true,"health":1},{"PRN":8,"gnssid":0,"svid":8,"az":190.0,"el":66.0,"ss":50.0,"used":true,"health":1},{"PRN":10,"gnssid":0,"svid":10,"az":59.0,"el":47.0,"ss":50.0,"used":true,"health":1},{"PRN":3,"gnssid":0,"svid":3,"az":222.0,"el":4.0,"ss":0.0,"used":false,"health":1},{"PRN":32,"gnssid":0,"svid":32,"az":107.0,"el":36.0,"ss":48.0,"used":true,"health":1},{"PRN":21,"gnssid":0,"svid":21,"az":284.0,"el":65.0,"ss":48.0,"used":true,"health":1},{"PRN":11,"gnssid":0,"svid":11,"az":0.0,"el":-9.0,"ss":0.0,"used":false,"health":1},{"PRN":16,"gnssid":0,"svid":16,"az":0.0,"el":-9.0,"ss":0.0,"used":false,"health":1}]}
{"class":"TPV","device":"/dev/ttyACM0","mode":3,"time":"2024-07-09T10:11:50.250Z","ept":0.005,"lat":52.315972346,"lon":10.561099798,"altHAE":131.8105,"altMSL":87.9116,"alt":87.9116,"epx":12.114,"epy":24.818,"epv":56.350,"track":297.4036,"magtrack":300.6229,"magvar":3.2,"speed":1.575,"climb":-0.004,"eps":1.73,"epc":421.67,"ecefx":3841087.13,"ecefy":716141.07,"ecefz":5024476.80,"ecefvx":-0.31,"ecefvy":-1.48,"ecefvz":0.44,"ecefpAcc":5.17,"ecefvAcc":1.73,"velN":0.725,"velE":-1.398,"velD":0.004,"geoidSep":43.899,"eph":34.770,"sep":58.140}
{"class":"SKY","device":"/dev/ttyACM0","time":"2024-07-09T10:11:49.998Z","gdop":3.56,"hdop":1.83,"pdop":3.06,"tdop":1.83,"xdop":0.81,"ydop":1.65,"vdop":2.45,"uSat":6}
{"class":"SKY","device":"/dev/ttyACM0","time":"2024-07-09T10:11:49.998Z","gdop":3.56,"hdop":1.83,"pdop":3.06,"tdop":1.83,"xdop":0.81,"ydop":1.65,"vdop":2.45,"uSat":6}
{"class":"TPV","device":"/dev/ttyACM0","mode":3,"time":"2024-07-09T10:11:50.250Z","ept":0.005,"lat":52.315972346,"lon":10.561099798,"altHAE":131.8105,"altMSL":87.9116,"alt":87.9116,"epx":12.114,"epy":24.818,"epv":56.350,"track":297.4036,"magtrack":300.6229,"magvar":3.2,"speed":1.575,"climb":-0.004,"eps":196.97,"epc":421.67,"ecefx":3841087.13,"ecefy":716141.07,"ecefz":5024476.80,"ecefvx":-0.31,"ecefvy":-1.48,"ecefvz":0.44,"ecefpAcc":5.17,"ecefvAcc":1.73,"velN":0.725,"velE":-1.398,"velD":0.004,"geoidSep":43.899,"eph":34.770,"sep":58.140}
{"class":"SKY","device":"/dev/ttyACM0","time":"2024-07-09T10:11:50.250Z","gdop":3.56,"hdop":1.83,"pdop":3.06,"tdop":1.83,"xdop":0.81,"ydop":1.65,"vdop":2.45,"nSat":14,"uSat":7,"satellites":[{"PRN":2,"gnssid":0,"svid":2,"az":281.0,"el":47.0,"ss":46.0,"used":true,"health":1},{"PRN":22,"gnssid":0,"svid":22,"az":333.0,"el":9.0,"ss":43.0,"used":true,"health":1},{"PRN":27,"gnssid":0,"svid":27,"az":154.0,"el":37.0,"ss":31.0,"used":false,"health":1},{"PRN":23,"gnssid":0,"svid":23,"az":51.0,"el":13.0,"ss":0.0,"used":false,"health":1},{"PRN":24,"gnssid":0,"svid":24,"az":31.0,"el":3.0,"ss":0.0,"used":false,"health":1},{"PRN":13,"gnssid":0,"svid":13,"az":0.0,"el":-9.0,"ss":0.0,"used":false,"health":1},{"PRN":14,"gnssid":0,"svid":14,"az":316.0,"el":20.0,"ss":39.0,"used":true,"health":1},{"PRN":8,"gnssid":0,"svid":8,"az":190.0,"el":66.0,"ss":50.0,"used":true,"health":1},{"PRN":10,"gnssid":0,"svid":10,"az":59.0,"el":47.0,"ss":49.0,"used":true,"health":1},{"PRN":3,"gnssid":0,"svid":3,"az":222.0,"el":4.0,"ss":0.0,"used":false,"health":1},{"PRN":32,"gnssid":0,"svid":32,"az":107.0,"el":36.0,"ss":48.0,"used":true,"health":1},{"PRN":21,"gnssid":0,"svid":21,"az":284.0,"el":65.0,"ss":48.0,"used":true,"health":1},{"PRN":11,"gnssid":0,"svid":11,"az":0.0,"el":-9.0,"ss":0.0,"used":false,"health":1},{"PRN":16,"gnssid":0,"svid":16,"az":0.0,"el":-9.0,"ss":0.0,"used":false,"health":1}]}
{"class":"TPV","device":"/dev/ttyACM0","mode":3,"time":"2024-07-09T10:11:50.498Z","ept":0.005,"lat":52.315973933,"lon":10.561094338,"altHAE":131.8258,"altMSL":87.9268,"alt":87.9268,"epx":12.114,"epy":24.818,"epv":56.350,"track":295.2187,"magtrack":298.4380,"magvar":3.2,"speed":1.662,"climb":0.009,"eps":0.51,"epc":454.43,"ecefx":3841087.07,"ecefy":716140.68,"ecefz":5024476.92,"ecefvx":-0.27,"ecefvy":-1.58,"ecefvz":0.44,"ecefpAcc":5.17,"ecefvAcc":0.51,"velN":0.708,"velE":-1.504,"velD":-0.009,"geoidSep":43.899,"eph":34.770,"sep":48.260}
{"class":"SKY","device":"/dev/ttyACM0","time":"2024-07-09T10:11:50.250Z","gdop":3.56,"hdop":1.83,"pdop":2.54,"tdop":1.83,"xdop":0.81,"ydop":1.65,"vdop":2.45,"uSat":6}
{"class":"SKY","device":"/dev/ttyACM0","time":"2024-07-09T10:11:50.250Z","gdop":2.96,"hdop":1.31,"pdop":2.54,"tdop":1.53,"xdop":0.81,"ydop":1.65,"vdop":2.17,"uSat":6}
{"class":"TPV","device":"/dev/ttyACM0","mode":3,"time":"2024-07-09T10:11:50.498Z","ept":0.005,"lat":52.315973933,"lon":10.561094338,"altHAE":131.8258,"altMSL":87.9268,"alt":87.9268,"epx":12.114,"epy":24.818,"epv":56.350,"track":295.2187,"magtrack":298.4380,"magvar":3.2,"speed":1.662,"climb":0.009,"eps":200.15,"epc":454.43,"ecefx":3841087.07,"ecefy":716140.68,"ecefz":5024476.92,"ecefvx":-0.27,"ecefvy":-1.58,"ecefvz":0.44,"ecefpAcc":5.17,"ecefvAcc":0.51,"velN":0.708,"velE":-1.504,"velD":-0.009,"geoidSep":43.899,"eph":34.770,"sep":48.260}
{"class":"SKY","device":"/dev/ttyACM0","time":"2024-07-09T10:11:50.498Z","gdop":2.96,"hdop":1.31,"pdop":2.54,"tdop":1.53,"xdop":0.81,"ydop":1.65,"vdop":2.17,"nSat":14,"uSat":7,"satellites":[{"PRN":2,"gnssid":0,"svid":2,"az":281.0,"el":47.0,"ss":45.0,"used":true,"health":1},{"PRN":22,"gnssid":0,"svid":22,"az":333.0,"el":9.0,"ss":40.0,"used":false,"health":1},{"PRN":27,"gnssid":0,"svid":27,"az":154.0,"el":37.0,"ss":32.0,"used":true,"health":1},{"PRN":23,"gnssid":0,"svid":23,"az":51.0,"el":13.0,"ss":0.0,"used":false,"health":1},{"PRN":24,"gnssid":0,"svid":24,"az":31.0,"el":3.0,"ss":0.0,"used":false,"health":1},{"PRN":13,"gnssid":0,"svid":13,"az":0.0,"el":-9.0,"ss":0.0,"used":false,"health":1},{"PRN":14,"gnssid":0,"svid":14,"az":316.0,"el":20.0,"ss":40.0,"used":true,"health":1},{"PRN":8,"gnssid":0,"svid":8,"az":190.0,"el":66.0,"ss":50.0,"used":true,"health":1},{"PRN":10,"gnssid":0,"svid":10,"az":59.0,"el":47.0,"ss":49.0,"used":true,"health":1},{"PRN":3,"gnssid":0,"svid":3,"az":222.0,"el":4.0,"ss":0.0,"used":false,"health":1},{"PRN":32,"gnssid":0,"svid":32,"az":107.0,"el":36.0,"ss":48.0,"used":true,"health":1},{"PRN":21,"gnssid":0,"svid":21,"az":284.0,"el":65.0,"ss":48.0,"used":true,"health":1},{"PRN":11,"gnssid":0,"svid":11,"az":0.0,"el":-9.0,"ss":0.0,"used":false,"health":1},{"PRN":16,"gnssid":0,"svid":16,"az":0.0,"el":-9.0,"ss":0.0,"used":false,"health":1}]}
{"class":"TPV","device":"/dev/ttyACM0","mode":3,"time":"2024-07-09T10:11:50.750Z","ept":0.005,"lat":52.315975975,"lon":10.561088264,"altHAE":131.8272,"altMSL":87.9282,"alt":87.9282,"epx":12.114,"epy":24.818,"epv":49.910,"track":299.1697,"magtrack":302.3890,"magvar":3.2,"speed":1.819,"climb":-0.002,"eps":0.52,"epc":421.67,"ecefx":3841086.97,"ecefy":716140.24,"ecefz":5024477.06,"ecefvx":-0.40,"ecefvy":-1.69,"ecefvz":0.54,"ecefpAcc":5.18,"ecefvAcc":0.52,"velN":0.886,"velE":-1.588,"velD":0.002,"geoidSep":43.899,"eph":24.890,"sep":81.510}
{"class":"SKY","device":"/dev/ttyACM0","time":"2024-07-09T10:11:50.498Z","gdop":2.96,"hdop":1.31,"pdop":4.29,"tdop":1.53,"xdop":0.81,"ydop":1.65,"vdop":2.17,"uSat":6}
{"class":"SKY","device":"/dev/ttyACM0","time":"2024-07-09T10:11:50.498Z","gdop":5.30,"hdop":1.54,"pdop":4.29,"tdop":3.10,"xdop":0.81,"ydop":1.65,"vdop":4.01,"uSat":6}
{"class":"TPV","device":"/dev/ttyACM0","mode":3,"time":"2024-07-09T10:11:50.750Z","ept":0.005,"lat":52.315975975,"lon":10.561088264,"altHAE":131.8272,"altMSL":87.9282,"alt":87.9282,"epx":12.114,"epy":24.818,"epv":49.910,"track":299.1697,"magtrack":302.3890,"magvar":3.2,"speed":1.819,"climb":-0.002,"eps":196.97,"epc":421.67,"ecefx":3841086.97,"ecefy":716140.24,"ecefz":5024477.06,"ecefvx":-0.40,"ecefvy":-1.69,"ecefvz":0.54,"ecefpAcc":5.18,"ecefvAcc":0.52,"velN":0.886,"velE":-1.588,"velD":0.002,"geoidSep":43.899,"eph":24.890,"sep":81.510}
{"class":"SKY","device":"/dev/ttyACM0","time":"2024-07-09T10:11:50.750Z","gdop":5.30,"hdop":1.54,"pdop":4.29,"tdop":3.10,"xdop":0.81,"ydop":1.65,"vdop":4.01,"nSat":14,"uSat":6,"satellites":[{"PRN":2,"gnssid":0,"svid":2,"az":281.0,"el":47.0,"ss":44.0,"used":true,"health":1},{"PRN":22,"gnssid":0,"svid":22,"az":333.0,"el":9.0,"ss":38.0,"used":false,"health":1},{"PRN":27,"gnssid":0,"svid":27,"az":154.0,"el":37.0,"ss":31.0,"used":true,"health":1},{"PRN":23,"gnssid":0,"svid":23,"az":51.0,"el":13.0,"ss":0.0,"used":false,"health":1},{"PRN":24,"gnssid":0,"svid":24,"az":31.0,"el":3.0,"ss":0.0,"used":false,"health":1},{"PRN":13,"gnssid":0,"svid":13,"az":0.0,"el":-9.0,"ss":0.0,"used":false,"health":1},{"PRN":14,"gnssid":0,"svid":14,"az":316.0,"el":20.0,"ss":40.0,"used":false,"health":1},{"PRN":8,"gnssid":0,"svid":8,"az":190.0,"el":66.0,"ss":50.0,"used":true,"health":1},{"PRN":10,"gnssid":0,"svid":10,"az":59.0,"el":47.0,"ss":49.0,"used":true,"health":1},{"PRN":3,"gnssid":0,"svid":3,"az":222.0,"el":4.0,"ss":0.0,"used":false,"health":1},{"PRN":32,"gnssid":0,"svid":32,"az":107.0,"el":36.0,"ss":48.0,"used":true,"health":1},{"PRN":21,"gnssid":0,"svid":21,"az":284.0,"el":65.0,"ss":48.0,"used":true,"health":1},{"PRN":11,"gnssid":0,"svid":11,"az":0.0,"el":-9.0,"ss":0.0,"used":false,"health":1},{"PRN":16,"gnssid":0,"svid":16,"az":0.0,"el":-9.0,"ss":0.0,"used":false,"health":1}]}
{"class":"TPV","device":"/dev/ttyACM0","mode":3,"time":"2024-07-09T10:11:50.998Z","ept":0.005,"lat":52.315978267,"lon":10.561082243,"altHAE":131.8324,"altMSL":87.9334,"alt":87.9334,"epx":12.114,"epy":24.818,"epv":92.230,"track":297.8619,"magtrack":301.0812,"magvar":3.2,"speed":1.791,"climb":-0.015,"eps":0.52,"epc":573.14,"ecefx":3841086.85,"ecefy":716139.80,"ecefz":5024477.22,"ecefvx":-0.37,"ecefvy":-1.68,"ecefvz":0.50,"ecefpAcc":5.18,"ecefvAcc":0.52,"velN":0.837,"velE":-1.584,"velD":0.015,"geoidSep":43.899,"eph":29.260,"sep":81.510}
{"class":"SKY","device":"/dev/ttyACM0","time":"2024-07-09T10:11:50.750Z","gdop":5.30,"hdop":1.54,"pdop":4.29,"tdop":3.10,"xdop":0.81,"ydop":1.65,"vdop":4.01,"uSat":6}
{"class":"SKY","device":"/dev/ttyACM0","time":"2024-07-09T10:11:50.750Z","gdop":5.30,"hdop":1.54,"pdop":4.29,"tdop":3.10,"xdop":0.81,"ydop":1.65,"vdop":4.01,"uSat":6}
{"class":"TPV","device":"/dev/ttyACM0","mode":3,"time":"2024-07-09T10:11:50.998Z","ept":0.005,"lat":52.315978267,"lon":10.561082243,"altHAE":131.8324,"altMSL":87.9334,"alt":87.9334,"epx":12.114,"epy":24.818,"epv":92.230,"track":297.8619,"magtrack":301.0812,"magvar":3.2,"speed":1.791,"climb":-0.015,"eps":200.15,"epc":573.14,"ecefx":3841086.85,"ecefy":716139.80,"ecefz":5024477.22,"ecefvx":-0.37,"ecefvy":-1.68,"ecefvz":0.50,"ecefpAcc":5.18,"ecefvAcc":0.52,"velN":0.837,"velE":-1.584,"velD":0.015,"geoidSep":43.899,"eph":29.260,"sep":81.510}
{"class":"SKY","device":"/dev/ttyACM0","time":"2024-07-09T10:11:50.998Z","gdop":5.30,"hdop":1.54,"pdop":4.29,"tdop":3.10,"xdop":0.81,"ydop":1.65,"vdop":4.01,"nSat":14,"uSat":6,"satellites":[{"PRN":2,"gnssid":0,"svid":2,"az":281.0,"el":47.0,"ss":46.0,"used":true,"health":1},{"PRN":22,"gnssid":0,"svid":22,"az":333.0,"el":9.0,"ss":38.0,"used":false,"health":1},{"PRN":27,"gnssid":0,"svid":27,"az":154.0,"el":37.0,"ss":36.0,"used":true,"health":1},{"PRN":23,"gnssid":0,"svid":23,"az":51.0,"el":13.0,"ss":0.0,"used":false,"health":1},{"PRN":24,"gnssid":0,"svid":24,"az":31.0,"el":3.0,"ss":0.0,"used":false,"health":1},{"PRN":13,"gnssid":0,"svid":13,"az":0.0,"el":-9.0,"ss":0.0,"used":false,"health":1},{"PRN":14,"gnssid":0,"svid":14,"az":316.0,"el":20.0,"ss":40.0,"used":false,"health":1},{"PRN":8,"gnssid":0,"svid":8,"az":190.0,"el":66.0,"ss":50.0,"used":true,"health":1},{"PRN":10,"gnssid":0,"svid":10,"az":59.0,"el":47.0,"ss":49.0,"used":true,"health":1},{"PRN":3,"gnssid":0,"svid":3,"az":222.0,"el":4.0,"ss":0.0,"used":false,"health":1},{"PRN":32,"gnssid":0,"svid":32,"az":107.0,"el":36.0,"ss":48.0,"used":true,"health":1},{"PRN":21,"gnssid":0,"svid":21,"az":284.0,"el":65.0,"ss":48.0,"used":true,"health":1},{"PRN":11,"gnssid":0,"svid":11,"az":0.0,"el":-9.0,"ss":0.0,"used":false,"health":1},{"PRN":16,"gnssid":0,"svid":16,"az":0.0,"el":-9.0,"ss":0.0,"used":false,"health":1}]}
{"class":"TPV","device":"/dev/ttyACM0","mode":3,"time":"2024-07-09T10:11:51.250Z","ept":0.005,"lat":52.315980608,"lon":10.561076115,"altHAE":131.9091,"altMSL":88.0101,"alt":88.0101,"epx":12.114,"epy":24.818,"epv":92.230,"track":298.9786,"magtrack":302.1978,"magvar":3.2,"speed":1.892,"climb":0.000,"eps":0.53,"epc":731.98,"ecefx":3841086.77,"ecefy":716139.36,"ecefz":5024477.44,"ecefvx":-0.41,"ecefvy":-1.76,"ecefvz":0.56,"ecefpAcc":5.19,"ecefvAcc":0.53,"velN":0.917,"velE":-1.655,"velD":0.000,"geoidSep":43.899,"eph":29.260,"sep":43.890}
{"class":"SKY","device":"/dev/ttyACM0","time":"2024-07-09T10:11:50.998Z","gdop":5.30,"hdop":1.54,"pdop":2.31,"tdop":3.10,"xdop":0.81,"ydop":1.65,"vdop":4.01,"uSat":6}
{"class":"SKY","device":"/dev/ttyACM0","time":"2024-07-09T10:11:50.998Z","gdop":2.66,"hdop":1.31,"pdop":2.31,"tdop":1.32,"xdop":0.81,"ydop":1.65,"vdop":1.90,"uSat":6}
{"class":"TPV","device":"/dev/ttyACM0","mode":3,"time":"2024-07-09T10:11:51.250Z","ept":0.005,"lat":52.315980608,"lon":10.561076115,"altHAE":131.9091,"altMSL":88.0101,"alt":88.0101,"epx":12.114,"epy":24.818,"epv":92.230,"track":298.9786,"magtrack":302.1978,"magvar":3.2,"speed":1.892,"climb":0.000,"eps":196.97,"epc":731.98,"ecefx":3841086.77,"ecefy":716139.36,"ecefz":5024477.44,"ecefvx":-0.41,"ecefvy":-1.76,"ecefvz":0.56,"ecefpAcc":5.19,"ecefvAcc":0.53,"velN":0.917,"velE":-1.655,"velD":0.000,"geoidSep":43.899,"eph":29.260,"sep":43.890}
{"class":"SKY","device":"/dev/ttyACM0","time":"2024-07-09T10:11:51.250Z","gdop":2.66,"hdop":1.31,"pdop":2.31,"tdop":1.32,"xdop":0.81,"ydop":1.65,"vdop":1.90,"nSat":14,"uSat":7,"satellites":[{"PRN":2,"gnssid":0,"svid":2,"az":281.0,"el":47.0,"ss":46.0,"used":true,"health":1},{"PRN":22,"gnssid":0,"svid":22,"az":333.0,"el":9.0,"ss":38.0,"used":true,"health":1},{"PRN":27,"gnssid":0,"svid":27,"az":154.0,"el":37.0,"ss":37.0,"used":true,"health":1},{"PRN":23,"gnssid":0,"svid":23,"az":51.0,"el":13.0,"ss":0.0,"used":false,"health":1},{"PRN":24,"gnssid":0,"svid":24,"az":31.0,"el":3.0,"ss":0.0,"used":false,"health":1},{"PRN":13,"gnssid":0,"svid":13,"az":0.0,"el":-9.0,"ss":0.0,"used":false,"health":1},{"PRN":14,"gnssid":0,"svid":14,"az":316.0,"el":20.0,"ss":41.0,"used":false,"health":1},{"PRN":8,"gnssid":0,"svid":8,"az":190.0,"el":66.0,"ss":51.0,"used":true,"health":1},{"PRN":10,"gnssid":0,"svid":10,"az":59.0,"el":47.0,"ss":49.0,"used":true,"health":1},{"PRN":3,"gnssid":0,"svid":3,"az":222.0,"el":4.0,"ss":0.0,"used":false,"health":1},{"PRN":32,"gnssid":0,"svid":32,"az":107.0,"el":36.0,"ss":47.0,"used":true,"health":1},{"PRN":21,"gnssid":0,"svid":21,"az":284.0,"el":65.0,"ss":48.0,"used":true,"health":1},{"PRN":11,"gnssid":0,"svid":11,"az":0.0,"el":-9.0,"ss":0.0,"used":false,"health":1},{"PRN":16,"gnssid":0,"svid":16,"az":0.0,"el":-9.0,"ss":0.0,"used":false,"health":1}]}
{"class":"TPV","device":"/dev/ttyACM0","mode":3,"time":"2024-07-09T10:11:51.498Z","ept":0.005,"lat":52.315982714,"lon":10.561070195,"altHAE":132.0061,"altMSL":88.1071,"alt":88.1071,"epx":12.114,"epy":24.818,"epv":43.700,"track":298.3060,"magtrack":301.5253,"magvar":3.2,"speed":1.906,"climb":0.009,"eps":2.95,"epc":548.10,"ecefx":3841086.72,"ecefy":716138.94,"ecefz":5024477.66,"ecefvx":-0.39,"ecefvy":-1.78,"ecefvz":0.56,"ecefpAcc":5.19,"ecefvAcc":2.95,"velN":0.904,"velE":-1.678,"velD":-0.009,"geoidSep":43.899,"eph":24.890,"sep":42.370}
{"class":"SKY","device":"/dev/ttyACM0","time":"2024-07-09T10:11:51.250Z","gdop":2.66,"hdop":1.31,"pdop":2.23,"tdop":1.32,"xdop":0.81,"ydop":1.65,"vdop":1.90,"uSat":6}
{"class":"SKY","device":"/dev/ttyACM0","time":"2024-07-09T10:11:51.250Z","gdop":2.55,"hdop":1.29,"pdop":2.23,"tdop":1.23,"xdop":0.81,"ydop":1.65,"vdop":1.82,"uSat":6}
{"class":"TPV","device":"/dev/ttyACM0","mode":3,"time":"2024-07-09T10:11:51.498Z","ept":0.005,"lat":52.315982714,"lon":10.561070195,"altHAE":132.0061,"altMSL":88.1071,"alt":88.1071,"epx":12.114,"epy":24.818,"epv":43.700,"track":298.3060,"magtrack":301.5253,"magvar":3.2,"speed":1.906,"climb":0.009,"eps":200.15,"epc":548.10,"ecefx":3841086.72,"ecefy":716138.94,"ecefz":5024477.66,"ecefvx":-0.39,"ecefvy":-1.78,"ecefvz":0.56,"ecefpAcc":5.19,"ecefvAcc":2.95,"velN":0.904,"velE":-1.678,"velD":-0.009,"geoidSep":43.899,"eph":24.890,"sep":42.370}
{"class":"SKY","device":"/dev/ttyACM0","time":"2024-07-09T10:11:51.498Z","gdop":2.55,"hdop":1.29,"pdop":2.23,"tdop":1.23,"xdop":0.81,"ydop":1.65,"vdop":1.82,"nSat":14,"uSat":8,"satellites":[{"PRN":2,"gnssid":0,"svid":2,"az":281.0,"el":47.0,"ss":46.0,"used":true,"health":1},{"PRN":22,"gnssid":0,"svid":22,"az":333.0,"el":9.0,"ss":39.0,"used":true,"health":1},{"PRN":27,"gnssid":0,"svid":27,"az":154.0,"el":37.0,"ss":36.0,"used":true,"health":1},{"PRN":23,"gnssid":0,"svid":23,"az":51.0,"el":13.0,"ss":0.0,"used":false,"health":1},{"PRN":24,"gnssid":0,"svid":24,"az":31.0,"el":3.0,"ss":0.0,"used":false,"health":1},{"PRN":13,"gnssid":0,"svid":13,"az":0.0,"el":-9.0,"ss":0.0,"used":false,"health":1},{"PRN":14,"gnssid":0,"svid":14,"az":316.0,"el":20.0,"ss":43.0,"used":true,"health":1},{"PRN":8,"gnssid":0,"svid":8,"az":190.0,"el":66.0,"ss":51.0,"used":true,"health":1},{"PRN":10,"gnssid":0,"svid":10,"az":59.0,"el":47.0,"ss":50.0,"used":true,"health":1},{"PRN":3,"gnssid":0,"svid":3,"az":222.0,"el":4.0,"ss":0.0,"used":false,"health":1},{"PRN":32,"gnssid":0,"svid":32,"az":107.0,"el":36.0,"ss":48.0,"used":true,"health":1},{"PRN":21,"gnssid":0,"svid":21,"az":284.0,"el":65.0,"ss":49.0,"used":true,"health":1},{"PRN":11,"gnssid":0,"svid":11,"az":0.0,"el":-9.0,"ss":0.0,"used":false,"health":1},{"PRN":16,"gnssid":0,"svid":16,"az":0.0,"el":-9.0,"ss":0.0,"used":false,"health":1}]}
{"class":"TPV","device":"/dev/ttyACM0","mode":3,"time":"2024-07-09T10:11:51.750Z","ept":0.005,"lat":52.315985175,"lon":10.561063987,"altHAE":132.1483,"altMSL":88.2494,"alt":88.2494,"epx":12.114,"epy":24.818,"epv":41.860,"track":295.2029,"magtrack":298.4221,"magvar":3.2,"speed":1.886,"climb":0.037,"eps":0.53,"epc":339.52,"ecefx":3841086.67,"ecefy":716138.50,"ecefz":5024477.94,"ecefvx":-0.29,"ecefvy":-1.79,"ecefvz":0.52,"ecefpAcc":5.20,"ecefvAcc":0.53,"velN":0.803,"velE":-1.707,"velD":-0.037,"geoidSep":43.899,"eph":24.510,"sep":48.260}
{"class":"SKY","device":"/dev/ttyACM0","time":"2024-07-09T10:11:51.498Z","gdop":2.55,"hdop":1.29,"pdop":2.54,"tdop":1.23,"xdop":0.81,"ydop":1.65,"vdop":1.82,"uSat":6}
{"class":"SKY","device":"/dev/ttyACM0","time":"2024-07-09T10:11:51.498Z","gdop":2.96,"hdop":1.31,"pdop":2.54,"tdop":1.53,"xdop":0.81,"ydop":1.65,"vdop":2.17,"uSat":6}
{"class":"TPV","device":"/dev/ttyACM0","mode":3,"time":"2024-07-09T10:11:51.750Z","ept":0.005,"lat":52.315985175,"lon":10.561063987,"altHAE":132.1483,"altMSL":88.2494,"alt":88.2494,"epx":12.114,"epy":24.818,"epv":41.860,"track":295.2029,"magtrack":298.4221,"magvar":3.2,"speed":1.886,"climb":0.037,"eps":196.97,"epc":339.52,"ecefx":3841086.67,"ecefy":716138.50,"ecefz":5024477.94,"ecefvx":-0.29,"ecefvy":-1.79,"ecefvz":0.52,"ecefpAcc":5.20,"ecefvAcc":0.53,"velN":0.803,"velE":-1.707,"velD":-0.037,"geoidSep":43.899,"eph":24.510,"sep":48.260}
{"class":"SKY","device":"/dev/ttyACM0","time":"2024-07-09T10:11:51.750Z","gdop":2.96,"hdop":1.31,"pdop":2.54,"tdop":1.53,"xdop":0.81,"ydop":1.65,"vdop":2.17,"nSat":14,"uSat":7,"satellites":[{"PRN":2,"gnssid":0,"svid":2,"az":281.0,"el":47.0,"ss":46.0,"used":true,"health":1},{"PRN":22,"gnssid":0,"svid":22,"az":333.0,"el":9.0,"ss":36.0,"used":false,"health":1},{"PRN":27,"gnssid":0,"svid":27,"az":154.0,"el":37.0,"ss":37.0,"used":true,"health":1},{"PRN":23,"gnssid":0,"svid":23,"az":51.0,"el":13.0,"ss":0.0,"used":false,"health":1},{"PRN":24,"gnssid":0,"svid":24,"az":31.0,"el":3.0,"ss":0.0,"used":false,"health":1},{"PRN":13,"gnssid":0,"svid":13,"az":0.0,"el":-9.0,"ss":0.0,"used":false,"health":1},{"PRN":14,"gnssid":0,"svid":14,"az":316.0,"el":20.0,"ss":43.0,"used":true,"health":1},{"PRN":8,"gnssid":0,"svid":8,"az":190.0,"el":66.0,"ss":50.0,"used":true,"health":1},{"PRN":10,"gnssid":0,"svid":10,"az":59.0,"el":47.0,"ss":50.0,"used":true,"health":1},{"PRN":3,"gnssid":0,"svid":3,"az":222.0,"el":4.0,"ss":0.0,"used":false,"health":1},{"PRN":32,"gnssid":0,"svid":32,"az":107.0,"el":36.0,"ss":48.0,"used":true,"health":1},{"PRN":21,"gnssid":0,"svid":21,"az":284.0,"el":65.0,"ss":48.0,"used":true,"health":1},{"PRN":11,"gnssid":0,"svid":11,"az":0.0,"el":-9.0,"ss":0.0,"used":false,"health":1},{"PRN":16,"gnssid":0,"svid":16,"az":0.0,"el":-9.0,"ss":0.0,"used":false,"health":1}]}
{"class":"TPV","device":"/dev/ttyACM0","mode":3,"time":"2024-07-09T10:11:51.998Z","ept":0.005,"lat":52.315987128,"lon":10.561057517,"altHAE":132.1953,"altMSL":88.2963,"alt":88.2963,"epx":12.114,"epy":24.818,"epv":49.910,"track":296.7618,"magtrack":299.9811,"magvar":3.2,"speed":1.947,"climb":0.056,"eps":0.54,"epc":370.04,"ecefx":3841086.61,"ecefy":716138.04,"ecefz":5024478.11,"ecefvx":-0.33,"ecefvy":-1.83,"ecefvz":0.58,"ecefpAcc":5.21,"ecefvAcc":0.54,"velN":0.877,"velE":-1.739,"velD":-0.056,"geoidSep":43.899,"eph":24.890,"sep":59.470}
{"class":"SKY","device":"/dev/ttyACM0","time":"2024-07-09T10:11:51.750Z","gdop":2.96,"hdop":1.31,"pdop":3.13,"tdop":1.53,"xdop":0.81,"ydop":1.65,"vdop":2.17,"uSat":6}
